     2.11           OBSERVATION DATA    G (GPS)             RINEX VERSION / TYPE
clockShift          gpsops              20140913 001049 UTC PGM / RUN BY / DATE
teqc  2013Mar15     gpsops              20140913 00:10:48UTCCOMMENT
Linux 2.4.21-27.ELsmp|Opteron|gcc -static|Linux x86_64|=+   COMMENT
BIT 2 OF LLI FLAGS DATA COLLECTED UNDER A/S CONDITION       COMMENT
AMC2                                                        MARKER NAME
40472S004                                                   MARKER NUMBER
GGN                 USNO                                    OBSERVER / AGENCY
RT920013101         ASHTECH Z-XII3T     IL01-1D04-MCF-12MX  REC # / TYPE / VERS
KW-0201             AOAD/M_T        NONE                    ANT # / TYPE
 -1248596.2520 -4819428.2840  3976506.0340                  APPROX POSITION XYZ
        0.0000        0.0000        0.0000                  ANTENNA: DELTA H/E/N
     1     1                                                WAVELENGTH FACT L1/2
     7    L1    L2    P1    P2    C1    S1    S2            # / TYPES OF OBSERV
    30.0000                                                 INTERVAL
                                                            COMMENT
This data is provided as a public service by NASA/JPL.      COMMENT
No warranty is expressed or implied regarding suitability   COMMENT
for use.  For further information, contact:                 COMMENT
Dave Stowers, NASA/JPL m/s 238-600                          COMMENT
4800 Oak Grove Drive, Pasadena CA 91109 USA                 COMMENT
                                                            COMMENT
Forced Modulo Decimation to 30 seconds                      COMMENT
 SNR is mapped to RINEX snr flag value [0-9]                COMMENT
  L1 & L2: min(max(int(snr_dBHz/6), 0), 9)                  COMMENT
pseudorange smoothing corrections not applied               COMMENT
clockShift applied 466.79 L1, 478.44 L2 (ns)                COMMENT
  2014     9    12     0     0    0.0000000     GPS         TIME OF FIRST OBS
                                                            END OF HEADER
 14  9 12  0  0  0.0000000  0  7G18G15G16G26G05G21G29
 -15357187.51547 -11706219.99746  22074424.4314   22074424.9374   22074424.665
        43.6004         40.9004
 -21213876.42547 -16272059.25247  21267067.1294   21267067.7754   21267066.856
        46.3004         43.5004
  -2398634.68846  -1859386.94845  24511774.5314   24511778.3264   24511775.471
        36.1004         34.1004
 -17859610.15547 -13898621.17346  21522611.4394   21522612.3404   21522611.296
        44.2004         41.2004
  -5731928.02646  -4454370.28746  23759042.3794   23759044.9174   23759042.854
        39.7004         37.3004
 -14879982.67047 -11579989.79446  22148470.9884   22148471.6404   22148471.710
        44.4004         41.6004
 -25001095.18248 -19061409.50147  20378160.2374   20378160.6574   20378160.078
        49.3004         46.1004
 14  9 12  0  0 30.0000000  0  7G18G15G16G26G05G21G29
 -15418816.00047 -11754242.13146  22062697.5344   22062697.5064   22062697.184
        43.6004         40.7004
 -21265876.78247 -16312578.96047  21257171.9344   21257172.6624   21257171.865
        46.5004         43.7004
  -2424165.76246  -1879281.27345  24506917.0494   24506920.3874   24506916.753
        36.1004         34.3004
 -17858698.57447 -13897910.82446  21522784.9244   21522786.0564   21522784.966
        44.2004         41.6004
  -5635544.11446  -4379265.99046  23777384.8074   23777385.7584   23777384.312
        39.9004         37.4004
 -14934678.57647 -11622609.97446  22138063.1254   22138063.4474   22138063.446
        44.6004         41.8004
 -24959124.80048 -19028705.32947  20386146.8004   20386147.6184   20386146.717
        49.1004         46.1004
 14  9 12  0  1  0.0000000  0  7G18G15G16G26G05G21G29
 -15480169.88647 -11802050.30946  22051021.4404   22051021.7984   22051021.934
        43.7004         40.9004
 -21317348.94647 -16352687.09247  21247376.8044   21247377.9214   21247376.738
        46.5004         43.7004
  -2449153.43246  -1898752.16545  24502160.8504   24502160.1734   24502161.446
        36.1004         34.3004
 -17857082.63947 -13896651.65446  21523091.8034   21523094.0914   21523092.391
        44.2004         41.2004
  -5539106.49046  -4304119.84746  23795735.9524   23795737.7024   23795735.403
        39.9004         37.4004
 -14989286.32847 -11665161.44746  22127671.4514   22127671.6914   22127672.174
        44.6004         41.8004
 -24916629.78048 -18995592.34047  20394233.5834   20394233.9724   20394233.181
        49.1004         46.1004
 14  9 12  0  1 30.0000000  0  7G18G15G16G26G05G21G29
 -15541249.46047 -11849644.73646  22039397.3064   22039399.6034   22039398.745
        43.7004         40.9004
 -21368290.89247 -16392382.06647  21237682.6274   21237683.8134   21237682.244
        46.5004         43.7004
  -2473596.90945  -1917799.02045  24497509.2904   24497511.7524   24497509.816
        35.7004         34.0004
 -17854762.19947 -13894843.51546  21523533.2724   21523535.3384   21523533.559
        44.1004         41.2004
  -5442617.15046  -4228933.40046  23814096.8834   23814098.6664   23814096.672
        40.1004         37.4004
 -15043805.07747 -11707643.57246  22117297.5274   22117297.0564   22117297.526
        44.6004         41.9004
 -24873611.02648 -18962071.25847  20402419.7054   20402420.0774   20402419.763
        49.1004         46.1004
 14  9 12  0  2  0.0000000  0  7G18G15G16G26G05G21G29
 -15602053.82047 -11897024.70746  22027827.8804   22027828.1054   22027827.984
        43.6004         40.7004
 -21418700.47647 -16431662.21247  21228090.4244   21228091.4584   21228089.803
        46.7004         43.7004
  -2497495.78245  -1936421.48545  24492961.3534   24492964.7034   24492962.167
        35.9004         34.0004
 -17851736.84947 -13892486.09046  21524109.2944   21524111.6004   21524109.442
        44.1004         41.1004
  -5346078.50946  -4153708.53046  23832467.8714   23832469.8424   23832467.731
        39.9004         37.3004
 -15098233.76347 -11750055.51746  22106939.3654   22106940.2984   22106940.138
        44.8004         41.9004
 -24830069.18648 -18928142.57447  20410705.4554   20410705.7564   20410705.399
        48.9004         45.9004
 14  9 12  0  2 30.0000000  0  7G18G15G16G26G05G21G29
 -15662582.76047 -11944190.06746  22016309.1394   22016309.7514   22016309.554
        43.6004         40.6004
 -21468575.68747 -16470525.96647  21218599.5634   21218600.2524   21218599.188
        46.7004         43.7004
  -2520849.76945  -1954619.40145  24488516.5934   24488521.6064   24488518.688
        35.7004         34.0004
 -17848006.45847 -13889579.28046  21524819.1094   21524820.7394   21524819.195
        44.1004         41.1004
  -5249491.60246  -4078446.07146  23850847.0614   23850850.2144   23850847.522
        39.9004         37.4004
 -15152572.02147 -11792397.01146  22096599.4124   22096599.2404   22096599.670
        44.8004         41.8004
 -24786005.17348 -18893807.00347  20419090.5094   20419090.8384   20419090.365
        48.9004         45.8004
 14  9 12  0  3  0.0000000  0  8G18G15G16G26G22G05G21G29
 -15722836.37747 -11991140.89146  22004842.5344   22004844.7274   22004843.555
        43.6004         40.7004
 -21517914.85247 -16508972.02047  21209210.1734   21209211.1144   21209210.071
        46.7004         43.9004
  -2543658.04645  -1972392.06545  24484178.9944   24484181.2754   24484177.872
        35.9004         34.3004
 -17843570.81147 -13886122.92046  21525663.1944   21525664.5764   21525663.214
        43.9004         41.1004
    -19923.54444     -5986.49643      -139.940        -143.433    25183993.661
        26.4004         23.4004
  -5152857.86146  -4003147.09646  23869236.5584   23869238.7154   23869236.475
        39.7004         37.3004
 -15206818.87247 -11834667.25146  22086276.7584   22086276.3324   22086276.950
        44.8004         41.8004
 -24741419.70948 -18859065.11147  20427574.8314   20427575.5744   20427574.751
        48.8004         45.8004
 14  9 12  0  3 30.0000000  0  8G18G15G16G26G22G05G21G29
 -15782814.16047 -12037876.78146  21993429.8734   21993430.4084   21993430.180
        43.6004         40.6004
 -21566715.91947 -16546998.77247  21199923.8544   21199924.7434   21199923.519
        46.9004         43.9004
  -2565920.31045  -1989739.26145  24479940.2214   24479944.6244   24479941.920
        35.9004         34.0004
 -17838429.82847 -13882116.93446  21526641.1814   21526643.9504   21526641.648
        44.1004         41.2004
   -111916.39144    -77669.18745      -139.940        -143.433    25166484.824
        26.4004         30.8004
  -5056178.92946  -3927812.93946  23887634.0084   23887635.6734   23887633.580
        39.6004         37.1004
 -15260974.03047 -11876866.05946  22075971.0504   22075971.1804   22075971.686
        44.8004         41.9004
 -24696313.71748 -18823917.61447  20436158.3754   20436158.9464   20436158.091
        48.8004         45.8004
 14  9 12  0  4  0.0000000  0  8G18G15G16G26G22G05G21G29
 -15842515.98147 -12084397.63646  21982068.8894   21982069.5424   21982069.468
        43.6004         40.9004
 -21614976.99047 -16584604.75447  21190740.0834   21190741.0094   21190739.829
        46.9004         44.0004
  -2587636.41645  -2006660.88345  24475808.9624   24475812.8404   24475809.008
        35.7004         34.1004
 -17832583.36447 -13877561.23146  21527753.9954   21527756.0854   21527754.181
        44.2004         41.4004
   -203803.54144   -149269.19745      -139.940        -143.433    25149000.699
        26.4004         34.0004
  -4959456.61246  -3852444.96746  23906040.2934   23906041.2634   23906039.413
        39.6004         37.1004
 -15315036.42147 -11918992.57746  22065683.1864   22065683.5504   22065683.917
        44.6004         41.8004
 -24650688.08048 -18788365.19747  20444840.4484   20444841.1324   20444840.574
        48.8004         45.8004
 14  9 12  0  4 30.0000000  0  8G18G15G16G26G22G05G21G29
 -15901941.57147 -12130703.25746  21970760.6304   21970760.9294   21970761.218
        43.7004         40.9004
 -21662695.79547 -16621788.18647  21181659.5224   21181660.1884   21181659.290
        46.9004         43.9004
  -2608805.96745  -2023156.65045  24471779.7924   24471784.2474   24471781.464
        35.6004         33.6004
 -17826031.34047 -13872455.74346  21529000.9074   21529003.5524   21529001.186
        44.2004         41.4004
   -295583.91245   -220786.04245      -139.940    25131539.9434   25131536.143
        34.5004         34.6004
  -4862692.40046  -3777044.34646  23924454.4514   23924455.5214   23924453.307
        39.6004         37.1004
 -15369005.40247 -11961046.30246  22055412.4134   22055413.4884   22055413.832
        44.6004         41.6004
 -24604543.64048 -18752408.51047  20453621.6374   20453622.1714   20453621.650
        48.8004         45.8004
 14  9 12  0  5  0.0000000  0  8G18G15G16G26G22G05G21G29
 -15961090.46547 -12176793.27146  21959505.3724   21959505.3414   21959505.562
        43.9004         41.2004
 -21709870.88647 -16658547.95247  21172682.5114   21172683.1894   21172682.014
        46.9004         43.9004
  -2629428.14945  -2039225.87045  24467857.6074   24467859.2534   24467856.914
        35.6004         34.0004
 -17818773.72147 -13866800.43646  21530382.0354   21530384.2354   21530382.315
        44.4004         41.6004
   -387257.12046   -292219.46645  25114088.8404   25114094.4744   25114090.261
        36.6004         35.0004
  -4765887.54346  -3701612.05146  23942874.4944   23942876.1744   23942874.501
        39.6004         37.3004
 -15422880.27247 -12003026.69946  22045161.4254   22045161.0094   22045161.518
        44.6004         41.6004
 -24557881.53248 -18716048.45647  20462501.3184   20462501.7984   20462501.061
        48.8004         45.6004
 14  9 12  0  5 30.0000000  0  8G18G15G16G26G22G05G21G29
 -16019962.98947 -12222667.92946  21948301.7364   21948302.9624   21948302.208
        43.9004         41.2004
 -21756500.01547 -16694882.29447  21163808.7914   21163809.3444   21163808.429
        46.9004         43.9004
  -2649502.90545  -2054868.51945  24464036.2434   24464038.8254   24464037.104
        35.6004         33.8004
 -17810810.51647 -13860595.33346  21531897.0254   21531899.3334   21531897.533
        44.4004         41.6004
   -478821.76046   -363568.28845  25096665.6444   25096669.0074   25096665.651
        37.3004         35.3004
  -4669044.07946  -3626149.67746  23961303.1184   23961305.2184   23961303.341
        39.7004         37.3004
 -15476660.13947 -12044933.06646  22034927.0574   22034927.1384   22034927.481
        44.6004         41.8004
 -24510702.32548 -18679285.46347  20471479.0044   20471479.4134   20471478.924
        48.6004         45.6004
 14  9 12  0  6  0.0000000  0  8G18G15G16G26G22G05G21G29
 -16078558.59847 -12268326.82146  21937151.6294   21937152.0004   21937151.648
        43.9004         41.1004
 -21802581.45047 -16730789.85747  21155039.7914   21155040.4314   21155039.519
        46.9004         43.9004
  -2669030.17045  -2070084.54145  24460320.8184   24460324.6044   24460321.784
        35.6004         33.8004
 -17802141.72047 -13853840.41846  21533546.4714   21533548.5764   21533547.191
        44.4004         41.4004
   -570277.03946   -434831.87745  25079260.6894   25079263.5604   25079261.919
        37.0004         35.0004
  -4572163.66746  -3550658.52446  23979739.2304   23979741.5204   23979738.776
        39.7004         37.3004
 -15530344.27847 -12086764.84246  22024711.0804   22024710.9914   22024711.698
        44.6004         41.6004
 -24463006.98248 -18642120.28347  20480555.4424   20480556.0274   20480554.987
        48.6004         45.6004
 14  9 12  0  6 30.0000000  0  8G18G15G16G26G22G05G21G29
 -16136877.17247 -12313769.82946  21926053.8774   21926054.1364   21926053.957
        43.9004         41.1004
 -21848113.54247 -16766269.36747  21146375.1764   21146375.8264   21146375.031
        46.7004         43.9004
  -2688009.44345  -2084873.57845  24456708.3934   24456708.5584   24456708.744
        35.4004         33.8004
 -17792767.49347 -13846535.81846  21535331.0744   21535333.2354   21535330.928
        44.2004         41.2004
   -661622.16846   -506009.67145  25061878.0654   25061883.0724   25061878.858
        37.0004         35.0004
  -4475247.65846  -3475139.63746  23998182.3474   23998184.3714   23998181.623
        39.6004         37.1004
 -15583931.97947 -12128521.47046  22014513.4964   22014514.3134   22014514.372
        44.6004         41.6004
 -24414796.52548 -18604553.71247  20489729.4844   20489729.8064   20489729.282
        48.6004         45.6004
 14  9 12  0  7  0.0000000  0  8G18G15G16G26G22G05G21G29
 -16194918.53147 -12358996.82446  21915008.5484   21915009.0204   21915009.281
        44.1004         41.4004
 -21893094.54247 -16801319.45647  21137815.6004   21137816.1094   21137815.448
        46.9004         43.9004
  -2706440.46245  -2099235.38945  24453199.6204   24453201.9654   24453200.138
        35.6004         33.6004
 -17782687.82347 -13838681.52646  21537249.6854   21537249.8064   21537248.988
        44.1004         41.1004
   -752856.38646   -577101.03445  25044516.2634   25044521.7694   25044517.334
        36.8004         34.6004
  -4378297.39946  -3399594.04646  24016630.8594   24016632.3494   24016630.921
        39.7004         37.4004
 -15637421.99847 -12170201.98246  22004335.1554   22004335.0994   22004335.688
        44.6004         41.6004
 -24366071.75248 -18566586.38347  20499001.4814   20499002.2054   20499001.306
        48.6004         45.4004
 14  9 12  0  7 30.0000000  0  8G18G15G16G26G22G05G21G29
 -16252682.45747 -12404007.63446  21904016.5824   21904017.4944   21904017.262
        44.1004         41.4004
 -21937522.45647 -16835938.57047  21129361.3344   21129361.6734   21129360.990
        46.9004         43.9004
  -2724323.03445  -2113169.84845  24449797.4194   24449801.1354   24449796.984
        35.2004         33.6004
 -17771902.89847 -13830277.67146  21539301.2944   21539303.1124   21539301.024
        43.9004         40.9004
   -843978.91546   -648105.39245  25027175.8474   25027180.9414   25027177.527
        36.3004         34.1004
  -4281314.54346  -3324023.05446  24035085.9084   24035087.4604   24035085.804
        39.7004         37.4004
 -15690813.79647 -12211805.96146  21994174.8354   21994175.0924   21994175.458
        44.4004         41.6004
 -24316834.12048 -18528219.42247  20508371.1574   20508371.6914   20508370.893
        48.4004         45.4004
 14  9 12  0  8  0.0000000  0  8G18G15G16G26G22G05G21G29
 -16310168.46047 -12448801.89646  21893077.3504   21893077.9854   21893078.091
        44.1004         41.1004
 -21981395.62447 -16870125.40547  21121012.4564   21121012.9324   21121012.176
        46.9004         43.9004
  -2741656.70945  -2126676.56445  24446498.0884   24446502.2874   24446498.945
        35.4004         33.6004
 -17760412.85947 -13821324.40046  21541487.5004   21541489.0934   21541487.501
        43.9004         41.1004
   -934988.86645   -719021.99845  25009856.6734   25009860.9554   25009858.290
        35.7004         33.4004
  -4184300.74446  -3248427.94846  24053547.3224   24053548.6594   24053547.310
        39.7004         37.3004
 -15744106.92747 -12253333.05846  21984033.2904   21984034.1884   21984034.120
        44.4004         41.6004
 -24267084.65248 -18489453.62547  20517838.0764   20517838.7174   20517837.907
        48.4004         45.4004
 14  9 12  0  8 30.0000000  0  8G18G15G16G26G22G05G21G29
 -16367376.82147 -12493379.82146  21882191.3884   21882191.5954   21882191.724
        44.1004         41.2004
 -22024712.23247 -16903878.55947  21112769.2404   21112770.6294   21112769.237
        46.9004         43.9004
  -2758441.48745  -2139755.57745  24443305.5474   24443308.2344   24443306.161
        35.6004         33.8004
 -17748217.99347 -13811821.90346  21543808.9024   21543809.9794   21543808.505
        43.9004         41.2004
  -1025885.50045   -789850.31545  24992559.7524   24992563.0034   24992562.081
        34.3004         32.6004
  -4087257.54046  -3172809.92146  24072014.1704   24072016.3444   24072013.508
        39.7004         37.3004
 -15797300.31747 -12294782.43046  21973910.4614   21973910.4854   21973911.460
        44.4004         41.6004
 -24216823.97948 -18450289.47247  20527402.2744   20527402.8294   20527402.238
        48.4004         45.4004
 14  9 12  0  9  0.0000000  0  8G18G15G16G26G22G05G21G29
 -16424307.37247 -12537741.25746  21871357.2764   21871357.5704   21871358.080
        44.2004         41.2004
 -22067470.63347 -16937196.75047  21104633.0954   21104633.5824   21104632.613
        46.7004         43.9004
  -2774677.42045  -2152406.93445  24440216.7314   24440218.4994   24440216.122
        35.6004         34.0004
 -17735318.39447 -13801770.24846  21546262.5924   21546264.3794   21546263.205
        44.1004         41.2004
  -1116668.26355   -860589.84355  24975280.1755   24975291.2325   24975284.787
        33.3004         32.4004
  -3990186.17946  -3097169.94546  24090486.0834   24090487.5594   24090485.956
        39.6004         37.1004
 -15850392.99547 -12336153.32346  21963808.4414   21963807.5534   21963808.290
        44.4004         41.6004
 -24166053.49148 -18410728.06647  20537063.5974   20537064.1494   20537063.552
        48.2004         45.2004
 14  9 12  0  9 30.0000000  0  8G18G15G16G26G22G05G21G29
 -16480959.91747 -12581886.05946  21860576.7794   21860577.4464   21860577.296
        44.2004         41.6004
 -22109669.12547 -16970078.64647  21096603.0334   21096603.3514   21096602.405
        46.7004         43.7004
  -2790364.27845  -2164630.44445  24437232.6284   24437233.0284   24437231.660
        35.7004         34.0004
 -17721714.41747 -13791169.73546  21548852.2574   21548853.8634   21548851.955
        44.2004         41.4004
  -1207335.48645   -931239.31345  24958028.6434   24958034.3034   24958033.493
        33.5004         32.9004
  -3893088.38746  -3021509.36646  24108963.2324   24108964.7404   24108963.025
        39.2004         36.9004
 -15903384.37347 -12377445.29546  21953723.5864   21953724.3544   21953724.296
        44.6004         41.8004
 -24114774.15548 -18370770.15547  20546821.9244   20546822.4434   20546821.632
        48.2004         45.2004
 14  9 12  0 10  0.0000000  0  8G18G15G16G26G22G05G21G29
 -16537334.13547 -12625813.99546  21849849.2394   21849850.2394   21849849.567
        44.4004         41.2004
 -22151306.15447 -17002523.04547  21088679.6404   21088680.1964   21088679.129
        46.9004         43.9004
  -2805501.89746  -2176425.98345  24434350.0434   24434352.6884   24434350.365
        36.1004         34.3004
 -17707406.30647 -13780020.54946  21551574.8124   21551576.4014   21551574.928
        44.4004         41.8004
  -1297887.04645  -1001798.70845  24940798.8254   24940805.3354   24940800.360
        34.9004         33.8004
  -3795965.61446  -2945829.33646  24127445.8344   24127445.3334   24127444.847
        39.2004         36.6004
 -15956273.46047 -12418657.54646  21943658.7274   21943660.1044   21943659.775
        44.6004         41.8004
 -24062987.02348 -18330416.57547  20556676.6154   20556677.0924   20556676.493
        48.2004         45.4004
 14  9 12  0 10 30.0000000  0  8G18G15G16G26G22G05G21G29
 -16593429.95147 -12669524.97846  21839174.1184   21839174.4534   21839174.875
        44.4004         41.6004
 -22192379.97347 -17034528.57847  21080862.7704   21080864.0364   21080862.746
        46.9004         43.9004
  -2820090.06246  -2187793.35545  24431573.4444   24431577.1344   24431574.463
        36.3004         34.3004
 -17692394.43947 -13768322.98446  21554432.0154   21554433.7644   21554431.520
        44.6004         41.8004
  -1388321.93045  -1072267.23945  24923590.4294   24923594.5984   24923591.907
        35.9004         34.5004
  -3698819.13246  -2870130.82046  24145930.2444   24145933.8594   24145931.256
        39.0004         36.4004
 -16009059.66447 -12459789.63646  21933614.6954   21933614.8494   21933614.846
        44.6004         41.8004
 -24010693.24848 -18289668.20347  20566627.7264   20566628.2714   20566627.610
        48.2004         45.2004
 14  9 12  0 11  0.0000000  0  8G18G15G16G26G22G05G21G29
 -16649247.37747 -12713019.04246  21828552.1194   21828553.4594   21828553.112
        44.4004         41.8004
 -22232888.80147 -17066093.85447  21073154.2594   21073155.7114   21073154.177
        46.9004         43.9004
  -2834128.80146  -2198732.61045  24428902.7064   24428906.9044   24428903.846
        36.4004         34.6004
 -17676679.19247 -13756077.32646  21557420.9774   21557423.3724   21557421.961
        44.6004         41.6004
  -1478639.30746  -1142644.19545  24906404.3594   24906407.2594   24906405.074
        36.8004         35.0004
  -3601650.53146  -2794415.07446  24164421.2934   24164422.8464   24164421.729
        38.5004         36.0004
 -16061741.79447 -12500840.63446  21923589.1654   21923589.9644   21923589.961
        44.8004         41.9004
 -23957893.80448 -18248525.80247  20576675.2164   20576676.0484   20576674.984
        48.2004         45.2004
 14  9 12  0 11 30.0000000  0  8G18G15G16G26G22G05G21G29
 -16704786.21747 -12756296.02146  21817983.9894   21817984.6264   21817984.537
        44.6004         41.8004
 -22272831.29047 -17097217.82647  21065553.9134   21065554.4524   21065553.719
        46.9004         44.0004
  -2847618.01246  -2209243.68545  24426337.9704   24426338.8254   24426336.586
        36.4004         34.5004
 -17660260.99447 -13743283.91146  21560545.8514   21560547.2704   21560546.226
        44.4004         41.4004
  -1568838.20846  -1212928.84745  24889240.0994   24889242.3044   24889241.069
        37.0004         35.2004
  -3504461.40446  -2718683.35445  24182917.5084   24182918.8304   24182916.355
        38.2004         35.7004
 -16114319.05047 -12541809.90146  21913584.3534   21913584.7954   21913585.129
        44.8004         41.9004
 -23904590.37448 -18206990.68047  20586818.6294   20586819.1974   20586818.447
        48.2004         45.2004
 14  9 12  0 12  0.0000000  0  8G18G15G16G26G22G05G21G29
 -16760046.55647 -12799355.98546  21807467.5034   21807469.4404   21807468.651
        44.8004         41.8004
 -22312205.88147 -17127899.28047  21058061.0934   21058061.9504   21058060.922
        47.0004         44.0004
  -2860557.70746  -2219326.53845  24423873.8494   24423875.3404   24423873.762
        36.3004         34.5004
 -17643140.13147 -13729942.97246  21563804.0674   21563805.0794   21563803.813
        44.2004         41.1004
  -1658917.92146  -1283120.60945  24872097.5004   24872100.2044   24872099.220
        36.8004         34.8004
  -3407252.80546  -2642936.45245  24201415.7014   24201417.6444   24201414.241
        37.8004         35.3004
 -16166790.69447 -12582696.88547  21903599.2094   21903599.5504   21903600.086
        44.9004         42.3004
 -23850783.61048 -18165063.35147  20597057.3604   20597058.0554   20597057.468
        48.2004         45.2004
 14  9 12  0 12 30.0000000  0  8G18G15G16G26G22G05G21G29
 -16815028.14347 -12842198.73046  21797005.5434   21797005.8934   21797006.092
        44.8004         41.9004
 -22351010.74847 -17158136.79647  21050677.0234   21050677.7194   21050676.519
        47.0004         44.0004
  -2872947.78846  -2228981.11745  24421514.9014   24421519.2594   24421515.846
        36.6004         34.6004
 -17625317.26647 -13716055.02046  21567195.4504   21567197.0684   21567195.437
        44.1004         41.1004
  -1748877.85346  -1353219.07145  24854978.8724   24854982.3284   24854980.236
        36.8004         34.6004
  -3310026.70346  -2567175.93545  24219915.9264   24219917.0644   24219915.697
        37.3004         35.2004
 -16219155.64047 -12623500.72147  21893635.1414   21893635.1404   21893635.230
        44.9004         42.1004
 -23796474.88948 -18122744.88547  20607392.1764   20607392.8374   20607392.138
        48.1004         45.1004
 14  9 12  0 13  0.0000000  0  8G18G15G16G26G22G05G21G29
 -16869730.62047 -12884824.00646  21786595.9764   21786596.0944   21786596.557
        44.8004         41.8004
 -22389244.40447 -17187929.20747  21043400.7524   21043401.9074   21043400.917
        47.0004         44.0004
  -2884788.59646  -2238207.70745  24419264.1614   24419266.1004   24419263.953
        36.6004         34.8004
 -17606792.77947 -13701620.34846  21570720.2704   21570721.8324   21570720.805
        43.9004         41.1004
  -1838717.20146  -1423223.58645  24837882.7994   24837887.0844   24837884.481
        36.6004         34.6004
  -3212784.17746  -2491402.58845  24238421.1054   24238420.7254   24238421.193
        37.3004         35.0004
 -16271413.27147 -12664220.93947  21883690.0764   21883691.1244   21883690.837
        44.9004         42.1004
 -23741665.33448 -18080036.15647  20617822.2454   20617822.6114   20617822.026
        48.1004         45.2004
 14  9 12  0 13 30.0000000  0  8G18G15G16G26G22G05G21G29
 -16924154.08247 -12927231.86246  21776239.6254   21776239.9474   21776240.192
        44.9004         41.9004
 -22426905.59247 -17217275.54347  21036234.1164   21036235.0814   21036234.119
        47.0004         44.0004
  -2896079.95546  -2247006.17645  24417113.8794   24417116.4644   24417115.263
        36.6004         34.6004
 -17587567.26047 -13686639.42346  21574379.0074   21574380.7504   21574379.418
        43.9004         41.2004
  -1928434.92546  -1493133.33545  24820811.7704   24820812.2344   24820811.838
        36.8004         34.8004
  -3115526.64746  -2415617.55545  24256928.9294   24256929.2184   24256928.452
        37.3004         35.2004
 -16323562.46647 -12704856.67446  21873765.7004   21873767.2854   21873767.149
        44.9004         41.9004
 -23686356.25548 -18036938.18647  20628347.1944   20628347.9904   20628347.121
        48.1004         45.1004
 14  9 12  0 14  0.0000000  0  8G18G15G16G26G22G05G21G29
 -16978298.34147 -12969422.14947  21765936.0734   21765936.2894   21765936.807
        45.1004         42.3004
 -22463992.77847 -17246174.59647  21029176.8664   21029177.7474   21029176.599
        47.2004         44.2004
  -2906821.67746  -2255376.33345  24415068.8824   24415072.8454   24415070.696
        36.3004         34.3004
 -17567641.21547 -13671112.63446  21578170.7644   21578171.3424   21578171.007
        44.1004         41.2004
  -2018030.74046  -1562948.10545  24803760.5364   24803762.9394   24803762.031
        36.8004         34.8004
  -3018255.42646  -2339821.83445  24275438.4854   24275440.5744   24275438.411
        37.3004         35.5004
 -16375602.34147 -12745407.21247  21863863.4714   21863864.3044   21863864.039
        44.9004         42.1004
 -23630549.05148 -17993452.06747  20638966.8534   20638967.7224   20638966.801
        48.1004         45.1004
 14  9 12  0 14 30.0000000  0  8G18G15G16G26G22G05G21G29
 -17032163.80547 -13011395.19947  21755685.8234   21755686.7944   21755686.491
        45.1004         42.3004
 -22500504.35547 -17274625.13547  21022228.9194   21022229.5264   21022228.763
        47.2004         44.4004
  -2917014.59646  -2263318.83045  24413130.1694   24413132.6924   24413131.097
        36.4004         34.5004
 -17547015.25647 -13655040.46646  21582096.0114   21582097.4164   21582096.221
        44.1004         41.2004
  -2107503.40146  -1632666.92145  24786734.1134   24786738.1024   24786735.765
        37.0004         34.8004
  -2920972.18446  -2264016.78145  24293951.6724   24293952.2834   24293951.359
        37.6004         35.7004
 -16427532.18347 -12785872.01647  21853982.0754   21853981.9574   21853982.389
        44.9004         42.1004
 -23574244.97648 -17949578.78247  20649681.0684   20649681.8474   20649681.009
        48.1004         45.1004
 14  9 12  0 15  0.0000000  0  8G18G15G16G26G22G05G21G29
 -17085749.79747 -13053150.48447  21745487.9294   21745489.5774   21745489.251
        45.3004         42.1004
 -22536438.94947 -17302626.07447  21015390.7634   21015391.4714   21015390.788
        47.2004         44.2004
  -2926658.50046  -2270833.56445  24411294.4674   24411297.7154   24411294.752
        36.3004         34.3004
 -17525690.11547 -13638423.46146  21586153.4034   21586155.9234   21586153.861
        44.1004         41.4004
  -2196852.26146  -1702289.27045  24769731.5994   24769735.3104   24769732.727
        36.8004         34.6004
  -2823678.66746  -2188203.71045  24312464.4344   24312467.3664   24312465.565
        37.6004         35.5004
 -16479350.85047 -12826250.17447  21844121.2544   21844121.3444   21844121.768
        44.9004         42.1004
 -23517444.81047 -17905318.93247  20660489.5124   20660490.4504   20660489.820
        47.9004         44.9004
 14  9 12  0 15 30.0000000  0  8G18G15G16G26G22G05G21G29
 -17139056.74447 -13094688.32747  21735344.7284   21735345.7474   21735345.417
        45.3004         42.5004
 -22571795.15147 -17330176.31847  21008662.6774   21008663.0424   21008662.450
        47.2004         44.4004
  -2935753.38346  -2277920.48845  24409564.8544   24409565.7434   24409565.273
        36.3004         34.3004
 -17503666.43547 -13621262.16546  21590344.9344   21590346.7324   21590345.118
        44.1004         41.2004
  -2286076.51946  -1771814.52845  24752753.2344   24752757.0184   24752753.686
        36.4004         34.3004
  -2726375.70646  -2112383.26745  24330982.6034   24330983.9564   24330981.326
        38.0004         35.9004
 -16531057.44147 -12866541.02047  21834281.6804   21834282.2184   21834281.959
        45.1004         42.3004
 -23460150.46547 -17860674.01247  20671392.5984   20671393.1374   20671392.519
        47.9004         44.9004
 14  9 12  0 16  0.0000000  0  8G18G15G16G26G22G05G21G29
 -17192084.27347 -13136008.44347  21725253.7884   21725254.6394   21725254.568
        45.5004         42.3004
 -22606571.47447 -17357274.70747  21002045.3444   21002045.5124   21002044.694
        47.2004         44.2004
  -2944299.52345  -2284579.80845  24407938.5204   24407940.5184   24407937.937
        35.9004         34.0004
 -17480944.75647 -13603556.95546  21594668.8184   21594671.4904   21594668.830
        44.2004         41.2004
  -2375175.50246  -1841242.12045  24735798.2194   24735803.6554   24735798.284
        36.3004         34.1004
  -2629064.58346  -2036556.47746  24349499.1404   24349501.7674   24349499.024
        38.3004         36.2004
 -16582651.26247 -12906743.98247  21824463.5914   21824463.5894   21824464.295
        45.1004         42.1004
 -23402363.30447 -17815645.08347  20682389.1014   20682389.6244   20682389.071
        47.9004         44.9004
 14  9 12  0 16 30.0000000  0  8G18G15G16G26G22G05G21G29
 -17244832.29647 -13177110.75847  21715216.0184   21715216.6344   21715216.934
        45.5004         42.5004
 -22640766.74847 -17383920.33447  20995537.7304   20995538.1804   20995537.567
        47.2004         44.4004
  -2952297.09545  -2290811.67145  24406415.9894   24406419.1064   24406417.005
        35.9004         34.3004
 -17457525.92247 -13585308.51246  21599125.4434   21599127.6484   21599125.054
        44.1004         41.2004
  -2464148.55246  -1910571.63645  24718864.1124   24718868.2214   24718866.982
        36.1004         34.1004
  -2531746.75646  -1960724.47146  24368018.2204   24368021.2374   24368018.489
        38.9004         36.7004
 -16634131.35847 -12946858.31947  21814667.2794   21814668.0524   21814668.005
        45.1004         42.1004
 -23344084.42347 -17770232.99647  20693479.0944   20693480.0654   20693479.196
        47.9004         44.9004
 14  9 12  0 17  0.0000000  0  8G18G15G16G26G22G05G21G29
 -17297301.12947 -13217995.51247  21705231.3094   21705232.2834   21705232.369
        45.5004         42.6004
 -22674379.56047 -17410112.09647  20989141.5494   20989141.7064   20989141.539
        47.2004         44.4004
  -2959746.10646  -2296616.08645  24404999.1934   24405000.3434   24404998.716
        36.1004         34.1004
 -17433410.79447 -13566517.49846  21603714.1124   21603716.5164   21603714.250
        44.1004         41.1004
  -2552994.81745  -1979802.31345  24701957.9104   24701963.0254   24701959.595
        35.9004         34.1004
  -2434423.87946  -1884888.53046  24386538.5774   24386541.2444   24386538.151
        39.0004         36.9004
 -16685496.64947 -12986883.19347  21804892.9514   21804893.0714   21804893.305
        45.1004         42.3004
 -23285315.05347 -17724438.70547  20704662.7694   20704663.6404   20704662.916
        47.9004         44.9004
 14  9 12  0 17 30.0000000  0  8G18G15G16G26G22G05G21G29
 -17349490.63247 -13258662.61647  21695299.9064   21695300.9414   21695300.970
        45.5004         42.5004
 -22707408.54047 -17435848.92247  20982856.2384   20982856.8064   20982856.033
        47.4004         44.4004
  -2966647.01246  -2301993.40645  24403685.1374   24403688.2234   24403685.550
        36.1004         34.3004
 -17408600.03447 -13547184.43646  21608434.7094   21608437.6234   21608435.243
        43.9004         40.9004
  -2641713.68246  -2048933.69845  24685076.9094   24685079.5214   24685077.839
        36.1004         34.0004
  -2337097.22046  -1809049.62846  24405059.1264   24405061.8894   24405059.326
        39.6004         37.3004
 -16736746.24347 -13026817.91047  21795139.9094   21795139.8054   21795140.625
        45.1004         42.1004
 -23226056.74647 -17678263.42247  20715938.9344   20715939.9514   20715939.013
        47.9004         44.9004
 14  9 12  0 18  0.0000000  0  8G18G15G16G26G22G05G21G29
 -17401400.21547 -13299111.60947  21685422.2924   21685422.7954   21685422.913
        45.5004         42.3004
 -22739852.38147 -17461129.79547  20976681.9214   20976683.0714   20976681.903
        47.2004         44.4004
  -2973000.16846  -2306943.92045  24402477.3234   24402478.1804   24402477.000
        36.1004         34.3004
 -17383094.50447 -13527309.99146  21613288.4494   21613290.3484   21613288.973
        43.7004         40.7004
  -2730304.28046  -2117965.15045  24668218.7724   24668220.1444   24668219.500
        36.1004         34.3004
  -2239767.85346  -1733208.60846  24423580.6464   24423583.4954   24423580.765
        39.7004         37.4004
 -16787879.13647 -13066661.69046  21785409.2234   21785409.8724   21785410.250
        44.9004         41.9004
 -23166310.95247 -17631708.27647  20727308.1034   20727309.3024   20727308.185
        47.7004         44.7004
 14  9 12  0 18 30.0000000  0  8G18G15G16G26G22G05G21G29
 -17453030.60547 -13339343.03447  21675597.3374   21675597.6254   21675597.917
        45.5004         42.5004
 -22771709.97347 -17485953.85647  20970619.9394   20970620.3804   20970619.560
        47.2004         44.2004
  -2978805.82546  -2311467.81745  24401370.5204   24401373.8474   24401372.953
        36.3004         34.5004
 -17356895.12347 -13506894.90246  21618274.8734   21618275.7604   21618274.622
        43.6004         40.7004
  -2818766.08846  -2186896.23945  24651382.6174   24651386.5644   24651385.285
        36.3004         34.3004
  -2142437.34346  -1657366.70146  24442102.4434   24442105.4214   24442101.774
        39.7004         37.4004
 -16838894.49947 -13106413.90046  21775701.5574   21775702.1304   21775702.175
        44.9004         41.9004
 -23106079.02647 -17584774.32347  20738770.2834   20738771.1674   20738770.306
        47.7004         44.7004
 14  9 12  0 19  0.0000000  0  8G18G15G16G26G22G05G21G29
 -17504381.82747 -13379356.93847  21665825.2374   21665826.2374   21665826.094
        45.5004         42.6004
 -22802980.14047 -17510320.18747  20964669.3324   20964670.1234   20964669.202
        47.4004         44.4004
  -2984064.31146  -2315565.32445  24400370.2054   24400373.5004   24400370.691
        36.1004         34.3004
 -17330002.73747 -13485939.79746  21623392.1364   21623393.9254   21623392.133
        43.6004         40.9004
  -2907098.19045  -2255726.26345  24634575.1624   24634576.9964   24634575.514
        35.9004         34.0004
  -2045106.66446  -1581524.65846  24460622.3504   24460625.7514   24460622.526
        39.6004         36.9004
 -16889790.92147 -13146073.42246  21766016.5214   21766016.7054   21766017.091
        44.9004         41.9004
 -23045362.28247 -17537462.59847  20750324.7084   20750325.0674   20750324.351
        47.7004         44.7004
 14  9 12  0 19 30.0000000  0  8G18G15G16G26G22G05G21G29
 -17555453.50447 -13419153.00547  21656106.9274   21656107.4654   21656107.333
        45.5004         42.8004
 -22833661.44547 -17534227.65247  20958830.9644   20958831.7104   20958830.776
        47.4004         44.4004
  -2988775.87846  -2319236.66945  24399474.6484   24399477.4674   24399474.199
        36.3004         34.3004
 -17302418.22647 -13464445.37646  21628640.8964   21628642.2714   21628641.278
        43.6004         40.6004
  -2995299.91945  -2324454.67445  24617791.3324   24617794.6514   24617791.192
        35.9004         34.1004
  -1947777.40846  -1505683.71846  24479143.9754   24479146.9354   24479143.543
        39.2004         36.6004
 -16940567.92747 -13185639.88147  21756354.0534   21756354.2594   21756354.939
        44.9004         42.3004
 -22984162.45047 -17489774.43447  20761970.7894   20761970.8044   20761970.344
        47.7004         44.7004
 14  9 12  0 20  0.0000000  0  8G18G15G16G26G22G05G21G29
 -17606245.76047 -13458731.35747  21646441.1134   21646441.9664   21646442.028
        45.6004         42.6004
 -22863752.78047 -17557675.41547  20953104.8974   20953105.5364   20953104.661
        47.4004         44.4004
  -2992941.02246  -2322482.24145  24398679.7214   24398684.3294   24398682.221
        36.3004         34.3004
 -17274142.62647 -13442412.44446  21634021.8864   21634023.2974   21634021.978
        43.6004         40.6004
  -3083370.39845  -2393080.80345  24601031.6154   24601034.0024   24601030.483
        35.6004         34.0004
  -1850450.94446  -1429844.97146  24497665.0984   24497667.6304   24497664.411
        38.7004         36.2004
 -16991224.57247 -13225112.55847  21746714.5204   21746714.5454   21746715.139
        45.1004         42.3004
 -22922480.90447 -17441710.91547  20773707.9644   20773708.7944   20773707.954
        47.7004         44.7004
 14  9 12  0 20 30.0000000  0  8G18G15G16G26G22G05G21G29
 -17656758.52147 -13498091.90647  21636829.4414   21636829.5694   21636829.590
        45.6004         42.6004
 -22893253.02147 -17580662.57747  20947490.5854   20947491.7984   20947490.805
        47.4004         44.4004
  -2996560.26946  -2325302.42845  24397993.4824   24397996.5434   24397994.908
        36.3004         34.5004
 -17245176.92347 -13419841.77246  21639533.3634   21639534.8234   21639533.935
        43.4004         40.7004
  -3171309.03445  -2461604.24245  24584295.7524   24584298.6504   24584296.572
        35.9004         34.3004
  -1753128.53946  -1354009.36645  24516184.2014   24516186.9164   24516184.470
        38.2004         35.2004
 -17041759.94647 -13264490.74847  21737097.8364   21737098.3934   21737098.523
        45.1004         42.1004
 -22860318.82247 -17393272.95247  20785536.9054   20785537.9044   20785536.887
        47.7004         44.7004
 14  9 12  0 21  0.0000000  0  8G18G15G16G26G22G05G21G29
 -17706991.93247 -13537234.79247  21627270.2784   21627270.6054   21627270.442
        45.6004         42.6004
 -22922160.96147 -17603188.20847  20941989.7734   20941990.6204   20941989.448
        47.4004         44.5004
  -2999633.35446  -2327697.03545  24397409.1444   24397413.0254   24397408.831
        36.3004         34.5004
 -17215522.10547 -13396734.11946  21645177.3384   21645178.4254   21645177.000
        43.4004         40.6004
  -3259115.00946  -2530024.32145  24567586.3574   24567589.9094   24567587.298
        36.1004         34.3004
  -1655811.19146  -1278177.72945  24534704.0234   24534707.0284   24534703.258
        37.3004         34.8004
 -17092172.65347 -13303773.34247  21727504.5004   21727505.1294   21727505.032
        45.1004         42.3004
 -22797677.99947 -17344461.94947  20797457.3414   20797457.9844   20797457.109
        47.7004         44.7004
 14  9 12  0 21 30.0000000  0  8G18G15G16G26G22G05G21G29
 -17756945.92747 -13576159.95247  21617764.1044   21617764.5124   21617764.627
        45.6004         42.6004
 -22950475.36647 -17625251.34847  20936601.9784   20936602.6704   20936601.626
        47.4004         44.5004
  -3002160.98446  -2329666.60645  24396928.2704   24396929.5204   24396928.035
        36.1004         34.1004
 -17185179.23947 -13373090.31446  21650951.2014   21650952.3444   21650951.032
        43.4004         40.7004
  -3346787.84346  -2598340.65745  24550902.8674   24550907.7524   24550904.678
        36.3004         34.5004
  -1558500.25146  -1202351.05645  24553221.2954   24553224.0744   24553220.933
        36.8004         34.5004
 -17142461.64247 -13342959.53947  21717934.7684   21717935.1134   21717935.128
        45.1004         42.1004
 -22734559.95447 -17295279.08247  20809468.1444   20809468.7914   20809468.177
        47.7004         44.7004
 14  9 12  0 22  0.0000000  0  8G18G15G16G26G22G05G21G29
 -17806620.43047 -13614867.32247  21608310.6304   21608311.6404   21608311.769
        45.6004         42.6004
 -22978195.39847 -17646851.34347  20931327.1734   20931327.4534   20931326.787
        47.5004         44.5004
  -3004144.31645  -2331212.05545  24396549.6724   24396551.8814   24396550.145
        35.9004         34.3004
 -17154149.42747 -13348911.24146  21656855.0534   21656856.8784   21656855.880
        43.4004         40.6004
  -3434326.94646  -2666552.75545  24534245.5484   24534248.7604   24534246.196
        36.4004         34.5004
  -1461197.12846  -1126530.50345  24571737.9354   24571738.9514   24571737.671
        36.1004         34.1004
 -17192625.83247 -13382048.48847  21708389.1084   21708389.0104   21708389.492
        45.1004         42.1004
 -22670966.36047 -17245725.65647  20821570.0244   20821569.9774   20821569.823
        47.7004         44.5004
 14  9 12  0 22 30.0000000  0  8G18G15G16G26G22G05G21G29
 -17856015.58147 -13653357.00847  21598911.5934   21598912.5124   21598912.045
        45.6004         42.6004
 -23005319.95447 -17667987.33647  20926165.2054   20926165.8894   20926164.979
        47.4004         44.5004
  -3005583.48946  -2332333.49745  24396274.4114   24396278.8704   24396276.297
        36.1004         34.3004
 -17122433.76047 -13324197.72746  21662891.0624   21662892.8734   21662891.252
        43.6004         40.7004
  -3521731.52846  -2734660.03145  24517612.9524   24517616.7604   24517614.065
        36.6004         34.6004
  -1363903.13745  -1050717.03845  24590253.3084   24590251.5684   24590251.198
        35.7004         33.8004
 -17242664.59047 -13421039.69847  21698866.9544   21698866.5574   21698867.366
        45.1004         42.3004
 -22606898.65647 -17195802.78847  20833761.6904   20833761.9504   20833761.486
        47.7004         44.7004
 14  9 12  0 23  0.0000000  0  8G18G15G16G26G22G05G21G29
 -17905131.62447 -13691629.21447  21589564.8104   21589565.1954   21589565.456
        45.6004         42.6004
 -23031847.96947 -17688658.48847  20921117.4274   20921117.9214   20921116.875
        47.5004         44.5004
  -3006478.82945  -2333031.16245  24396103.8554   24396107.1514   24396105.230
        35.7004         34.0004
 -17090033.39947 -13298950.70146  21669055.7204   21669058.5894   21669057.059
        43.7004         40.9004
  -3609000.71146  -2802661.82245  24501007.0204   24501009.1724   24501007.491
        36.8004         34.8004
  -1266619.37045   -974911.54345  24608764.8014   24608765.9214   24608764.298
        35.6004         34.1004
 -17292576.93847 -13459932.41947  21689369.0084   21689368.8794   21689369.539
        45.3004         42.5004
 -22542358.28747 -17145511.60847  20846042.9124   20846043.5304   20846043.060
        47.5004         44.5004
 14  9 12  0 23 30.0000000  0  8G18G15G16G26G22G05G21G29
 -17953968.48647 -13729683.87847  21580271.1374   21580272.2164   21580272.018
        45.6004         42.5004
 -23057778.38147 -17708863.97347  20916182.5754   20916183.2164   20916182.237
        47.5004         44.5004
  -3006831.08445  -2333305.63445  24396036.8414   24396039.5444   24396039.701
        35.9004         34.0004
 -17056949.44847 -13273170.99546  21675352.7104   21675354.3454   21675352.708
        43.7004         40.7004
  -3696134.05546  -2870557.77045  24484425.0344   24484428.0784   24484426.653
        37.5004         35.5004
  -1169347.21845   -899115.08445  24627274.4344   24627277.0174   24627275.011
        35.9004         34.3004
 -17342362.04747 -13498725.98647  21679895.2574   21679895.5484   21679895.784
        45.3004         42.5004
 -22477346.80047 -17094853.32747  20858414.2854   20858415.0374   20858414.437
        47.5004         44.5004
 14  9 12  0 24  0.0000000  0  8G18G15G16G26G22G05G21G29
 -18002526.21447 -13767521.02447  21571031.4994   21571032.0374   21571031.723
        45.6004         42.6004
 -23083110.26447 -17728603.07347  20911362.2424   20911362.9094   20911361.758
        47.5004         44.5004
  -3006640.63945  -2333157.24245  24396074.1904   24396078.2904   24396074.900
        35.9004         34.1004
 -17023183.23447 -13246859.67346  21681777.9664   21681779.4794   21681778.251
        43.6004         40.7004
  -3783130.83246  -2938347.31145  24467871.1664   24467873.7344   24467871.810
        37.8004         35.7004
  -1072087.69146   -823328.47845  24645784.5614   24645784.7034   24645783.456
        36.3004         34.5004
 -17392018.42247 -13537419.24347  21670445.9794   21670446.1814   21670446.483
        45.3004         42.5004
 -22411865.77947 -17043829.18847  20870875.4104   20870875.6544   20870874.960
        47.4004         44.4004
 14  9 12  0 24 30.0000000  0  8G18G15G16G26G22G05G21G29
 -18050804.95747 -13805140.79147  21561844.1314   21561845.1744   21561844.547
        45.5004         42.6004
 -23107842.59447 -17747874.98847  20906656.0454   20906656.1824   20906655.484
        47.5004         44.5004
  -3005908.15045  -2332586.46445  24396213.5364   24396216.7804   24396214.278
        35.6004         33.8004
 -16988735.90647 -13220017.60846  21688333.7554   21688333.7954   21688333.296
        43.4004         40.6004
  -3869990.33246  -3006029.89545  24451341.2414   24451344.4174   24451342.431
        38.0004         35.9004
   -974842.24646   -747552.81145  24664288.7784   24664288.2524   24664288.177
        36.6004         34.8004
 -17441544.98447 -13576011.34547  21661021.0964   21661020.9074   21661021.791
        45.3004         42.5004
 -22345917.30347 -16992440.80347  20883424.5714   20883425.2754   20883424.251
        47.4004         44.4004
 14  9 12  0 25  0.0000000  0  8G18G15G16G26G22G05G21G29
 -18098804.76847 -13842543.21247  21552709.8744   21552710.8264   21552710.697
        45.6004         42.6004
 -23131974.38547 -17766678.95447  20902063.4344   20902064.0114   20902063.312
        47.5004         44.5004
  -3004634.07945  -2331593.68345  24396458.4904   24396457.4054   24396458.534
        35.9004         34.1004
 -16953608.82847 -13192645.87146  21695017.7504   21695018.9804   21695017.621
        43.2004         40.4004
  -3956712.04846  -3073605.10946  24434839.9414   24434841.2304   24434839.964
        38.3004         36.0004
   -877611.86646   -671788.89945  24682790.5924   24682792.3294   24682790.370
        37.1004         35.2004
 -17490940.90147 -13614501.64947  21651621.5414   21651622.0174   21651622.115
        45.3004         42.5004
 -22279502.66247 -16940689.17047  20896062.9104   20896063.7244   20896062.733
        47.2004         44.2004
 14  9 12  0 25 30.0000000  0  8G18G15G16G26G22G05G21G29
 -18146525.66147 -13879728.28447  21543629.2514   21543629.7314   21543629.602
        45.6004         42.6004
 -23155504.79347 -17785014.30247  20897585.7894   20897586.4204   20897585.464
        47.5004         44.5004
  -3002818.84945  -2330179.20245  24396801.6994   24396803.7184   24396803.774
        35.9004         34.3004
 -16917803.21547 -13164745.40046  21701830.2654   21701832.5814   21701830.791
        43.2004         40.2004
  -4043295.06246  -3141072.26446  24418362.8944   24418363.7914   24418363.790
        38.5004         36.0004
   -780398.00346   -596037.85745  24701289.0854   24701291.0534   24701288.941
        37.3004         35.3004
 -17540205.02847 -13652889.26347  21642246.9754   21642247.1754   21642247.400
        45.3004         42.5004
 -22212623.51547 -16888575.58147  20908789.7764   20908789.8754   20908789.482
        47.2004         44.2004
 14  9 12  0 26  0.0000000  0  8G18G15G16G26G22G05G21G29
 -18193967.60247 -13916695.99847  21534600.9924   21534602.0044   21534601.753
        45.6004         42.8004
 -23178432.84947 -17802880.29647  20893222.9204   20893223.4574   20893222.579
        47.5004         44.5004
  -3000463.83645  -2328344.12745  24397249.2044   24397251.3834   24397249.999
        35.7004         33.8004
 -16881320.39247 -13136317.23446  21708773.5684   21708775.5324   21708773.327
        43.2004         40.4004
  -4129738.76246  -3208430.86246  24401913.5074   24401914.8684   24401913.679
        38.3004         36.0004
   -683201.41946   -520300.29745  24719785.5004   24719788.2874   24719785.829
        37.5004         35.5004
 -17589336.11747 -13691173.22047  21632897.3294   21632897.6864   21632898.054
        45.5004         42.5004
 -22145281.68947 -16836101.46147  20921604.5384   20921605.0714   20921604.447
        47.2004         44.2004
 14  9 12  0 26 30.0000000  0  8G18G15G16G26G22G05G21G29
 -18241130.83747 -13953446.54447  21525626.3024   21525627.2484   21525626.854
        45.6004         42.6004
 -23200757.94147 -17820276.44247  20888974.5164   20888975.1074   20888974.180
        47.5004         44.5004
  -2997569.40545  -2326088.73445  24397800.3264   24397800.8734   24397801.894
        35.7004         34.1004
 -16844161.80247 -13107362.49946  21715844.5194   21715846.0984   21715844.577
        43.4004         40.6004
  -4216042.70346  -3275680.55146  24385489.0814   24385490.8324   24385490.090
        38.2004         36.0004
   -586023.61646   -444577.37845  24738277.2764   24738280.6354   24738277.420
        37.8004         35.7004
 -17638333.24147 -13729352.78747  21623573.6904   21623573.8304   21623574.352
        45.5004         42.5004
 -22077478.84147 -16783268.09347  20934506.9804   20934507.2134   20934506.724
        47.2004         44.0004
 14  9 12  0 27  0.0000000  0  8G18G15G16G26G22G05G21G29
 -18288015.49447 -13989980.00947  21516704.0784   21516705.4174   21516705.057
        45.5004         42.6004
 -23222479.29647 -17837202.14547  20884840.7144   20884841.3394   20884840.750
        47.5004         44.7004
  -2994136.21145  -2323413.52045  24398453.3434   24398456.5284   24398454.523
        35.6004         34.1004
 -16806328.81447 -13077882.25446  21723044.2504   21723045.8004   21723044.137
        43.6004         40.7004
  -4302206.06446  -3342820.70745  24369091.9694   24369095.4264   24369093.493
        38.0004         35.7004
   -488865.80646   -368870.02445  24756765.2244   24756769.9134   24756765.781
        37.8004         35.5004
 -17687195.42647 -13767427.21547  21614275.7274   21614275.5484   21614276.492
        45.5004         42.6004
 -22009216.61647 -16730076.77247  20947496.5574   20947497.1464   20947496.708
        47.0004         44.2004
 14  9 12  0 27 30.0000000  0  8G18G15G16G26G22G05G21G29
 -18334621.40147 -14026296.26347  21507835.5224   21507836.1974   21507836.047
        45.6004         42.6004
 -23243595.81647 -17853656.55547  20880822.4754   20880822.8524   20880822.320
        47.7004         44.7004
  -2990165.02045  -2320319.09445  24399210.8144   24399213.5164   24399210.020
        35.7004         34.0004
 -16767822.75447 -13047877.54146  21730372.1704   21730373.0454   21730371.555
        43.6004         40.7004
  -4388228.36546  -3409850.94445  24352723.3084   24352724.9614   24352723.554
        37.6004         35.3004
   -391729.03646   -293179.08645  24775252.4294   24775252.4924   24775251.700
        38.0004         35.7004
 -17735921.51047 -13805395.57547  21605003.5564   21605003.4944   21605004.072
        45.5004         42.6004
 -21940496.81947 -16676528.90647  20960573.7154   20960574.5514   20960573.470
        47.0004         44.2004
 14  9 12  0 28  0.0000000  0  8G18G15G16G26G22G05G21G29
 -18380949.07147 -14062395.71747  21499019.5834   21499020.5434   21499020.149
        45.5004         42.6004
 -23264106.87847 -17869639.17547  20876919.3964   20876919.8204   20876919.123
        47.7004         44.7004
  -2985656.49745  -2316805.95345  24400067.0784   24400069.7014   24400068.883
        35.7004         34.1004
 -16728645.12747 -13017349.52946  21737827.5824   21737829.0374   21737826.959
        43.6004         40.7004
  -4474108.96246  -3476770.76345  24336380.9214   24336382.4094   24336381.356
        37.5004         35.3004
   -294614.51446   -217505.48045  24793731.4554   24793734.2494   24793731.379
        38.0004         35.9004
 -17784510.30147 -13843256.96547  21595756.9174   21595756.9384   21595757.731
        45.5004         42.5004
 -21871321.00647 -16622625.71247  20973737.8184   20973738.2184   20973737.336
        47.2004         44.2004
 14  9 12  0 28 30.0000000  0  8G18G15G16G26G22G05G21G29
 -18426998.25047 -14098278.16147  21490256.5914   21490257.2564   21490257.125
        45.5004         42.5004
 -23284011.69647 -17885149.39447  20873131.4874   20873132.3134   20873131.455
        47.7004         44.7004
  -2980611.33745  -2312874.66145  24401029.3084   24401029.4774   24401029.697
        35.9004         34.1004
 -16688797.46347 -12986299.41646  21745409.3474   21745410.8984   21745409.549
        43.7004         40.7004
  -4559847.25646  -3543579.69345  24320065.2594   24320066.6184   24320066.216
        37.5004         35.2004
   -197523.17246   -141849.94745  24812207.6854   24812209.4824   24812207.926
        37.8004         35.3004
 -17832960.87347 -13881010.64647  21586537.2604   21586537.0554   21586537.619
        45.5004         42.6004
 -21801690.81147 -16568368.45647  20986987.5814   20986988.6054   20986987.617
        47.2004         44.2004
 14  9 12  0 29  0.0000000  0  8G18G15G16G26G22G05G21G29
 -18472769.30547 -14133943.89147  21481546.4054   21481547.7374   21481547.100
        45.5004         42.6004
 -23303309.48647 -17900186.61047  20869459.5034   20869459.7134   20869459.427
        47.7004         44.7004
  -2975030.46745  -2308525.92545  24402091.3594   24402091.1654   24402090.573
        35.9004         34.1004
 -16648281.20547 -12954728.31646  21753119.1624   21753120.9384   21753119.610
        43.6004         40.6004
  -4645442.48846  -3610277.15345  24303774.8704   24303778.7184   24303777.220
        37.3004         35.0004
   -100456.35946    -66213.51245  24830679.0354   24830681.3004   24830678.420
        37.5004         35.3004
 -17881271.93647 -13918655.62847  21577344.1194   21577344.1784   21577344.555
        45.5004         42.6004
 -21731608.21947 -16513758.68647  21000324.1564   21000324.7284   21000323.817
        47.2004         44.2004
 14  9 12  0 29 30.0000000  0  8G18G15G16G26G22G05G21G29
 -18518262.30947 -14169392.96047  21472889.6194   21472890.1434   21472890.207
        45.5004         42.6004
 -23321999.70247 -17914750.38847  20865902.9194   20865903.1534   20865902.546
        47.7004         44.7004
  -2968914.69245  -2303760.40445  24403253.4234   24403253.9264   24403255.434
        35.7004         33.8004
 -16607097.84447 -12922637.40146  21760957.0004   21760957.9504   21760956.571
        43.4004         40.6004
  -4730894.12346  -3676862.70945  24287516.2344   24287518.5794   24287516.739
        37.1004         34.8004
     -3414.98746      9403.07745  24849143.2244   24849147.3594   24849144.931
        37.0004         34.8004
 -17929442.88147 -13956191.42647  21568177.5964   21568176.9624   21568178.013
        45.5004         42.5004
 -21661074.81647 -16458797.62647  21013745.8814   21013746.4284   21013745.922
        47.0004         44.2004
 14  9 12  0 30  0.0000000  0  8G18G15G16G26G22G05G21G29
 -18563477.50047 -14204625.54447  21464285.0684   21464285.8744   21464286.098
        45.5004         42.5004
 -23340081.64847 -17928840.19047  20862461.9234   20862462.2284   20862461.686
        47.7004         44.9004
  -2962264.77545  -2298578.62245  24404520.2854   24404522.0054   24404520.232
        35.6004         34.0004
 -16565249.02947 -12890027.95346  21768920.0384   21768920.8434   21768920.066
        43.4004         40.4004
  -4816201.49846  -3743335.84745  24271282.4724   24271283.8944   24271283.091
        36.8004         34.8004
     93599.44546     84998.70045  24867605.3514   24867609.4344   24867604.989
        36.8004         34.6004
 -17977472.00347 -13993616.69847  21559037.5924   21559037.5374   21559038.210
        45.5004         42.6004
 -21590092.86647 -16403487.04947  21027253.5344   21027254.1994   21027253.392
        47.0004         44.0004
 14  9 12  0 30 30.0000000  0  8G18G15G16G26G22G05G21G29
 -18608415.16047 -14239641.86947  21455734.0284   21455734.8904   21455734.709
        45.5004         42.5004
 -23357554.67447 -17942455.50947  20859136.9944   20859137.2334   20859136.909
        47.7004         44.7004
  -2955081.74245  -2292981.46545  24405883.5624   24405888.0344   24405885.773
        35.4004         33.6004
 -16522736.36747 -12856901.21146  21777010.0984   21777010.7294   21777009.966
        43.2004         40.4004
  -4901364.12846  -3809696.19945  24255074.8654   24255077.7994   24255077.389
        36.6004         34.6004
    190586.30246    160572.80445  24886061.5354   24886066.6064   24886062.259
        36.8004         34.5004
 -18025358.35947 -14030930.72847  21549925.0984   21549924.9004   21549925.828
        45.5004         42.6004
 -21518664.17347 -16347828.36547  21040846.3044   21040846.6124   21040845.945
        47.0004         44.0004
 14  9 12  0 31  0.0000000  0  8G18G15G16G26G22G05G21G29
 -18653075.18147 -14274441.85047  21447235.8734   21447235.8704   21447236.034
        45.5004         42.5004
 -23374418.07847 -17955595.80047  20855927.6264   20855928.2164   20855927.660
        47.9004         44.9004
  -2947366.56045  -2286969.65845  24407355.0904   24407356.2594   24407354.494
        35.4004         33.6004
 -16479561.49347 -12823258.45446  21785226.0414   21785227.5214   21785225.681
        43.2004         40.2004
  -4986381.34746  -3875943.23345  24238898.7424   24238899.7784   24238898.698
        36.4004         34.5004
    287544.25946    236124.39845  24904512.4524   24904513.8374   24904511.899
        36.8004         34.8004
 -18073100.66847 -14068132.51547  21540840.3704   21540839.9114   21540840.544
        45.5004         42.6004
 -21446790.20047 -16291822.69647  21054523.3354   21054523.6174   21054523.248
        47.0004         44.0004
 14  9 12  0 31 30.0000000  0  8G18G15G16G26G22G05G21G29
 -18697457.77047 -14309025.64447  21438790.1624   21438790.1594   21438790.121
        45.3004         42.5004
 -23390671.28647 -17968260.62147  20852834.6764   20852835.4914   20852834.585
        47.9004         44.9004
  -2939119.78745  -2280543.59645  24408923.6184   24408925.5014   24408924.734
        35.6004         34.0004
 -16435725.93547 -12789100.89346  21793567.8824   21793568.2954   21793567.444
        43.2004         40.6004
  -5071252.50246  -3942076.44845  24222746.7874   24222748.9864   24222748.144
        36.4004         34.5004
    384472.17746    311652.62745  24922956.1184   24922959.3914   24922956.985
        36.8004         34.8004
 -18120698.13847 -14105221.42347  21531782.8054   21531782.7114   21531782.954
        45.5004         42.5004
 -21374472.87647 -16235471.54947  21068284.8404   21068285.1814   21068284.488
        47.0004         44.0004
 14  9 12  0 32  0.0000000  0  8G18G15G16G26G22G05G21G29
 -18741563.10147 -14343393.40547  21430396.4114   21430397.4824   21430397.264
        45.5004         42.6004
 -23406313.73647 -17980449.52147  20849858.5654   20849858.7154   20849858.147
        47.9004         44.9004
  -2930342.80345  -2273704.39045  24410593.3864   24410596.6014   24410594.617
        35.7004         33.8004
 -16391231.41747 -12754429.85046  21802034.8764   21802035.5354   21802034.648
        43.2004         40.6004
  -5155977.05846  -4008095.43945  24206624.5104   24206626.2474   24206625.500
        36.4004         34.6004
    481369.00846    387156.62945  24941395.3644   24941397.7904   24941396.074
        36.6004         34.6004
 -18168149.48747 -14142196.48147  21522752.7074   21522752.4134   21522753.285
        45.5004         42.6004
 -21301714.04247 -16178776.37447  21082130.0474   21082131.5714   21082129.970
        47.0004         44.0004
 14  9 12  0 32 30.0000000  0  8G18G15G16G26G22G05G21G29
 -18785391.22547 -14377545.16247  21422056.2494   21422057.0684   21422057.112
        45.5004         42.6004
 -23421344.78247 -17992161.99947  20846997.8934   20846998.3024   20846997.823
        47.9004         44.9004
  -2921036.56145  -2266452.79945  24412365.7224   24412367.7454   24412365.292
        35.7004         33.8004
 -16346079.76847 -12719246.74946  21810626.9884   21810628.4294   21810627.042
        43.4004         40.6004
  -5240554.55446  -4073999.84145  24190527.7264   24190531.1954   24190530.890
        36.6004         34.6004
    578233.70846    462635.58945  24959829.0084   24959831.7104   24959828.803
        37.1004         35.2004
 -18215453.55647 -14179056.77447  21513751.1764   21513751.0904   21513751.391
        45.5004         42.5004
 -21228515.69947 -16121738.74247  21096059.1234   21096060.6294   21096059.108
        47.0004         44.0004
 14  9 12  0 33  0.0000000  0  8G18G15G16G26G22G05G21G29
 -18828942.43047 -14411481.13647  21413769.1624   21413769.8354   21413769.654
        45.6004         42.6004
 -23435764.04347 -18003397.76347  20844254.1514   20844254.2154   20844253.978
        47.9004         44.9004
  -2911201.67645  -2258789.26345  24414237.5044   24414238.0944   24414237.991
        35.7004         34.1004
 -16300272.56147 -12683552.83446  21819344.3354   21819345.1044   21819343.983
        43.4004         40.6004
  -5324984.55646  -4139789.28845  24174461.5154   24174466.0294   24174464.246
        36.8004         35.0004
    675065.05746    538088.59045  24978255.6064   24978257.9244   24978255.634
        37.1004         35.2004
 -18262609.10447 -14215801.33147  21504777.4024   21504778.0444   21504778.132
        45.5004         42.5004
 -21154879.71347 -16064360.09647  21110071.7794   21110072.7724   21110071.763
        47.0004         44.0004
 14  9 12  0 33 30.0000000  0  8G18G15G16G26G22G05G21G29
 -18872217.02347 -14445201.57647  21405533.9964   21405534.6104   21405534.991
        45.6004         42.6004
 -23449571.19148 -18014156.55747  20841626.7494   20841626.6774   20841626.662
        48.1004         45.1004
  -2900839.37545  -2250714.75245  24416207.9694   24416210.5994   24416209.248
        35.9004         34.1004
 -16253811.60947 -12647349.50946  21828186.1164   21828185.6024   21828184.938
        43.2004         40.0004
  -5409266.19246  -4205463.14345  24158424.3814   24158426.7934   24158425.858
        37.1004         35.0004
    771862.37346    613515.06345  24996676.0584   24996677.9434   24996675.331
        37.1004         35.2004
 -18309614.94047 -14252429.23147  21495832.5944   21495833.0404   21495833.283
        45.5004         42.6004
 -21080807.96047 -16006641.87847  21124167.3844   21124168.2204   21124167.163
        47.0004         43.9004
 14  9 12  0 34  0.0000000  0  8G18G15G16G26G22G05G21G29
 -18915214.97347 -14478706.42847  21397352.0194   21397352.1554   21397352.806
        45.8004         43.0004
 -23462765.69748 -18024437.96947  20839116.1184   20839116.2114   20839115.675
        48.1004         45.1004
  -2889950.61445  -2242230.01945  24418283.0144   24418282.7224   24418281.380
        35.9004         34.1004
 -16206698.68047 -12610638.14146  21837149.5644   21837151.1984   21837149.716
        43.0004         40.2004
  -5493398.97446  -4271021.01145  24142416.1824   24142415.9614   24142415.637
        37.5004         35.3004
    868624.16746    688913.86845  25015087.7054   25015092.5464   25015088.377
        37.5004         35.3004
 -18356469.91447 -14288939.57047  21486916.5184   21486916.5824   21486917.004
        45.5004         42.6004
 -21006302.27147 -15948585.54347  21138345.6004   21138346.1104   21138345.088
        46.9004         43.9004
 14  9 12  0 34 30.0000000  0  8G18G15G16G26G22G05G21G29
 -18957936.44347 -14511995.84547  21389222.5034   21389223.0174   21389223.098
        45.8004         42.8004
 -23475346.97648 -18034241.53847  20836721.9834   20836721.7954   20836721.553
        48.1004         45.1004
  -2878536.49045  -2233335.89145  24420450.7334   24420455.9614   24420452.495
        35.9004         34.1004
 -16158935.63047 -12573420.18446  21846238.6174   21846240.4154   21846238.685
        42.7004         39.7004
  -5577382.30846  -4336462.41145  24126433.5094   24126435.7284   24126434.106
        37.6004         35.7004
    965349.81346    764284.49745  25033494.0944   25033500.2434   25033493.956
        37.5004         35.3004
 -18403172.76247 -14325331.37247  21478028.7624   21478029.3024   21478029.732
        45.6004         42.6004
 -20931364.76147 -15890192.71547  21152605.6374   21152606.2984   21152605.281
        46.9004         43.7004
 14  9 12  0 35  0.0000000  0  8G18G15G16G26G22G05G21G29
 -19000381.93347 -14545070.22647  21381145.3014   21381145.4874   21381145.769
        45.8004         42.8004
 -23487314.71748 -18043567.02747  20834444.0714   20834444.6604   20834443.951
        48.1004         45.1004
  -2866598.07545  -2224033.22245  24422723.8604   24422724.9234   24422724.122
        35.9004         34.1004
 -16110524.25047 -12535697.03546  21855451.3724   21855452.7204   21855451.274
        42.5004         39.9004
  -5661215.64646  -4401786.95945  24110480.1314   24110481.7064   24110481.522
        38.0004         35.9004
   1062037.94446    839625.87945  25051894.6194   25051895.8734   25051894.277
        37.3004         35.2004
 -18449722.45147 -14361603.83047  21469171.7724   21469170.4154   21469171.543
        45.6004         42.8004
 -20855996.99847 -15831464.62847  21166947.8904   21166948.5074   21166947.284
        46.7004         43.7004
 14  9 12  0 35 30.0000000  0  8G18G15G16G26G22G05G21G29
 -19042551.38147 -14577929.49147  21373120.8554   21373121.2094   21373121.092
        45.8004         42.8004
 -23498668.66748 -18052414.23647  20832283.7514   20832284.0214   20832283.388
        48.1004         45.1004
  -2854136.56945  -2214322.97045  24425094.1324   24425097.4924   24425096.361
        35.7004         34.0004
 -16061466.45547 -12497470.19946  21864786.9614   21864788.0674   21864786.837
        42.3004         39.7004
  -5744898.78446  -4466994.46146  24094556.3114   24094556.9534   24094556.932
        38.3004         36.2004
   1158687.50046    914937.18345  25070285.9794   25070288.6824   25070285.642
        37.3004         35.3004
 -18496117.88847 -14397756.08747  21460342.2114   21460342.3384   21460342.937
        45.6004         42.8004
 -20780201.42647 -15772403.18147  21181370.7954   21181371.6954   21181370.787
        46.7004         43.7004
 14  9 12  0 36  0.0000000  0  8G18G15G16G26G22G05G21G29
 -19084445.17647 -14610573.97147  21365148.0664   21365149.1104   21365149.030
        45.8004         42.8004
 -23509408.29348 -18060782.75547  20830240.0824   20830240.4664   20830239.814
        48.1004         45.2004
  -2841153.06945  -2204205.95045  24427569.3324   24427569.2154   24427567.208
        35.7004         34.0004
 -16011764.11247 -12458741.11046  21874245.0754   21874245.5964   21874244.962
        42.3004         39.3004
  -5828430.83746  -4532084.24346  24078660.1494   24078663.3184   24078660.812
        38.7004         36.4004
   1255297.99546    990218.08845  25088669.9964   25088674.4024   25088670.462
        37.0004         34.8004
 -18542357.72947 -14433787.10947  21451543.3904   21451543.2834   21451543.745
        45.8004         43.0004
 -20703979.57647 -15713009.56547  21195875.6034   21195876.3924   21195875.454
        46.7004         43.9004
 14  9 12  0 36 30.0000000  0  8G18G15G16G26G22G05G21G29
 -19126063.54547 -14643003.84947  21357228.7714   21357228.7544   21357229.112
        45.8004         43.0004
 -23519533.18548 -18068672.26747  20828313.4064   20828313.5884   20828313.048
        48.1004         45.1004
  -2827648.31745  -2193682.77645  24430134.6644   24430138.1434   24430136.696
        35.9004         34.1004
 -15961419.12647 -12419511.26646  21883824.9684   21883825.9994   21883825.190
        42.2004         39.5004
  -5911811.42746  -4597056.00646  24062792.7534   24062794.9864   24062793.801
        38.9004         36.6004
   1351868.18446   1065467.52345  25107047.5214   25107049.0904   25107047.016
        36.6004         34.3004
 -18588440.53847 -14469695.76047  21442773.8934   21442774.1944   21442774.425
        45.8004         42.8004
 -20627333.87847 -15653285.68147  21210460.6344   21210461.7394   21210460.328
        46.7004         43.9004
 14  9 12  0 37  0.0000000  0  8G18G15G16G26G22G05G21G29
 -19167406.56147 -14675219.14847  21349361.1484   21349361.8784   21349361.895
        45.8004         42.8004
 -23529043.28048 -18076082.71047  20826503.5564   20826503.8544   20826503.314
        48.1004         45.1004
  -2813624.03446  -2182754.79845  24432803.6744   24432807.0714   24432804.857
        36.1004         34.3004
 -15910433.49747 -12379782.21546  21893526.8444   21893529.6094   21893527.324
        42.2004         39.5004
  -5995039.86646  -4661909.20646  24046955.2924   24046956.4204   24046956.018
        39.0004         36.6004
   1448396.96646   1140684.71245  25125415.0284   25125416.3864   25125416.033
        36.4004         34.5004
 -18634365.73647 -14505481.60147  21434034.5904   21434034.4504   21434035.336
        45.8004         42.8004
 -20550266.21747 -15593233.00447  21225126.3544   21225127.4194   21225126.031
        46.7004         43.7004
 14  9 12  0 37 30.0000000  0  8G18G15G16G26G22G05G21G29
 -19208474.42147 -14707220.03747  21341546.6604   21341546.4174   21341546.823
        45.8004         43.0004
 -23537938.17548 -18083013.77647  20824811.1374   20824810.9704   20824810.791
        48.1004         45.1004
  -2799081.11146  -2171422.67045  24435572.3384   24435573.6064   24435571.967
        36.1004         34.3004
 -15858809.17847 -12339555.49646  21903350.8944   21903353.4244   21903351.401
        42.2004         39.5004
  -6078115.65946  -4726643.46846  24031146.0224   24031147.3264   24031147.221
        39.0004         36.6004
   1544883.39946   1215868.90745  25143777.5564   25143779.8374   25143775.102
        36.1004         34.3004
 -18680131.73347 -14541143.39247  21425325.5064   21425325.4584   21425326.118
        45.8004         43.0004
 -20472778.39447 -15532852.91247  21239872.1414   21239872.5444   21239871.525
        46.7004         43.7004
 14  9 12  0 38  0.0000000  0  8G18G15G16G26G22G05G21G29
 -19249267.38947 -14739006.73647  21333783.4924   21333784.0454   21333784.261
        46.0004         43.0004
 -23546217.73147 -18089465.35947  20823235.4294   20823235.4154   20823235.117
        47.9004         44.9004
  -2784020.92346  -2159687.46645  24438439.4364   24438441.5254   24438439.351
        36.1004         34.1004
 -15806548.12647 -12298832.60646  21913297.3474   21913297.7984   21913296.192
        42.2004         39.2004
  -6161038.07846  -4791258.21346  24015366.0964   24015367.9844   24015367.409
        39.2004         36.7004
   1641326.38645   1291019.24045  25162126.2614   25162133.4154   25162127.361
        35.9004         34.0004
 -18725737.28447 -14576680.16647  21416647.0814   21416647.0814   21416647.730
        45.8004         43.0004
 -20394872.60947 -15472147.13047  21254696.5834   21254697.6924   21254696.974
        46.7004         43.9004
 14  9 12  0 38 30.0000000  0  8G18G15G16G26G22G05G21G29
 -19289785.81147 -14770579.51947  21326073.0534   21326073.6614   21326073.655
        46.0004         43.2004
 -23553881.80748 -18095437.34347  20821776.8524   20821776.9164   20821776.579
        48.1004         45.1004
  -2768444.44345  -2147549.98045  24441402.2404   24441403.3814   24441403.004
        35.9004         34.3004
 -15753652.34447 -12257615.11546  21923361.9344   21923362.8144   21923361.867
        42.0004         39.3004
  -6243807.14346  -4855753.47646  23999615.5864   23999617.6394   23999616.890
        39.2004         36.9004
   1737725.31746   1366135.23245  25180472.7404   25180477.0154   25180472.948
        36.1004         34.3004
 -18771181.12947 -14612090.93747  21407999.3884   21407999.3324   21407999.882
        46.0004         43.2004
 -20316550.68647 -15411117.09547  21269600.7114   21269602.5074   21269600.976
        46.7004         43.7004
 14  9 12  0 39  0.0000000  0  8G18G15G16G26G22G05G21G29
 -19330029.98347 -14801938.58047  21318414.8044   21318415.6234   21318415.479
        46.0004         43.0004
 -23560930.07948 -18100929.48547  20820435.7854   20820436.1274   20820435.299
        48.1004         45.1004
  -2752353.05946  -2135011.25745  24444464.3244   24444466.8024   24444465.495
        36.3004         34.3004
 -15700123.93946 -12215904.67346  21933547.8184   21933549.7464   21933547.885
        41.8004         39.2004
  -6326422.03646  -4920128.59746  23983895.8114   23983897.0124   23983895.823
        39.4004         36.9004
   1834079.03746   1441216.02545  25198806.7614   25198811.9454   25198808.657
        36.4004         34.6004
 -18816462.10947 -14647374.78847  21399382.5624   21399382.7634   21399383.274
        46.0004         43.2004
 -20237814.96847 -15349764.61247  21284583.8064   21284584.7094   21284583.764
        46.7004         43.7004
 14  9 12  0 39 30.0000000  0  8G18G15G16G26G22G05G21G29
 -19369999.99747 -14833084.00547  21310808.4184   21310809.5644   21310809.242
        46.0004         43.2004
 -23567362.40648 -18105941.67047  20819211.3704   20819211.6894   20819211.319
        48.1004         44.9004
  -2735748.21146  -2122072.41145  24447625.9174   24447627.2964   24447625.631
        36.1004         34.3004
 -15645964.89246 -12173702.82446  21943853.7794   21943856.3074   21943853.875
        41.8004         39.0004
  -6408882.39846  -4984383.30746  23968203.9564   23968204.0954   23968204.378
        39.6004         37.3004
   1930386.46646   1516260.73045  25217134.5844   25217138.5084   25217133.702
        36.4004         34.6004
 -18861579.01347 -14682530.80147  21390797.8094   21390797.3864   21390797.827
        46.0004         43.2004
 -20158667.47247 -15288091.25847  21299645.0084   21299646.1174   21299644.911
        46.7004         43.7004
 14  9 12  0 40  0.0000000  0  8G18G15G16G26G22G05G21G29
 -19409696.12147 -14864016.02447  21303254.7224   21303256.1664   21303255.544
        46.2004         43.2004
 -23573178.61547 -18110473.75647  20818104.8034   20818105.0874   20818104.470
        47.9004         44.9004
  -2718631.31645  -2108734.61545  24450879.8844   24450883.3174   24450881.280
        35.9004         34.1004
 -15591177.45346 -12131011.31546  21954279.2704   21954282.0204   21954279.721
        41.8004         39.0004
  -6491187.46746  -5048517.01346  23952542.0764   23952541.4854   23952542.669
        39.7004         37.4004
   2026646.93246   1591268.84045  25235452.2784   25235454.6114   25235452.373
        36.8004         35.2004
 -18906530.57947 -14717557.99147  21382243.4134   21382243.4834   21382243.782
        46.2004         43.2004
 -20079110.30247 -15226098.69147  21314784.3694   21314785.5014   21314783.929
        46.7004         43.7004
 14  9 12  0 40 30.0000000  0  8G18G15G16G26G22G05G21G29
 -19449118.82647 -14894734.98347  21295753.3114   21295753.5474   21295753.549
        46.2004         43.2004
 -23578378.80247 -18114525.83047  20817115.0784   20817115.3924   20817114.901
        47.9004         44.9004
  -2701003.40646  -2094998.58745  24454236.5944   24454238.4764   24454236.531
        36.1004         34.1004
 -15535763.67046 -12087831.74546  21964824.4614   21964825.5824   21964824.944
        41.8004         39.3004
  -6573336.79646  -5112529.36246  23936908.7124   23936908.9274   23936909.774
        39.7004         37.4004
   2122859.11346   1666239.40645  25253760.9754   25253765.6344   25253761.199
        37.1004         35.2004
 -18951315.57647 -14752455.36947  21373721.1144   21373720.9634   21373721.554
        46.2004         43.3004
 -19999145.44147 -15163788.44147  21330001.6804   21330002.5804   21330001.223
        46.7004         43.7004
 14  9 12  0 41  0.0000000  0  8G18G15G16G26G22G05G21G29
 -19488267.91347 -14925240.73247  21288303.1904   21288303.5014   21288304.016
        46.2004         43.3004
 -23582962.71147 -18118097.68647  20816242.8124   20816243.0404   20816242.530
        47.9004         44.9004
  -2682865.88446  -2080865.46745  24457687.0014   24457689.9464   24457688.699
        36.3004         34.5004
 -15479725.62146 -12044165.74646  21975488.8444   21975489.3284   21975488.700
        41.8004         39.2004
  -6655330.25246  -5176420.25446  23921306.3644   23921307.0194   23921306.750
        39.7004         37.1004
   2219022.46146   1741171.86245  25272060.4694   25272065.0264   25272060.520
        37.0004         34.8004
 -18995932.69647 -14787221.95147  21365230.5044   21365231.0054   21365231.155
        46.2004         43.3004
 -19918775.21047 -15101162.33047  21345295.0894   21345296.7344   21345295.272
        46.7004         43.7004
 14  9 12  0 41 30.0000000  0  8G18G15G16G26G22G05G21G29
 -19527143.87847 -14955533.66747  21280905.4884   21280906.0314   21280906.294
        46.3004         43.3004
 -23586930.30448 -18121189.29547  20815488.1674   20815487.8764   20815487.678
        48.1004         45.1004
  -2664220.12446  -2066336.33145  24461236.8344   24461237.5964   24461236.350
        36.3004         34.5004
 -15423065.47446 -12000014.99546  21986271.3024   21986271.7474   21986270.802
        41.8004         39.2004
  -6737166.82246  -5240188.90646  23905732.8454   23905733.5414   23905733.707
        39.7004         37.3004
   2315136.20346   1816065.70445  25290351.3394   25290353.7204   25290350.512
        36.6004         34.5004
 -19040381.01547 -14821856.98747  21356772.0284   21356772.4834   21356773.031
        46.3004         43.3004
 -19838001.53047 -15038221.85947  21360666.1684   21360667.1774   21360665.770
        46.7004         43.7004
 14  9 12  0 42  0.0000000  0  8G18G15G16G26G22G05G21G29
 -19565747.27547 -14985614.20447  21273559.3574   21273559.8944   21273559.961
        46.3004         43.5004
 -23590281.39348 -18123800.51447  20814850.0684   20814850.2434   20814850.069
        48.1004         45.1004
  -2645067.50146  -2051412.21545  24464881.9584   24464883.5044   24464881.796
        36.4004         34.8004
 -15365785.50846 -11955381.26646  21997170.8054   21997170.8674   21997170.758
        41.8004         39.0004
  -6818846.53246  -5303835.31646  23890190.1104   23890191.3694   23890190.678
        39.6004         37.1004
   2411199.07846   1890919.92545  25308629.8394   25308633.5914   25308631.135
        36.8004         34.8004
 -19084658.71247 -14856359.07747  21348346.6294   21348346.3284   21348347.194
        46.3004         43.3004
 -19756826.27447 -14974968.44147  21376113.6664   21376114.0434   21376113.048
        46.7004         43.9004
 14  9 12  0 42 30.0000000  0  8G18G15G16G26G22G05G21G29
 -19604078.14547 -15015482.38947  21266265.3784   21266265.2984   21266265.789
        46.3004         43.3004
 -23593016.21348 -18125931.52147  20814329.7584   20814330.0304   20814329.487
        48.1004         45.1004
  -2625409.57646  -2036094.35545  24468622.6414   24468625.8914   24468621.922
        36.8004         34.8004
 -15307887.83646 -11910266.21546  22008187.5634   22008187.8194   22008188.262
        41.8004         39.0004
  -6900368.61846  -5367358.93546  23874675.8854   23874676.8604   23874677.299
        39.4004         36.7004
   2507210.02346   1965733.64345  25326901.6734   25326904.9684   25326901.054
        36.6004         34.8004
 -19128764.73047 -14890727.39547  21339952.9924   21339953.0394   21339954.169
        46.3004         43.3004
 -19675251.98047 -14911404.07947  21391636.5464   21391637.0804   21391636.266
        46.7004         43.7004
 14  9 12  0 43  0.0000000  0  8G18G15G16G26G22G05G21G29
 -19642136.67047 -15045138.35447  21259022.6254   21259023.4974   21259023.438
        46.3004         43.3004
 -23595134.90348 -18127582.43147  20813926.5574   20813926.7984   20813926.132
        48.1004         45.1004
  -2605247.59846  -2020383.74445  24472457.9774   24472461.7934   24472459.311
        37.0004         34.8004
 -15249374.76746 -11864671.63646  22019322.8324   22019324.0274   22019322.830
        41.6004         38.8004
  -6981732.41046  -5430759.19846  23859191.9964   23859194.1844   23859193.913
        39.0004         36.4004
   2603168.42046   2040506.41145  25345161.1784   25345167.1474   25345161.807
        36.4004         34.5004
 -19172697.70447 -14924960.87947  21331593.2554   21331593.3624   21331593.953
        46.3004         43.5004
 -19593280.63247 -14847530.33147  21407235.0094   21407236.0224   21407234.953
        46.7004         43.9004
 14  9 12  0 43 30.0000000  0  8G18G15G16G26G22G05G21G29
 -19679923.48247 -15074582.57547  21251831.9844   21251832.4804   21251832.821
        46.3004         43.3004
 -23596637.48147 -18128753.25147  20813640.3684   20813640.8884   20813640.137
        47.9004         44.9004
  -2584582.67646  -2004281.24545  24476390.3464   24476392.0954   24476391.241
        36.8004         34.6004
 -15190248.56846 -11818599.28746  22030574.1414   22030576.5864   22030573.804
        41.6004         39.0004
  -7062938.07646  -5494036.25346  23843740.2974   23843741.2574   23843740.429
        38.9004         36.6004
   2699073.60146   2115237.71245  25363412.8294   25363413.1194   25363412.031
        36.1004         34.1004
 -19216456.58047 -14959058.69447  21323266.3694   21323266.0114   21323267.180
        46.3004         43.5004
 -19510914.17047 -14783348.70847  21422909.3574   21422910.0464   21422909.002
        46.7004         43.7004
 14  9 12  0 44  0.0000000  0  8G18G15G16G26G22G05G21G29
 -19717438.59047 -15103815.11747  21244693.4494   21244693.5364   21244693.899
        46.3004         43.3004
 -23597523.79147 -18129443.86447  20813472.1314   20813472.3304   20813471.702
        47.9004         44.9004
  -2563416.96046  -1987788.49845  24480416.7334   24480419.2734   24480418.030
        36.6004         34.6004
 -15130511.46546 -11772050.89746  22041941.5034   22041942.8784   22041941.606
        41.6004         39.3004
  -7143984.87446  -5557189.50246  23828316.0044   23828317.7974   23828317.330
        38.7004         36.2004
   2794924.22545   2189926.48545  25381652.3424   25381653.5454   25381651.000
        35.4004         33.3004
 -19260039.95847 -14993019.75447  21314972.5184   21314972.8434   21314973.395
        46.3004         43.5004
 -19428155.24447 -14718861.26947  21438657.5844   21438658.5474   21438657.333
        46.7004         43.7004
 14  9 12  0 44 30.0000000  0  8G18G15G16G26G22G05G21G29
 -19754682.45147 -15132836.26847  21237605.8924   21237606.1814   21237606.676
        46.3004         43.3004
 -23597794.07347 -18129654.45647  20813420.5194   20813420.3724   20813420.211
        47.9004         45.1004
  -2541751.69346  -1970906.50445  24484541.2474   24484542.4234   24484541.289
        36.6004         34.6004
 -15070165.69746 -11725028.22946  22053424.9574   22053426.8314   22053425.110
        41.8004         39.2004
  -7224872.30146  -5620218.59646  23812924.6244   23812926.3474   23812925.307
        38.7004         36.4004
   2890719.99745   2264572.54645  25399883.2794   25399879.9804   25399881.368
        34.5004         32.7004
 -19303446.33647 -15026842.89147  21306713.0694   21306712.7354   21306713.398
        46.3004         43.5004
 -19345006.06247 -14654069.71647  21454480.2934   21454481.3294   21454480.095
        46.5004         43.5004
 14  9 12  0 45  0.0000000  0  9G18G15G24G16G26G22G05G21G29
 -19791654.91547 -15161645.93747  21230570.3354   21230570.7174   21230571.000
        46.3004         43.3004
 -23597448.52947 -18129385.18147  20813486.6014   20813486.2034   20813485.954
        47.9004         45.1004
    -45524.63644    -12652.249        -139.940    25541333.841        -139.940
        26.4004          1.500
  -2519588.22846  -1953636.28945  24488759.5134   24488759.9764   24488759.313
        36.6004         34.6004
 -15009213.77546 -11677533.21246  22065024.2074   22065025.8874   22065023.965
        41.8004         39.2004
  -7305599.94746  -5683123.17446  23797563.4674   23797563.9494   23797563.464
        38.9004         36.6004
   2986459.82345   2339175.08845  25418101.0524   25418100.0164   25418099.177
        34.3004         32.9004
 -19346674.85647 -15060527.44147  21298486.6424   21298486.5984   21298487.442
        46.3004         43.5004
 -19261468.66247 -14588975.66647  21470376.8114   21470377.8104   21470376.701
        46.3004         43.3004
 14  9 12  0 45 30.0000000  0 10G18G15G24G16G26G22G05G21G29G27
 -19828356.98547 -15190244.93247  21223586.3464   21223586.5484   21223586.796
        46.3004         43.3004
 -23596487.22247 -18128636.09347  20813668.9094   20813669.2504   20813668.933
        47.9004         44.9004
   -126273.22544    -12652.249        -139.940    25541333.841        -139.940
        26.4004          1.500
  -2496928.21946  -1935979.15745  24493071.3404   24493071.9254   24493071.800
        36.6004         34.8004
 -14947657.95547 -11629567.65246  22076737.3044   22076739.2164   22076737.953
        42.0004         39.2004
  -7386167.16846  -5745902.73046  23782230.3704   23782231.8314   23782232.535
        39.0004         36.7004
   3082142.65245   2413733.20845  25436304.3274   25436303.9294   25436306.975
        34.0004         32.4004
 -19389723.84047 -15094072.10047  21290294.8824   21290294.3764   21290295.214
        46.3004         43.5004
 -19177545.33647 -14523580.89547  21486347.1084   21486348.1704   21486346.627
        46.3004         43.2004
   -224514.62644   -163232.83545      -139.940        -143.433    24830182.749
        26.4004         33.6004
 14  9 12  0 46  0.0000000  0 10G18G15G24G16G26G22G05G21G29G27
 -19864788.60747 -15218633.16647  21216653.3714   21216653.2554   21216654.066
        46.3004         43.3004
 -23594910.34347 -18127407.34347  20813969.0874   20813969.4224   20813968.906
        47.9004         44.9004
   -207130.34344   -119656.705 3      -139.940    25515163.952        -139.940
        26.4004         23.400
  -2473773.38046  -1917936.46245  24497476.6584   24497480.0874   24497477.153
        36.8004         34.6004
 -14885500.54447 -11581133.30846  22088565.5404   22088567.6944   22088565.854
        42.0004         39.2004
  -7466573.48346  -5808556.92046  23766929.8454   23766931.7694   23766931.467
        39.2004         36.7004
   3177767.92045   2488246.43745  25454505.9744   25454501.3834   25454503.053
        33.7004         32.4004
 -19432591.69947 -15127475.60447  21282136.8984   21282137.1704   21282137.610
        46.3004         43.3004
 -19093238.10247 -14457886.98047  21502390.4044   21502390.9464   21502390.008
        46.2004         43.3004
   -324786.00645   -241366.39445      -139.940    24811106.4074   24811103.280
        34.5004         35.0004
 14  9 12  0 46 30.0000000  0  9G18G15G16G26G22G05G21G29G27
 -19900950.10047 -15246810.94147  21209771.8054   21209772.3184   21209772.669
        46.3004         43.3004
 -23592717.98448 -18125698.99447  20814386.4024   20814387.0354   20814386.076
        48.1004         45.1004
  -2450125.02446  -1899509.18545  24501977.0934   24501978.4664   24501977.303
        36.8004         34.8004
 -14822743.94646 -11532232.07846  22100508.2324   22100509.5844   22100508.119
        41.8004         39.2004
  -7546818.66046  -5871085.53446  23751660.2154   23751660.5814   23751661.157
        39.2004         36.7004
   3273334.56245   2562713.87945  25472685.3594   25472692.4134   25472689.301
        33.5004         32.2004
 -19475277.70347 -15160737.40847  21274014.3054   21274014.2184   21274014.879
        46.3004         43.3004
 -19008549.32647 -14391895.76147  21518505.6754   21518506.2064   21518505.992
        46.2004         43.2004
   -424858.91446   -319345.19145  24792060.4114   24792063.5004   24792058.534
        36.6004         35.2004
 14  9 12  0 47  0.0000000  0  9G18G15G16G26G22G05G21G29G27
 -19936841.87547 -15274778.51747  21202942.0664   21202942.5844   21202942.724
        46.3004         43.3004
 -23589910.64448 -18123511.44347  20814920.7304   20814920.6774   20814920.384
        48.1004         44.9004
  -2425984.55146  -1880698.44845  24506570.5124   24506574.9734   24506570.478
        36.6004         34.6004
 -14759390.57646 -11482865.83146  22112564.1794   22112565.8744   22112563.748
        41.6004         38.8004
  -7626902.38546  -5933488.34646  23736421.6114   23736422.7934   23736421.949
        39.2004         36.9004
   3368842.04545   2637135.25245  25490863.3884   25490865.3754   25490864.719
        33.7004         32.4004
 -19517780.54747 -15193856.49347  21265926.5734   21265926.1094   21265926.747
        46.3004         43.3004
 -18923480.70647 -14325608.56347  21534693.5524   21534695.0004   21534693.660
        46.2004         43.2004
   -524730.70246   -397167.27245  24773054.3514   24773059.8864   24773054.727
        37.3004         35.3004
 14  9 12  0 47 30.0000000  0  8G18G15G16G26G22G21G29G27
 -19972464.05847 -15302536.04647  21196163.2944   21196163.7144   21196164.125
        46.3004         43.3004
 -23586488.43247 -18120844.76647  20815572.0354   20815572.0604   20815571.412
        47.9004         44.9004
  -2401354.02846  -1861505.86845  24511257.8274   24511259.3374   24511257.536
        36.4004         34.5004
 -14695442.97846 -11433036.54546  22124731.1954   22124734.3514   22124732.241
        41.5004         38.5004
  -7706824.08446  -5995764.91646  23721212.1424   23721212.4974   23721213.127
        39.4004         37.1004
 -19560098.04647 -15226831.14447  21257873.4864   21257873.4844   21257873.972
        46.2004         43.3004
 -18838035.11847 -14259027.62347  21550953.7994   21550954.2394   21550953.144
        46.0004         43.0004
   -624398.75746   -474830.61645  24754087.7144   24754092.3044   24754088.130
        37.6004         35.7004
 14  9 12  0 48  0.0000000  0  8G18G15G16G26G22G21G29G27
 -20007817.02747 -15330083.78747  21189436.0504   21189436.3044   21189436.526
        46.3004         43.3004
 -23582451.42147 -18117699.03647  20816340.2384   20816340.2324   20816339.783
        47.9004         44.9004
  -2376235.06446  -1841932.66745  24516037.1524   24516039.0114   24516038.606
        36.4004         34.5004
 -14630903.47046 -11382746.02546  22137014.3964   22137014.5284   22137013.469
        41.1004         38.5004
  -7786583.24546  -6057914.81746  23706034.2644   23706034.8424   23706035.120
        39.4004         36.9004
 -19602229.28847 -15259660.66547  21249855.8834   21249856.1814   21249856.696
        46.3004         43.5004
 -18752214.83647 -14192154.71947  21567284.0194   21567285.6644   21567284.250
        46.0004         43.0004
   -723860.49746   -552333.17945  24735162.0464   24735166.1614   24735161.704
        37.8004         35.7004
 14  9 12  0 48 30.0000000  0  8G18G15G16G26G22G21G29G27
 -20042901.13047 -15357422.01847  21182759.8404   21182759.6784   21182760.263
        46.3004         43.5004
 -23577800.53048 -18114074.94647  20817225.0044   20817225.3944   20817225.036
        48.1004         45.1004
  -2350629.18246  -1821980.05845  24520911.8204   24520911.5394   24520911.469
        36.3004         34.3004
 -14565774.61646 -11331996.27846  22149407.8654   22149408.6654   22149407.559
        40.9004         38.3004
  -7866179.58646  -6119937.85346  23690887.8984   23690888.8904   23690888.768
        39.6004         37.4004
 -19644173.38747 -15292344.35947  21241874.6224   21241874.9974   21241875.144
        46.3004         43.5004
 -18666022.16647 -14124991.62647  21583686.1804   21583687.5374   21583686.184
        45.8004         43.0004
   -823113.31846   -629672.97745  24716273.2544   24716278.4164   24716274.034
        38.0004         35.9004
 14  9 12  0 49  0.0000000  0  8G18G15G16G26G22G21G29G27
 -20077716.69847 -15384551.00147  21176134.3584   21176134.9544   21176135.106
        46.5004         43.5004
 -23572535.75848 -18109972.51347  20818226.7104   20818227.2144   20818226.679
        48.1004         44.9004
  -2324538.11946  -1801649.37745  24525876.2404   24525876.0064   24525876.268
        36.4004         34.5004
 -14500058.89546 -11280789.24246  22161912.4084   22161914.2614   22161912.906
        40.9004         38.5004
  -7945612.91546  -6181833.86546  23675771.8634   23675772.4434   23675773.087
        39.7004         37.1004
 -19685929.02147 -15324881.19247  21233928.4984   21233928.5504   21233929.120
        46.3004         43.5004
 -18579459.29647 -14057540.07547  21600159.3644   21600159.9764   21600158.957
        45.8004         43.0004
   -922154.59746   -706847.93945  24697426.4914   24697431.1804   24697426.204
        38.2004         35.9004
 14  9 12  0 49 30.0000000  0  8G18G15G16G26G22G21G29G27
 -20112264.41147 -15411471.26847  21169560.4524   21169560.5074   21169561.079
        46.5004         43.5004
 -23566657.37747 -18105391.94047  20819345.6044   20819345.7494   20819345.176
        47.9004         44.9004
  -2297963.49246  -1780941.88845  24530931.3344   24530934.0394   24530933.021
        36.3004         34.5004
 -14433758.73546 -11229126.77846  22174528.6414   22174530.0084   22174529.353
        41.1004         38.6004
  -8024882.63446  -6243602.38346  23660687.2174   23660687.4564   23660688.502
        39.7004         37.3004
 -19727494.63547 -15357269.94947  21226019.2584   21226018.8884   21226019.377
        46.3004         43.5004
 -18492528.51647 -13989801.81847  21616701.7734   21616702.6624   21616701.394
        45.8004         42.8004
  -1020981.66546   -783855.97446  24678620.8334   24678625.1344   24678619.796
        38.2004         36.0004
 14  9 12  0 50  0.0000000  0  8G18G15G16G26G22G21G29G27
 -20146544.23047 -15438182.77747  21163037.2464   21163037.2524   21163037.674
        46.5004         43.7004
 -23560166.04747 -18100333.74847  20820580.6294   20820580.9904   20820580.337
        47.9004         44.9004
  -2270907.11846  -1759859.02445  24536081.1904   24536083.4954   24536081.407
        36.4004         34.3004
 -14366876.69846 -11177010.93946  22187256.2484   22187257.3624   22187257.084
        41.3004         38.6004
  -8103988.20746  -6305242.99346  23645634.3144   23645634.7304   23645634.543
        39.7004         37.3004
 -19768868.76047 -15389509.50447  21218145.5534   21218145.4154   21218146.215
        46.3004         43.5004
 -18405232.20747 -13921778.74947  21633312.9864   21633314.5984   21633313.293
        45.8004         42.8004
  -1119591.94746   -860695.11546  24659854.7254   24659860.9594   24659855.265
        38.2004         36.0004
 14  9 12  0 50 30.0000000  0  8G18G15G16G26G22G21G29G27
 -20180556.83747 -15464686.09647  21156564.7174   21156564.6794   21156565.306
        46.5004         43.7004
 -23553062.18047 -18094798.25247  20821932.3564   20821932.7844   20821932.106
        47.9004         44.9004
  -2243370.65746  -1738402.06945  24541319.4224   24541321.2574   24541321.482
        36.1004         34.3004
 -14299415.43346 -11124443.72846  22200094.6064   22200096.3014   22200094.168
        41.1004         38.6004
  -8182929.25846  -6366755.39846  23630611.3744   23630613.2644   23630612.409
        39.9004         37.3004
 -19810050.29147 -15421598.99247  21210309.3294   21210309.1224   21210309.678
        46.5004         43.5004
 -18317572.66647 -13853472.64347  21649994.6394   21649995.5024   21649994.402
        45.8004         42.8004
  -1217982.82146   -937363.27146  24641132.1244   24641138.1834   24641132.327
        38.3004         36.0004
 14  9 12  0 51  0.0000000  0  8G18G15G16G26G22G21G29G27
 -20214302.39747 -15490981.29447  21150143.1634   21150143.5334   21150143.505
        46.5004         43.5004
 -23545345.97047 -18088785.60947  20823400.7954   20823400.7494   20823400.363
        47.9004         44.9004
  -2215355.69945  -1716572.24345  24546652.8484   24546655.4114   24546653.233
        35.9004         34.0004
 -14231377.32846 -11071427.03946  22213042.0174   22213042.9334   22213041.155
        41.1004         38.3004
  -8261705.67046  -6428139.52646  23615620.2554   23615622.5734   23615621.617
        39.9004         37.3004
 -19851037.31647 -15453536.91547  21202509.5664   21202509.1094   21202510.036
        46.5004         43.7004
 -18229552.04547 -13784885.17847  21666744.3164   21666745.2014   21666743.912
        45.6004         42.8004
  -1316151.61246  -1013858.37746  24622451.2344   24622456.7064   24622451.235
        38.3004         36.2004
 14  9 12  0 51 30.0000000  0  8G18G15G16G26G22G21G29G27
 -20247781.22647 -15517068.66047  21143772.2494   21143772.3254   21143772.730
        46.5004         43.7004
 -23537018.10347 -18082296.35247  20824985.6034   20824985.9174   20824985.229
        47.9004         44.9004
  -2186864.19745  -1694371.12145  24552073.1034   24552073.4154   24552074.812
        35.7004         34.1004
 -14162765.09346 -11017962.98246  22226099.0544   22226100.5294   22226097.961
        40.9004         38.3004
  -8340317.10346  -6489395.10146  23600661.0284   23600662.5234   23600662.270
        39.7004         37.4004
 -19891828.94647 -15485322.57247  21194746.7084   21194746.9364   21194747.486
        46.5004         43.5004
 -18141172.64347 -13716018.14447  21683562.6454   21683562.8734   21683562.064
        45.6004         42.6004
  -1414095.66146  -1090178.38246  24603812.5304   24603817.3904   24603812.994
        38.3004         36.0004
 14  9 12  0 52  0.0000000  0  8G18G15G16G26G22G21G29G27
 -20280993.63147 -15542948.41947  21137452.1554   21137451.8784   21137452.746
        46.5004         43.7004
 -23528079.30747 -18075331.04147  20826686.5834   20826687.1604   20826686.347
        47.9004         44.9004
  -2157897.90745  -1671799.97145  24557587.3664   24557591.3844   24557586.019
        35.6004         33.8004
 -14093581.47246 -10964053.69746  22239262.7824   22239265.1284   22239263.170
        40.8004         38.1004
  -8418762.93846  -6550521.64646  23585735.2324   23585733.2124   23585734.861
        39.7004         37.4004
 -19932423.26247 -15516954.49047  21187022.1544   21187022.4924   21187022.700
        46.5004         43.7004
 -18052437.11647 -13646873.61947  21700447.8784   21700449.8444   21700447.666
        45.5004         42.6004
  -1511812.41246  -1166321.25645  24585218.6784   24585224.1094   24585218.093
        38.3004         35.9004
 14  9 12  0 52 30.0000000  0  8G18G15G16G26G22G21G29G27
 -20313940.00947 -15568620.87847  21131182.3254   21131182.7354   21131182.956
        46.5004         43.7004
 -23518529.75447 -18067889.81847  20828503.7804   20828503.8954   20828503.590
        47.9004         44.9004
  -2128458.83945  -1648860.46645  24563187.6074   24563192.2474   24563187.614
        35.7004         34.1004
 -14023828.88746 -10909701.05046  22252536.9854   22252538.3574   22252536.764
        40.6004         37.9004
  -8497042.78246  -6611518.84146  23570837.9634   23570837.8954   23570838.726
        39.9004         37.4004
 -19972819.26447 -15548431.87147  21179334.9114   21179335.1094   21179335.685
        46.5004         43.7004
 -17963348.03847 -13577453.58747  21717400.9074   21717401.9364   21717400.870
        45.3004         42.5004
  -1609299.19346  -1242284.93546  24566666.9604   24566672.4434   24566667.043
        38.2004         36.0004
 14  9 12  0 53  0.0000000  0  8G18G15G16G26G22G21G29G27
 -20346620.94847 -15594086.51847  21124963.4434   21124963.9034   21124964.232
        46.7004         43.7004
 -23508369.80247 -18059972.95447  20830436.8774   20830437.2084   20830436.668
        47.9004         44.9004
  -2098548.64045  -1625553.84545  24568880.5524   24568881.1214   24568879.770
        35.7004         34.0004
 -13953510.06146 -10854907.18046  22265916.9244   22265919.7424   22265917.503
        40.4004         37.6004
  -8575156.23946  -6672386.40146  23555972.7474   23555974.2634   23555974.380
        39.9004         37.4004
 -20013016.14947 -15579754.10447  21171685.6924   21171686.1484   21171686.593
        46.5004         43.7004
 -17873907.15147 -13507759.43347  21734420.8384   21734422.4364   21734420.996
        45.3004         42.5004
  -1706553.34946  -1318067.35845  24548159.9904   24548164.7154   24548160.451
        38.0004         35.9004
 14  9 12  0 53 30.0000000  0  8G18G15G16G26G22G21G29G27
 -20379036.59447 -15619345.40647  21118794.9154   21118795.1364   21118795.705
        46.7004         43.7004
 -23497600.38247 -18051581.18547  20832486.4134   20832486.6184   20832485.889
        47.7004         44.7004
  -2068169.04145  -1601881.45245  24574660.4704   24574661.5864   24574660.864
        35.9004         34.0004
 -13882627.53046 -10799674.05646  22279407.4814   22279407.4974   22279405.710
        40.1004         37.4004
  -8653102.99246  -6733124.04346  23541141.0104   23541140.6424   23541141.138
        39.9004         37.3004
 -20053011.86447 -15610919.57747  21164075.1304   21164074.7154   21164075.602
        46.7004         43.7004
 -17784117.05247 -13437793.14447  21751507.3664   21751508.6134   21751507.733
        45.5004         42.6004
  -1803572.25346  -1393666.44745  24529697.6624   24529702.7394   24529697.845
        38.0004         35.9004
 14  9 12  0 54  0.0000000  0  8G18G15G16G26G22G21G29G27
 -20411187.40147 -15644397.95447  21112677.0654   21112677.1004   21112677.524
        46.7004         43.9004
 -23486222.02147 -18042714.92047  20834651.6784   20834651.9954   20834651.458
        47.7004         44.7004
  -2037322.11146  -1577844.90445  24580530.3364   24580532.7444   24580531.294
        36.3004         34.5004
 -13811184.05746 -10744003.84246  22293002.1094   22293002.7264   22293000.893
        39.9004         37.6004
  -8730882.74846  -6793731.57146  23526338.5174   23526339.9174   23526339.532
        39.9004         37.4004
 -20092804.95447 -15641927.16547  21156502.3494   21156502.2654   21156503.040
        46.5004         43.7004
 -17693980.45947 -13367556.87447  21768660.0374   21768661.0284   21768660.173
        45.5004         42.5004
  -1900353.25446  -1469080.15745  24511281.6264   24511284.8174   24511281.280
        38.0004         35.7004
 14  9 12  0 54 30.0000000  0  8G18G15G16G26G22G21G29G27
 -20443073.70547 -15669244.41247  21106609.1894   21106609.4364   21106609.860
        46.7004         43.9004
 -23474235.48347 -18033374.74247  20836932.6074   20836932.8464   20836932.411
        47.7004         44.9004
  -2006009.20646  -1553445.26245  24586489.1964   24586492.7634   24586489.756
        36.4004         34.6004
 -13739182.33446 -10687898.62946  22306702.6184   22306705.4084   22306702.774
        40.1004         37.6004
  -8808495.35046  -6854208.85946  23511570.2624   23511571.1014   23511570.695
        39.9004         37.4004
 -20132394.30847 -15672775.98747  21148968.4834   21148968.7614   21148969.312
        46.5004         43.7004
 -17603499.29847 -13297052.09947  21785878.1024   21785879.3674   21785877.716
        45.3004         42.3004
  -1996893.68946  -1544306.41445  24492909.7434   24492915.9404   24492910.660
        38.0004         35.7004
 14  9 12  0 55  0.0000000  0  8G18G15G16G26G22G21G29G27
 -20474696.09447 -15693885.19347  21100591.4484   21100591.6914   21100592.232
        46.7004         43.9004
 -23461641.13147 -18023560.95147  20839329.1564   20839329.5774   20839328.812
        47.7004         44.9004
  -1974233.11846  -1528684.69145  24592537.3074   24592539.6144   24592537.024
        36.6004         34.8004
 -13666625.13746 -10631360.58546  22320509.7554   22320512.7454   22320510.175
        40.3004         37.8004
  -8885940.07946  -6914555.32846  23496832.5414   23496833.5414   23496833.458
        40.1004         37.6004
 -20171778.62747 -15703465.04447  21141473.9924   21141473.7584   21141474.621
        46.5004         43.5004
 -17512675.82247 -13226280.59247  21803160.7674   21803162.4304   21803160.813
        45.3004         42.3004
  -2093190.93446  -1619343.16645  24474584.8474   24474590.3704   24474585.674
        38.0004         35.9004
 14  9 12  0 55 30.0000000  0  8G18G15G16G26G22G21G29G27
 -20506054.84147 -15718320.55147  21094623.7284   21094624.0554   21094624.800
        46.7004         43.9004
 -23448439.82447 -18013274.20347  20841840.9244   20841841.8044   20841841.171
        47.7004         44.9004
  -1941995.30246  -1503564.34045  24598671.6664   24598673.5364   24598672.146
        36.6004         34.6004
 -13593515.11346 -10574391.76346  22334421.0204   22334424.4094   22334422.908
        40.4004         37.9004
  -8963216.82146  -6974770.89946  23482126.5224   23482127.8834   23482128.783
        40.3004         37.8004
 -20210956.21647 -15733993.03247  21134019.0294   21134018.7844   21134019.401
        46.5004         43.7004
 -17421513.23347 -13155244.85647  21820508.8304   21820510.5954   21820508.673
        45.1004         42.3004
  -2189242.34046  -1694188.35345  24456307.2514   24456312.3274   24456307.110
        38.0004         35.9004
 14  9 12  0 56  0.0000000  0  8G18G15G16G26G22G21G29G27
 -20537150.11347 -15742550.58147  21088707.3414   21088707.2274   21088707.745
        46.9004         43.9004
 -23434632.36347 -18002515.12647  20844468.6184   20844468.9504   20844468.410
        47.7004         44.7004
  -1909297.74246  -1478085.75945  24604894.4134   24604895.2634   24604893.527
        36.6004         34.6004
 -13519854.97446 -10516994.28746  22348441.2934   22348441.8144   22348439.834
        40.4004         37.8004
  -9040325.28046  -7034855.32146  23467453.4694   23467454.1574   23467454.962
        40.3004         37.8004
 -20249925.74747 -15764358.88347  21126603.2424   21126603.2054   21126603.777
        46.5004         43.7004
 -17330013.48247 -13083946.39047  21837920.8634   21837922.7714   21837921.013
        45.1004         42.3004
  -2285045.24446  -1768839.89846  24438076.1404   24438080.8114   24438076.713
        38.2004         36.0004
 14  9 12  0 56 30.0000000  0  8G18G15G16G26G22G21G29G27
 -20567982.66847 -15766575.93547  21082839.9704   21082839.7404   21082840.414
        46.9004         43.7004
 -23420219.64247 -17991284.41847  20847210.9484   20847211.7174   20847211.018
        47.7004         44.7004
  -1876142.46246  -1452250.47645  24611202.5214   24611204.7844   24611202.713
        36.8004         34.6004
 -13445647.56246 -10459170.35246  22362560.8574   22362562.5024   22362561.153
        40.4004         37.8004
  -9117264.91446  -7094808.20646  23452812.2064   23452814.0964   23452813.787
        40.3004         37.8004
 -20288685.74947 -15794561.45647  21119227.1934   21119227.4224   21119227.949
        46.5004         43.7004
 -17238178.98647 -13012387.08047  21855397.0534   21855398.1074   21855396.832
        45.1004         42.5004
  -2380597.04846  -1843295.75945  24419893.7734   24419898.8774   24419893.993
        38.3004         35.9004
 14  9 12  0 57  0.0000000  0  8G18G15G16G26G22G21G29G27
 -20598552.54647 -15790396.58747  21077022.6154   21077022.4634   21077023.143
        46.9004         43.9004
 -23405202.15247 -17979582.46047  20850068.9154   20850069.4624   20850068.944
        47.7004         44.7004
  -1842531.43346  -1426060.09445  24617596.3734   24617599.6544   24617598.020
        36.8004         34.8004
 -13370895.61946 -10400922.09746  22376786.5374   22376787.7234   22376785.909
        40.4004         37.9004
  -9194035.45546  -7154629.31346  23438203.9534   23438204.7484   23438205.001
        40.3004         37.6004
 -20327234.77747 -15824599.65947  21111892.1344   21111891.6714   21111892.186
        46.5004         43.7004
 -17146012.16747 -12940568.81147  21872936.1114   21872936.4374   21872935.517
        45.1004         42.3004
  -2475895.07746  -1917553.90446  24401759.2364   24401762.9264   24401758.760
        38.3004         36.0004
 14  9 12  0 57 30.0000000  0  8G18G15G16G26G22G21G29G27
 -20628860.39647 -15814013.05847  21071255.0864   21071254.7934   21071255.609
        46.9004         43.9004
 -23389580.58147 -17967409.79347  20853041.5654   20853042.2354   20853041.517
        47.7004         44.7004
  -1808466.28646  -1399515.84545  24624081.5864   24624084.6754   24624081.535
        37.0004         35.0004
 -13295602.04246 -10342251.79946  22391113.9374   22391116.1394   22391113.888
        40.3004         37.9004
  -9270636.53146  -7214318.37446  23423626.9244   23423627.2954   23423627.995
        40.3004         37.9004
 -20365571.22247 -15854472.19847  21104596.3854   21104596.0904   21104597.188
        46.5004         43.7004
 -17053515.73747 -12868493.70247  21890536.9134   21890538.0424   21890536.951
        45.1004         42.1004
  -2570936.66246  -1991612.18846  24383673.3714   24383676.7214   24383673.327
        38.3004         36.0004
 14  9 12  0 58  0.0000000  0  8G18G15G16G26G22G21G29G27
 -20658906.41847 -15837425.52147  21065537.1104   21065537.7964   21065537.833
        46.9004         43.9004
 -23373355.78747 -17954767.08147  20856129.1084   20856129.2614   20856128.966
        47.7004         44.7004
  -1773949.29946  -1372619.54245  24630649.1794   24630651.2284   24630650.219
        37.3004         35.2004
 -13219769.46046 -10283161.49546  22405544.5214   22405545.2404   22405543.972
        40.3004         37.8004
  -9347067.74546  -7273875.07546  23409082.8074   23409082.4614   23409083.504
        40.3004         37.8004
 -20403693.87647 -15884178.14247  21097341.8554   21097341.9494   21097342.582
        46.5004         43.9004
 -16960691.94147 -12796163.50147  21908200.5224   21908201.9894   21908200.573
        45.1004         42.1004
  -2665719.20346  -2065468.64945  24365636.9284   24365640.8174   24365636.643
        38.2004         35.9004
 14  9 12  0 58 30.0000000  0  8G18G15G16G26G22G21G29G27
 -20688691.25747 -15860634.45947  21059869.1084   21059869.5734   21059870.079
        46.9004         43.9004
 -23356528.71347 -17941655.06147  20859330.9584   20859331.8024   20859331.006
        47.7004         44.7004
  -1738982.82746  -1345372.96045  24637304.1954   24637305.8984   24637303.689
        37.3004         35.2004
 -13143400.77446 -10223653.45346  22420076.1204   22420078.7394   22420076.481
        40.1004         37.6004
  -9423329.19946  -7333299.47646  23394570.1684   23394571.0434   23394571.197
        40.3004         37.8004
 -20441601.67247 -15913716.65447  21090128.6704   21090128.3404   21090129.171
        46.7004         43.7004
 -16867543.17947 -12723580.08246  21925926.3864   21925927.2914   21925926.225
        44.9004         41.9004
  -2760240.06746  -2139121.19245  24347649.9564   24347653.6664   24347650.312
        38.0004         35.7004
 14  9 12  0 59  0.0000000  0  8G18G15G16G26G22G21G29G27
 -20718215.21547 -15883640.13447  21054251.2304   21054251.2064   21054251.947
        46.9004         43.9004
 -23339100.23847 -17928074.41147  20862647.7174   20862648.0084   20862647.490
        47.7004         44.7004
  -1703568.53046  -1317777.42345  24644043.6864   24644045.0594   24644043.023
        37.1004         35.2004
 -13066498.77146 -10163729.85146  22434710.9544   22434713.1774   22434710.309
        40.1004         37.6004
  -9499420.23246  -7392591.07846  23380090.6514   23380092.0134   23380091.404
        40.4004         37.8004
 -20479292.55447 -15943086.18047  21082956.4764   21082955.9364   21082956.918
        46.7004         43.9004
 -16774071.97947 -12650745.41646  21943713.3874   21943713.7534   21943713.334
        44.8004         41.8004
  -2854496.55846  -2212567.71245  24329713.8484   24329717.5794   24329713.273
        38.0004         35.9004
 14  9 12  0 59 30.0000000  0  8G18G15G16G26G22G21G29G27
 -20747478.74747 -15906442.85047  21048682.6224   21048682.5984   21048683.311
        46.9004         43.9004
 -23321071.18147 -17914025.77947  20866078.4694   20866078.7984   20866078.478
        47.7004         44.7004
  -1667708.68946  -1289834.74045  24650865.0264   24650867.6074   24650866.746
        37.1004         35.0004
 -12989066.47246 -10103393.01046  22449445.5234   22449447.7264   22449445.127
        39.9004         37.4004
  -9575340.67346  -7451749.74246  23365643.1184   23365643.3504   23365644.266
        40.4004         37.9004
 -20516765.27547 -15972285.68947  21075825.1244   21075825.3464   21075825.776
        46.7004         43.9004
 -16680280.80547 -12577661.42146  21961561.4554   21961562.4984   21961561.197
        44.8004         41.8004
  -2948486.01246  -2285806.17045  24311827.9414   24311831.6004   24311827.702
        37.8004         35.5004
 14  9 12  1  0  0.0000000  0  8G18G15G16G26G22G21G29G27
 -20776482.28347 -15929043.00647  21043163.4774   21043163.3514   21043163.928
        46.9004         43.9004
 -23302442.56847 -17899509.95947  20869623.4354   20869623.9264   20869623.359
        47.7004         44.7004
  -1631404.86246  -1261546.05845  24657774.6554   24657777.3724   24657774.322
        37.3004         35.2004
 -12911106.55546 -10042645.05246  22464280.5444   22464282.2494   22464280.774
        39.9004         37.4004
  -9651090.16046  -7510775.20846  23351228.1474   23351228.7624   23351229.254
        40.4004         37.9004
 -20554018.58647 -16001314.21747  21068735.9194   21068736.0504   21068736.498
        46.7004         43.7004
 -16586172.02147 -12504329.92846  21979469.6344   21979470.5304   21979469.712
        44.8004         41.8004
  -3042205.80646  -2358834.49945  24293994.0684   24293997.8814   24293993.599
        37.5004         35.2004
 14  9 12  1  0 30.0000000  0  8G18G15G16G26G22G21G29G27
 -20805226.33847 -15951440.95847  21037693.5924   21037693.5094   21037694.322
        46.9004         43.9004
 -23283215.11147 -17884527.51147  20873282.5294   20873282.9124   20873282.125
        47.7004         44.9004
  -1594659.86546  -1232913.61845  24664766.4914   24664770.1624   24664766.911
        37.3004         35.2004
 -12832621.97146  -9981488.26146  22479216.2304   22479218.7564   22479215.760
        39.9004         37.4004
  -9726668.39246  -7569667.22346  23336846.0914   23336847.6514   23336847.648
        40.6004         38.1004
 -20591051.46247 -16030170.99347  21061689.4794   21061688.8794   21061689.494
        46.7004         43.9004
 -16491748.53747 -12430753.20846  21997437.6104   21997438.9754   21997437.682
        44.6004         41.8004
  -3135653.30846  -2431650.64445  24276210.5584   24276214.6704   24276210.210
        37.5004         35.3004
 14  9 12  1  1  0.0000000  0  8G18G15G16G26G22G21G29G27
 -20833711.28347 -15973636.99547  21032273.1874   21032273.0694   21032273.598
        46.9004         43.9004
 -23263390.02347 -17869079.37547  20877055.0074   20877055.4164   20877054.912
        47.9004         44.9004
  -1557475.55046  -1203938.86845  24671843.6084   24671844.4474   24671843.949
        37.3004         35.0004
 -12753615.54746  -9919924.85546  22494250.8234   22494250.7844   22494250.487
        39.7004         37.4004
  -9802075.04846  -7628425.54646  23322497.0294   23322498.0414   23322497.865
        40.8004         37.9004
 -20627861.77347 -16058854.32847  21054684.4354   21054683.9594   21054684.835
        46.7004         43.9004
 -16397012.58547 -12356933.01646  22015465.6954   22015466.8384   22015465.459
        44.6004         41.8004
  -3228825.83446  -2504252.51545  24258479.1604   24258484.6104   24258480.272
        37.8004         35.5004
 14  9 12  1  1 30.0000000  0  8G18G15G16G26G22G21G29G27
 -20861937.23747 -15995631.21347  21026901.7914   21026901.9154   21026902.363
        46.9004         43.9004
 -23242968.08647 -17853166.16347  20880940.9104   20880941.5384   20880940.729
        47.9004         44.9004
  -1519853.77046  -1174623.20745  24679004.1024   24679004.8514   24679003.143
        37.3004         35.2004
 -12674090.31146  -9857957.17446  22509383.5784   22509385.6004   22509383.791
        39.7004         37.1004
  -9877309.85646  -7687049.95546  23308179.9564   23308181.2794   23308180.888
        40.8004         38.1004
 -20664448.14847 -16087363.17447  21047722.1194   21047722.0174   21047722.728
        46.7004         43.9004
 -16301966.71147 -12282871.33146  22033552.0514   22033553.1334   22033551.782
        44.6004         41.8004
  -3321720.77246  -2576638.10145  24240803.5934   24240807.4914   24240803.433
        37.8004         35.5004
 14  9 12  1  2  0.0000000  0  8G18G15G16G26G22G21G29G27
 -20889904.95147 -16017424.22847  21021579.5004   21021579.6904   21021580.287
        46.9004         43.9004
 -23221950.41147 -17836788.74347  20884940.5354   20884941.0184   20884940.284
        47.9004         44.7004
  -1481797.10946  -1144968.68345  24686244.4134   24686246.2514   24686245.033
        37.5004         35.3004
 -12594049.11846  -9795587.43846  22524615.1354   22524617.9454   22524615.180
        39.7004         37.4004
  -9952372.46146  -7745540.18146  23293897.0534   23293896.8754   23293897.118
        40.8004         38.3004
 -20700809.03147 -16115696.31847  21040803.1814   21040803.1904   21040803.456
        46.9004         44.0004
 -16206613.42547 -12208570.09946  22051696.9874   22051698.7874   22051697.147
        44.6004         41.6004
  -3414335.42446  -2648805.27245  24223179.8254   24223183.8024   24223179.365
        38.2004         35.9004
 14  9 12  1  2 30.0000000  0  8G18G15G16G26G22G21G29G27
 -20917614.65447 -16039016.18247  21016306.8964   21016307.0444   21016307.186
        46.9004         43.9004
 -23200337.84347 -17819947.76747  20889053.4814   20889053.6424   20889053.338
        47.9004         44.9004
  -1443307.47646  -1114976.79845  24693567.8964   24693568.4774   24693569.849
        37.3004         35.0004
 -12513494.89446  -9732817.94846  22539943.7634   22539945.1414   22539944.081
        39.7004         37.3004
 -10027262.86146  -7803896.21846  23279645.2164   23279645.4834   23279645.798
        40.8004         38.3004
 -20736943.11647 -16143852.73147  21033926.9234   21033926.6204   21033927.254
        46.9004         43.9004
 -16110955.16947 -12134031.23246  22069900.5044   22069901.2674   22069900.260
        44.6004         41.6004
  -3506667.20546  -2720752.03446  24205608.6924   24205613.1114   24205609.063
        38.5004         36.2004
 14  9 12  1  3  0.0000000  0  8G18G15G16G26G22G21G29G27
 -20945066.88747 -16060407.50547  21011082.7014   21011082.8214   21011083.186
        46.9004         43.9004
 -23178131.61647 -17802644.19647  20893279.4414   20893279.3854   20893278.906
        47.9004         44.9004
  -1404387.08946  -1084649.25245  24700974.7834   24700977.0394   24700976.048
        37.1004         35.0004
 -12432430.60746  -9669650.99846  22555369.1474   22555369.9284   22555369.537
        39.7004         37.1004
 -10101980.62246  -7862117.73746  23265426.7844   23265425.8774   23265427.665
        40.8004         38.3004
 -20772849.28447 -16171831.54347  21027093.5194   21027093.8044   21027094.424
        46.9004         43.9004
 -16014994.62047 -12059256.81246  22088160.4344   22088162.2214   22088161.144
        44.4004         41.4004
  -3598713.44246  -2792476.29046  24188092.9504   24188096.7754   24188093.373
        38.7004         36.6004
 14  9 12  1  3 30.0000000  0  8G18G15G16G26G22G21G29G27
 -20972262.17847 -16081598.63247  21005907.7034   21005907.4794   21005908.349
        46.9004         43.9004
 -23155332.91347 -17784878.96847  20897617.7634   20897617.6984   20897617.353
        47.9004         44.9004
  -1365037.80946  -1053987.48745  24708463.2074   24708466.2194   24708462.622
        37.3004         35.0004
 -12350859.30146  -9606088.98146  22570891.6104   22570894.9134   22570891.578
        39.7004         37.1004
 -10176525.51646  -7920204.54946  23251241.6874   23251241.0164   23251242.067
        40.8004         38.1004
 -20808525.88647 -16199631.47947  21020305.1174   21020304.7034   21020305.431
        46.9004         43.9004
 -15918734.19047 -11984248.72346  22106478.6944   22106479.9364   22106479.003
        44.2004         41.2004
  -3690471.51746  -2863976.02146  24170631.5834   24170636.9634   24170632.162
        38.9004         36.6004
 14  9 12  1  4  0.0000000  0  8G18G15G16G26G22G21G29G27
 -20999200.74747 -16102589.69947  21000781.2804   21000781.4094   21000781.784
        46.9004         44.0004
 -23131942.56447 -17766652.70447  20902068.5364   20902069.0234   20902068.420
        47.9004         44.9004
  -1325262.26946  -1022993.59045  24716031.5974   24716035.5204   24716031.989
        37.0004         34.6004
 -12268783.80346  -9542134.08546  22586509.8324   22586513.1834   22586510.106
        39.6004         37.1004
 -10250897.36946  -7978156.53846  23237088.6904   23237088.7194   23237089.425
        40.6004         38.1004
 -20843971.16547 -16227251.16347  21013560.1554   21013559.7084   21013560.475
        46.9004         44.0004
 -15822176.62947 -11909009.09346  22124853.8464   22124854.6834   22124853.105
        44.1004         41.2004
  -3781938.76046  -2935249.11846  24153226.5204   24153231.1864   24153226.675
        38.9004         36.7004
 14  9 12  1  4 30.0000000  0  8G18G15G16G26G22G21G29G27
 -21025883.28847 -16123381.26147  20995703.5704   20995703.5934   20995704.559
        46.9004         43.9004
 -23107961.67947 -17747966.28947  20906631.9574   20906632.0434   20906631.693
        47.9004         44.9004
  -1285062.63446   -991669.24245  24723681.1924   24723686.9264   24723681.749
        36.6004         34.6004
 -12186207.08746  -9477788.63646  22602224.7084   22602226.3854   22602224.349
        39.4004         37.1004
 -10325095.50146  -8035973.15046  23222968.8214   23222969.4934   23222969.426
        40.6004         37.8004
 -20879183.76247 -16254689.53747  21006859.5394   21006858.6964   21006859.906
        46.9004         44.0004
 -15725324.35947 -11833539.82546  22143283.9984   22143285.3834   22143283.414
        43.9004         40.9004
  -3873112.56246  -3006293.55146  24135876.6814   24135881.5134   24135875.804
        38.9004         36.4004
 14  9 12  1  5  0.0000000  0  8G18G15G16G26G22G21G29G27
 -21052310.02447 -16143973.49747  20990674.9574   20990674.8874   20990675.462
        46.9004         44.0004
 -23083391.57547 -17728820.73847  20911307.3854   20911307.6974   20911307.439
        47.9004         44.9004
  -1244441.32546   -960016.30945  24731411.9974   24731414.1124   24731412.772
        36.6004         34.5004
 -12103132.29846  -9413055.08446  22618033.3494   22618035.7994   22618033.713
        39.6004         37.3004
 -10399120.12446  -8093654.56446  23208881.6664   23208882.4354   23208883.329
        40.6004         38.1004
 -20914162.49047 -16281945.67647  21000203.0624   21000202.8504   21000203.482
        46.9004         44.0004
 -15628179.87947 -11757842.85846  22161769.7314   22161771.6804   22161769.331
        43.9004         41.1004
  -3963990.28646  -3077107.28546  24118582.8874   24118587.9144   24118582.458
        38.7004         36.4004