     2.11           OBSERVATION DATA    G (GPS)             RINEX VERSION / TYPE
clockShift          gpsops              20141028 000951 UTC PGM / RUN BY / DATE
teqc  2013Mar15     gpsops              20141028 00:09:50UTCCOMMENT
Linux 2.4.21-27.ELsmp|Opteron|gcc -static|Linux x86_64|=+   COMMENT
BIT 2 OF LLI FLAGS DATA COLLECTED UNDER A/S CONDITION       COMMENT
AMC2                                                        MARKER NAME
40472S004                                                   MARKER NUMBER
GGN                 USNO                                    OBSERVER / AGENCY
RT920013101         ASHTECH Z-XII3T     IL01-1D04-MCF-12MX  REC # / TYPE / VERS
KW-0201             AOAD/M_T        NONE                    ANT # / TYPE
 -1248596.2520 -4819428.2840  3976506.0340                  APPROX POSITION XYZ
        0.0000        0.0000        0.0000                  ANTENNA: DELTA H/E/N
     1     1                                                WAVELENGTH FACT L1/2
     7    L1    L2    P1    P2    C1    S1    S2            # / TYPES OF OBSERV
    30.0000                                                 INTERVAL
                                                            COMMENT
This data is provided as a public service by NASA/JPL.      COMMENT
No warranty is expressed or implied regarding suitability   COMMENT
for use.  For further information, contact:                 COMMENT
Dave Stowers, NASA/JPL m/s 238-600                          COMMENT
4800 Oak Grove Drive, Pasadena CA 91109 USA                 COMMENT
                                                            COMMENT
Forced Modulo Decimation to 30 seconds                      COMMENT
 SNR is mapped to RINEX snr flag value [0-9]                COMMENT
  L1 & L2: min(max(int(snr_dBHz/6), 0), 9)                  COMMENT
pseudorange smoothing corrections not applied               COMMENT
clockShift applied 466.79 L1, 478.44 L2 (ns)                COMMENT
  2014    10    27     0     0    0.0000000     GPS         TIME OF FIRST OBS
                                                            END OF HEADER
 14 10 27  0  0  0.0000000  0  8G27G19G24G15G22G18G21G14
 -12038478.50747  -9358073.39046  22504037.4014   22504043.7484   22504037.613
        43.2004         40.2004
  -8621351.41246  -6687467.21646  23256985.8544   23256989.0384   23256987.188
        40.8004         38.1004
 -12896549.54747 -10033453.38346  22410979.5914   22410984.2364   22410979.565
        42.9004         40.0004
  -5852602.46446  -4287399.11945  24145826.9024   24145830.1994   24145825.820
        37.3004         35.0004
 -21189867.34147 -16501360.58447  20867686.5254   20867686.4174   20867687.031
        47.2004         44.2004
 -20921684.47747 -16264395.62547  20954875.7874   20954877.1504   20954876.564
        46.9004         44.0004
 -19547295.78947 -15053955.70546  21275030.5784   21275032.2464   21275031.301
        44.6004         41.8004
 -16044891.00247 -12445649.37147  21324026.9084   21324029.5024   21324027.448
        45.3004         42.3004
 14 10 27  0  0 30.0000000  0  8G27G19G24G15G22G18G21G14
 -12008633.90247  -9334817.87246  22509716.5004   22509722.3904   22509716.856
        43.0004         40.2004
  -8645875.91946  -6706577.16046  23252319.2444   23252321.6934   23252319.552
        40.6004         37.9004
 -12899286.53147 -10035586.02946  22410459.2294   22410463.3024   22410458.560
        42.7004         40.0004
  -5749352.96246  -4206944.94045  24165472.7174   24165476.2074   24165473.511
        37.0004         34.8004
 -21221016.46547 -16525632.58147  20861758.4794   20861758.8934   20861759.369
        47.4004         44.4004
 -20899650.66147 -16247226.39647  20959068.8794   20959070.1444   20959069.470
        46.9004         44.0004
 -19491670.75847 -15010611.53546  21285616.0404   21285617.4834   21285615.991
        44.6004         41.6004
 -16107845.60947 -12494704.81247  21312047.0564   21312049.6994   21312047.375
        45.3004         42.3004
 14 10 27  0  1  0.0000000  0  8G27G19G24G15G22G18G21G14
 -11978261.64747  -9311151.20046  22515496.8984   22515502.5654   22515496.388
        43.0004         40.2004
  -8669832.71346  -6725244.71846  23247760.2074   23247763.2434   23247761.012
        40.4004         37.8004
 -12901440.41847 -10037264.31846  22410048.5174   22410053.9244   22410048.139
        42.7004         39.7004
  -5646038.82846  -4126440.40745  24185132.9104   24185137.3954   24185133.617
        36.8004         34.8004
 -21251967.68647 -16549750.36847  20855868.9824   20855869.2284   20855869.825
        47.4004         44.4004
 -20877425.00747 -16229907.69647  20963298.3544   20963299.5094   20963298.942
        46.9004         43.9004
 -19435612.57247 -14966929.83746  21296283.2494   21296284.6544   21296283.408
        44.6004         41.6004
 -16170398.08847 -12543446.90747  21300143.6424   21300146.5614   21300143.954
        45.3004         42.5004
 14 10 27  0  1 30.0000000  0  8G27G19G24G15G22G18G21G14
 -11947363.44247  -9287074.69146  22521376.4614   22521381.7484   22521375.999
        42.7004         39.9004
  -8693221.10946  -6743469.36346  23243309.1964   23243311.7554   23243310.269
        40.4004         37.8004
 -12903010.93847 -10038488.03046  22409750.0004   22409754.9724   22409749.287
        42.5004         39.7004
  -5542661.92946  -4045886.98245  24204806.4564   24204809.8994   24204804.967
        36.6004         34.6004
 -21282720.62747 -16573713.65547  20850016.5654   20850016.8284   20850017.720
        47.4004         44.4004
 -20855007.98947 -16212439.87047  20967563.6944   20967565.3114   20967564.768
        46.9004         44.0004
 -19379121.90447 -14922911.14346  21307032.6504   21307034.6104   21307033.461
        44.4004         41.6004
 -16232547.50047 -12591874.93347  21288316.8754   21288319.1614   21288317.340
        45.3004         42.5004
 14 10 27  0  2  0.0000000  0  8G27G19G24G15G22G18G21G14
 -11915940.97747  -9262589.67346  22527355.1714   22527361.6844   22527355.482
        42.7004         39.9004
  -8716040.80146  -6761250.86846  23238966.2724   23238969.0224   23238967.941
        40.4004         37.8004
 -12903997.60547 -10039256.79346  22409561.6934   22409566.7374   22409561.324
        42.5004         39.7004
  -5439224.54946  -3965286.43445  24224489.0584   24224491.5034   24224488.304
        36.8004         34.8004
 -21313274.84847 -16597522.08947  20844202.7304   20844202.5144   20844203.461
        47.4004         44.4004
 -20832399.24347 -16194822.64247  20971866.6714   20971867.7204   20971867.100
        46.9004         44.0004
 -19322199.48347 -14878556.02746  21317865.9924   21317867.1464   21317865.802
        44.6004         41.8004
 -16294292.97047 -12639988.18847  21276567.2604   21276569.4554   21276567.518
        45.5004         42.5004
 14 10 27  0  2 30.0000000  0  8G27G19G24G15G22G18G21G14
 -11883995.96647  -9237697.47146  22533434.7404   22533439.6934   22533434.208
        42.5004         39.7004
  -8738291.02146  -6778588.63946  23234732.5464   23234735.3054   23234733.749
        40.3004         37.6004
 -12904399.71347 -10039570.06146  22409484.6324   22409491.1914   22409485.127
        42.5004         39.7004
  -5335728.72246  -3884640.33245  24244184.6204   24244188.7384   24244183.244
        37.1004         35.2004
 -21343630.01147 -16621175.41747  20838425.8244   20838425.9204   20838426.928
        47.5004         44.4004
 -20809598.31847 -16177055.65347  20976205.4964   20976206.5374   20976205.925
        46.9004         44.0004
 -19264846.03647 -14833865.04546  21328779.3324   21328781.3344   21328779.749
        44.6004         41.6004
 -16355633.71047 -12687786.07047  21264894.7224   21264896.9194   21264894.842
        45.5004         42.6004
 14 10 27  0  3  0.0000000  0  8G27G19G24G15G22G18G21G14
 -11851530.24847  -9212399.52346  22539612.1894   22539618.2834   22539612.187
        42.5004         39.9004
  -8759971.39946  -6795482.37146  23230606.5004   23230609.5454   23230608.174
        40.4004         37.8004
 -12904217.05047 -10039427.66246  22409519.9254   22409525.6514   22409519.802
        42.5004         39.7004
  -5232176.27446  -3803950.12145  24263889.8484   24263892.7524   24263889.104
        37.6004         35.5004
 -21373785.81647 -16644673.39747  20832687.6194   20832687.4974   20832688.523
        47.5004         44.5004
 -20786605.45747 -16159139.10447  20980580.5034   20980582.2124   20980581.333
        46.9004         43.9004
 -19207062.41347 -14788838.86946  21339774.5894   21339776.9604   21339775.315
        44.6004         41.8004
 -16416568.77647 -12735267.82847  21253298.5344   21253301.0334   21253299.216
        45.5004         42.6004
 14 10 27  0  3 30.0000000  0  8G27G19G24G15G22G18G21G14
 -11818545.52147  -9186697.15846  22545889.7484   22545894.6754   22545889.157
        42.5004         39.7004
  -8781081.45646  -6811931.68646  23226590.1784   23226592.2484   23226590.914
        40.4004         37.8004
 -12903448.74647 -10038828.92946  22409665.8534   22409671.6704   22409666.131
        42.5004         39.9004
  -5128569.07646  -3723217.23046  24283605.3644   24283608.8994   24283605.006
        38.2004         36.0004
 -21403741.99247 -16668015.82147  20826986.7774   20826987.1364   20826987.964
        47.5004         44.4004
 -20763420.23547 -16141072.66747  20984992.6574   20984993.5074   20984993.126
        46.9004         43.9004
 -19148849.41647 -14743478.11946  21350852.3294   21350854.3204   21350852.842
        44.6004         41.8004
 -16477097.19147 -12782432.71747  21241780.4434   21241783.0104   21241780.964
        45.5004         42.6004
 14 10 27  0  4  0.0000000  0  8G27G19G24G15G22G18G21G14
 -11785043.60847  -9160591.79646  22552264.3634   22552270.1684   22552264.334
        42.7004         39.7004
  -8801620.60446  -6827936.15946  23222682.2904   23222683.4304   23222682.591
        40.6004         37.9004
 -12902094.78247 -10037773.82946  22409925.0004   22409929.1764   22409923.660
        42.7004         39.9004
  -5024909.11046  -3642443.22746  24303331.2094   24303335.0844   24303330.780
        38.3004         36.2004
 -21433498.19047 -16691202.42047  20821324.3884   20821324.5954   20821325.282
        47.5004         44.5004
 -20740042.51047 -16122856.23247  20989441.1394   20989442.6224   20989441.651
        46.9004         43.9004
 -19090207.35747 -14697783.02146  21362011.4714   21362014.0784   21362011.818
        44.6004         41.6004
 -16537218.14247 -12829280.10847  21230339.6074   21230341.6184   21230340.164
        45.5004         42.5004
 14 10 27  0  4 30.0000000  0  8G27G19G24G15G22G18G21G14
 -11751026.34547  -9134084.87146  22558737.6104   22558743.0544   22558737.761
        42.7004         39.9004
  -8821588.78946  -6843495.71946  23218881.5274   23218883.2924   23218882.562
        40.6004         37.9004
 -12900154.86247 -10036262.14646  22410293.2644   22410297.7954   22410292.774
        42.9004         40.2004
  -4921198.34046  -3561629.63246  24323066.5794   24323070.6764   24323066.552
        38.7004         36.4004
 -21463054.01847 -16714232.89047  20815700.4144   20815699.8774   20815701.159
        47.5004         44.5004
 -20716472.45347 -16104489.93347  20993926.2734   20993927.6424   20993926.997
        46.9004         43.9004
 -19031137.28747 -14651754.41746  21373251.9144   21373254.5654   21373252.769
        44.6004         41.8004
 -16596931.37147 -12875809.78947  21218976.8964   21218978.9684   21218976.982
        45.5004         42.6004
 14 10 27  0  5  0.0000000  0  8G27G19G24G15G22G18G21G14
 -11716495.54147  -9107177.78846  22565308.9204   22565314.6234   22565308.754
        42.7004         39.9004
  -8840985.44646  -6858609.94946  23215190.6504   23215193.2784   23215191.720
        40.4004         37.9004
 -12897628.50047 -10034293.49746  22410773.9114   22410778.4754   22410773.579
        43.0004         40.4004
  -4817438.77946  -3480778.02246  24342811.2924   24342815.4664   24342811.542
        38.9004         36.4004
 -21492409.23247 -16737107.03847  20810114.0534   20810114.3934   20810114.856
        47.5004         44.5004
 -20692709.51347 -16085973.33947  20998448.3854   20998449.5144   20998448.716
        46.9004         43.9004
 -18971640.26847 -14605393.12246  21384574.7684   21384576.3224   21384575.122
        44.6004         41.8004
 -16656235.65147 -12922020.82947  21207691.5954   21207693.4614   21207691.699
        45.6004         42.6004
 14 10 27  0  5 30.0000000  0  8G27G19G24G15G22G18G21G14
 -11681453.08347  -9079871.99846  22571977.3044   22571983.5574   22571977.231
        42.7004         40.0004
  -8859810.39246  -6873278.67346  23211608.5834   23211610.7964   23211608.910
        40.6004         37.9004
 -12894515.34747 -10031867.61146  22411366.1974   22411372.2174   22411366.047
        43.0004         40.4004
  -4713632.21646  -3399889.78946  24362565.5514   24362569.2624   24362565.362
        38.9004         36.6004
 -21521563.27547 -16759824.42547  20804565.9074   20804566.2964   20804566.927
        47.5004         44.4004
 -20668753.51047 -16067306.30347  21003007.0144   21003008.5224   21003007.661
        46.9004         43.9004
 -18911716.97547 -14558699.65746  21395977.5614   21395979.2774   21395978.218
        44.6004         41.6004
 -16715130.20947 -12967912.59647  21196484.1124   21196485.9304   21196484.459
        45.5004         42.5004
 14 10 27  0  6  0.0000000  0  8G27G19G24G15G22G18G21G14
 -11645900.78547  -9052168.93946  22578742.7724   22578748.5324   22578742.889
        42.9004         40.2004
  -8878063.01446  -6887501.45646  23208135.3854   23208136.8444   23208135.385
        40.4004         37.9004
 -12890815.13147 -10028984.27146  22412070.3514   22412075.8244   22412070.149
        43.0004         40.2004
  -4609780.55246  -3318966.41246  24382328.3364   24382330.1274   24382327.594
        38.9004         36.4004
 -21550516.00147 -16782384.94247  20799056.5104   20799056.6564   20799057.350
        47.5004         44.4004
 -20644604.40547 -16048488.80647  21007602.5234   21007603.8724   21007602.926
        46.9004         43.9004
 -18851367.97147 -14511674.46546  21407461.5854   21407462.9294   21407462.244
        44.6004         41.8004
 -16773614.24347 -13013484.47647  21185355.0774   21185356.6464   21185355.066
        45.6004         42.6004
 14 10 27  0  6 30.0000000  0  8G27G19G24G15G22G18G21G14
 -11609840.63747  -9024070.14846  22585605.3474   22585610.0614   22585604.826
        42.9004         40.2004
  -8895743.24546  -6901278.20546  23204770.4964   23204772.9764   23204770.983
        40.4004         37.9004
 -12886527.88347 -10025643.49546  22412886.3504   22412891.1094   22412885.590
        43.0004         40.2004
  -4505885.52146  -3238009.26046  24402097.8194   24402101.3184   24402098.027
        38.7004         36.4004
 -21579266.95347 -16804788.23447  20793585.3284   20793585.2244   20793586.086
        47.4004         44.4004
 -20620261.86747 -16029520.57347  21012235.0464   21012235.8384   21012235.270
        46.9004         43.9004
 -18790594.07047 -14464318.18746  21419025.7624   21419028.5834   21419026.848
        44.6004         41.8004
 -16831686.94247 -13058735.84047  21174303.9704   21174306.1324   21174304.369
        45.6004         42.6004
 14 10 27  0  7  0.0000000  0  8G27G19G24G15G22G18G21G14
 -11573274.46547  -8995577.05446  22592562.5074   22592569.2204   22592563.080
        42.9004         40.0004
  -8912850.65046  -6914608.59846  23201514.9924   23201517.4944   23201515.391
        40.6004         37.8004
 -12881652.90747 -10021844.76346  22413814.0554   22413818.2274   22413813.246
        42.9004         40.0004
  -4401949.41646  -3157020.09046  24421876.0924   24421879.6904   24421877.342
        38.7004         36.2004
 -21607815.69447 -16827033.96347  20788152.9834   20788152.9184   20788153.641
        47.5004         44.4004
 -20595725.79747 -16010401.52347  21016903.4334   21016904.9644   21016904.249
        46.9004         43.9004
 -18729396.92547 -14416632.11846  21430671.9424   21430674.2264   21430672.028
        44.4004         41.6004
 -16889347.71747 -13103666.21947  21163331.2804   21163333.2774   21163331.752
        45.6004         42.8004
 14 10 27  0  7 30.0000000  0  8G27G19G24G15G22G18G21G14
 -11536204.25947  -8966691.21746  22599616.9914   22599623.1584   22599617.180
        42.7004         39.9004
  -8929385.03446  -6927492.47846  23198367.7354   23198370.2734   23198369.316
        40.4004         37.9004
 -12876190.28647 -10017588.10446  22414852.2514   22414857.9794   22414852.503
        42.7004         39.9004
  -4297973.78346  -3076000.12646  24441663.0304   24441667.2864   24441662.400
        38.3004         36.0004
 -21636161.66147 -16849121.68747  20782758.6054   20782758.8574   20782759.531
        47.5004         44.5004
 -20570996.08747 -15991131.59647  21021609.6764   21021611.0684   21021610.252
        46.9004         43.9004
 -18667777.08347 -14368616.69246  21442397.2854   21442399.4294   21442397.702
        44.4004         41.4004
 -16946596.04247 -13148275.20647  21152437.0754   21152439.1944   21152437.522
        45.8004         42.8004
 14 10 27  0  8  0.0000000  0  8G27G19G24G15G22G18G21G14
 -11498631.97947  -8937414.13646  22606766.8554   22606773.7094   22606766.707
        42.5004         39.7004
  -8945346.03846  -6939929.55946  23195331.4324   23195334.2824   23195331.882
        40.4004         37.9004
 -12870139.86947 -10012873.43546  22416004.6584   22416009.7464   22416004.088
        42.7004         39.9004
  -4193960.67146  -2994950.93245  24461456.8974   24461459.3974   24461455.732
        38.0004         35.7004
 -21664304.58447 -16871051.19247  20777403.0334   20777403.2034   20777404.201
        47.5004         44.5004
 -20546072.24747 -15971710.39847  21026352.2084   21026353.5824   21026353.072
        46.9004         43.9004
 -18605735.08047 -14320272.29346  21454203.7294   21454206.1364   21454204.149
        44.4004         41.4004
 -17003431.02447 -13192562.10547  21141621.7344   21141624.1234   21141622.246
        45.8004         42.8004
 14 10 27  0  8 30.0000000  0  8G27G19G24G15G22G18G21G14
 -11460559.57547  -8907747.35146  22614011.2184   22614017.5094   22614011.680
        42.5004         39.7004
  -8960733.64346  -6951919.84846  23192402.9104   23192404.9534   23192403.606
        40.4004         37.8004
 -12863501.38047 -10007700.52446  22417267.9254   22417271.8204   22417267.229
        42.7004         39.9004
  -4089911.80146  -2913873.88645  24481256.0444   24481259.4474   24481255.080
        37.8004         35.7004
 -21692243.88047 -16892822.02947  20772086.6344   20772086.5314   20772087.480
        47.5004         44.5004
 -20520954.47047 -15952138.08947  21031132.2934   21031133.2234   21031132.911
        46.9004         43.9004
 -18543272.17647 -14271599.91846  21466089.9624   21466092.8294   21466090.728
        44.4004         41.6004
 -17059851.99147 -13236526.38947  21130885.3904   21130887.4404   21130885.752
        45.8004         43.0004
 14 10 27  0  9  0.0000000  0  8G27G19G24G15G22G18G21G14
 -11421989.06447  -8877692.43346  22621351.0684   22621357.5744   22621351.820
        42.3004         39.5004
  -8975547.66646  -6963463.18346  23189582.7774   23189585.9004   23189584.624
        40.4004         37.8004
 -12856275.03847 -10002069.53846  22418642.6704   22418647.1834   22418642.365
        42.7004         39.9004
  -3985829.02046  -2832770.41345  24501063.1024   24501064.6554   24501062.274
        37.5004         35.3004
 -21719979.89247 -16914434.45847  20766808.7354   20766808.4224   20766809.463
        47.5004         44.5004
 -20495642.42147 -15932414.39047  21035948.9204   21035950.4094   21035949.465
        46.9004         43.9004
 -18480389.09947 -14222600.13346  21478056.1524   21478058.9214   21478056.887
        44.4004         41.4004
 -17115858.24247 -13280167.52447  21120227.6024   21120229.8294   21120228.036
        46.0004         43.0004
 14 10 27  0  9 30.0000000  0  8G27G19G24G15G22G18G21G14
 -11382922.45347  -8847250.95646  22628785.9744   22628791.8794   22628785.851
        42.3004         39.5004
  -8989787.94246  -6974559.44546  23186874.1544   23186876.4294   23186875.018
        40.4004         37.8004
 -12848459.93947  -9995979.78846  22420130.0454   22420134.7694   22420129.703
        42.9004         40.2004
  -3881714.28946  -2751642.04645  24520874.3514   24520877.9994   24520874.853
        37.1004         35.0004
 -21747511.99847 -16935888.01047  20761569.2324   20761569.1734   20761570.072
        47.5004         44.5004
 -20470136.07447 -15912539.28947  21040802.2734   21040803.6484   21040803.065
        46.9004         43.9004
 -18417086.83047 -14173273.69846  21490102.7394   21490104.3594   21490102.952
        44.4004         41.4004
 -17171448.94447 -13323484.86647  21109648.8634   21109651.0834   21109649.165
        46.0004         43.0004
 14 10 27  0 10  0.0000000  0  8G27G19G24G15G22G18G21G14
 -11343361.78047  -8816424.47246  22636313.2254   22636320.3754   22636313.524
        42.2004         39.3004
  -9003454.39246  -6985208.57846  23184272.9024   23184275.0364   23184274.610
        40.4004         37.8004
 -12840056.63047  -9989431.69146  22421728.5724   22421734.4794   22421728.540
        42.9004         40.4004
  -3777569.29746  -2670490.07645  24540692.6504   24540695.5794   24540692.856
        36.6004         34.5004
 -21774839.50547 -16957182.12547  20756369.0624   20756368.7324   20756369.824
        47.5004         44.5004
 -20444434.80247 -15892512.30447  21045693.2564   21045694.3094   21045693.588
        46.7004         43.7004
 -18353366.29247 -14123621.34046  21502228.1824   21502230.2144   21502228.478
        44.4004         41.6004
 -17226623.72547 -13366478.11847  21099149.3204   21099151.8494   21099149.700
        46.0004         43.0004
 14 10 27  0 10 30.0000000  0  8G27G19G24G15G22G18G21G14
 -11303309.10247  -8785214.62446  22643935.3244   22643941.4964   22643935.338
        42.0004         39.3004
  -9016546.51746  -6995410.18546  23181781.3024   23181784.2464   23181782.534
        40.3004         37.8004
 -12831065.04347  -9982425.20046  22423439.8464   22423444.8904   22423439.720
        43.0004         40.2004
  -3673396.05046  -2589316.13845  24560517.6054   24560519.5944   24560516.328
        36.3004         34.3004
 -21801962.06747 -16978316.54347  20751207.5664   20751207.4204   20751208.482
        47.5004         44.5004
 -20418538.53847 -15872333.37247  21050621.1024   21050622.3854   21050621.719
        46.7004         43.7004
 -18289228.82447 -14073644.10846  21514432.6594   21514434.9674   21514433.465
        44.4004         41.6004
 -17281382.21847 -13409146.98447  21088729.0414   21088730.9354   21088729.382
        46.0004         43.2004
 14 10 27  0 11  0.0000000  0  8G27G19G24G15G22G18G21G14
 -11262766.50047  -8753623.00646  22651651.0334   22651657.0754   22651650.255
        42.0004         39.2004
  -9029064.59746  -7005164.48546  23179398.9494   23179402.2794   23179400.553
        40.4004         37.9004
 -12821485.11247  -9974960.25846  22425262.9654   22425267.8974   22425262.452
        43.0004         40.4004
  -3569196.15846  -2508121.40745  24580343.5214   24580349.5844   24580344.716
        36.1004         34.1004
 -21828878.94047 -16999290.68947  20746085.3454   20746085.1984   20746086.406
        47.5004         44.5004
 -20392447.32047 -15852002.53447  21055586.1634   21055587.4964   21055586.680
        46.7004         43.7004
 -18224675.20547 -14023342.59446  21526717.4984   21526718.9524   21526717.540
        44.4004         41.4004
 -17335723.21047 -13451490.53047  21078388.6944   21078390.6754   21078388.750
        46.0004         43.2004
 14 10 27  0 11 30.0000000  0  8G27G19G24G15G22G18G21G14
 -11221736.05147  -8721651.25346  22659459.2214   22659464.6974   22659458.772
        42.0004         39.3004
  -9041008.34746  -7014471.26946  23177126.7294   23177129.2844   23177127.730
        40.4004         37.9004
 -12811316.62747  -9967036.69746  22427197.8844   22427202.7234   22427197.219
        43.0004         40.0004
  -3464971.70146  -2426907.52345  24600177.5624   24600181.8524   24600178.028
        36.1004         34.3004
 -21855590.31047 -17020104.69447  20741002.4164   20741002.5274   20741003.349
        47.5004         44.5004
 -20366161.05847 -15831519.70547  21060588.1124   21060589.8134   21060588.869
        46.7004         43.7004
 -18159706.26347 -13972717.46346  21539079.7614   21539082.3434   21539080.651
        44.2004         41.4004
 -17389646.25547 -13493508.40147  21068126.9944   21068129.0364   21068127.625
        46.2004         43.2004
 14 10 27  0 12  0.0000000  0  8G27G19G24G15G22G18G21G14
 -11180219.89947  -8689301.03546  22667358.6184   22667365.1424   22667358.816
        42.0004         39.3004
  -9052378.05146  -7023330.72446  23174963.2094   23174965.6864   23174963.892
        40.4004         38.1004
 -12800559.43547  -9958654.41046  22429244.6794   22429249.7084   22429244.298
        42.9004         40.0004
  -3360724.10346  -2345675.61345  24620016.1524   24620017.9174   24620014.990
        36.3004         34.5004
 -21882095.54447 -17040758.07347  20735958.5974   20735958.7284   20735959.464
        47.5004         44.5004
 -20339679.28647 -15810884.54347  21065627.4834   21065628.4524   21065628.090
        46.5004         43.5004
 -18094323.10347 -13921769.57046  21551522.1964   21551524.3644   21551522.774
        44.2004         41.4004
 -17443150.83447 -13535200.19647  21057946.2364   21057946.9294   21057945.831
        46.0004         43.2004
 14 10 27  0 12 30.0000000  0  8G27G19G24G15G22G18G21G14
 -11138220.14847  -8656573.98046  22675350.6344   22675357.8324   22675350.988
        42.2004         39.5004
  -9063173.46946  -7031742.69646  23172908.6814   23172911.5154   23172909.562
        40.6004         38.1004
 -12789214.36047  -9949814.02046  22431403.3594   22431408.9294   22431402.897
        42.9004         40.0004
  -3256455.52446  -2264427.32245  24639858.0654   24639860.7794   24639857.054
        36.8004         35.0004
 -21908394.21747 -17061250.50447  20730954.0444   20730954.4944   20730955.027
        47.5004         44.7004
 -20313001.83747 -15790096.89547  21070704.4514   21070705.3214   21070704.761
        46.5004         43.7004
 -18028527.19747 -13870500.06146  21564043.0134   21564045.0094   21564043.465
        44.2004         41.4004
 -17496236.32847 -13576565.43147  21047843.2014   21047845.4984   21047843.746
        46.0004         43.0004
 14 10 27  0 13  0.0000000  0  8G27G19G24G15G22G18G21G14
 -11095738.93547  -8623471.76046  22683435.4874   22683441.3374   22683434.847
        42.2004         39.5004
  -9073394.90146  -7039707.41246  23170963.7644   23170966.2154   23170964.633
        40.8004         38.1004
 -12777281.07347  -9940515.29046  22433673.8764   22433678.8874   22433673.754
        42.9004         40.0004
  -3152167.40546  -2183163.83545  24659702.2084   24659705.7434   24659702.310
        37.5004         35.5004
 -21934485.89047 -17081581.63147  20725988.9234   20725989.0654   20725989.821
        47.5004         44.5004
 -20286127.92247 -15769156.15047  21075818.1884   21075819.1024   21075818.559
        46.5004         43.5004
 -17962319.28347 -13818909.50146  21576641.8754   21576644.0514   21576642.228
        44.2004         41.4004
 -17548902.24347 -13617603.72047  21037821.1034   21037822.9804   21037821.508
        46.0004         43.0004
 14 10 27  0 13 30.0000000  0  8G27G19G24G15G22G18G21G14
 -11052778.44347  -8589996.07146  22691610.6014   22691616.3034   22691610.194
        42.3004         39.5004
  -9083042.29546  -7047224.81646  23169127.2934   23169131.1884   23169128.234
        40.6004         37.9004
 -12764759.51447  -9930758.16346  22436056.6604   22436062.4204   22436056.451
        42.7004         39.9004
  -3047861.58146  -2101886.54445  24679550.8594   24679555.3034   24679551.421
        38.0004         35.9004
 -21960369.96947 -17101751.00047  20721063.4304   20721063.3334   20721064.240
        47.7004         44.7004
 -20259058.01247 -15748062.68047  21080968.9774   21080969.9174   21080969.910
        46.5004         43.5004
 -17895700.38647 -13766998.69746  21589319.6254   21589320.5344   21589319.743
        44.2004         41.4004
 -17601148.08747 -13658314.68947  21027878.9744   21027881.2764   21027879.472
        45.8004         43.0004
 14 10 27  0 14  0.0000000  0  8G27G19G24G15G22G18G21G14
 -11009340.83347  -8556148.60846  22699876.4354   22699882.6424   22699876.526
        42.3004         39.7004
  -9092115.30746  -7054294.66346  23167400.4384   23167404.0024   23167401.925
        40.6004         37.9004
 -12751650.03447  -9920542.93346  22438551.3654   22438556.6054   22438551.277
        42.7004         40.0004
  -2943539.99946  -2020596.97046  24699403.3284   24699406.1874   24699402.354
        38.3004         36.2004
 -21986046.53847 -17121758.67047  20716177.4094   20716177.2294   20716178.215
        47.7004         44.7004
 -20231791.61947 -15726816.10747  21086157.6924   21086158.9574   21086158.505
        46.5004         43.5004
 -17828671.61747 -13714768.49946  21602074.4154   21602075.8714   21602074.785
        44.2004         41.4004
 -17652973.24447 -13698697.85047  21018017.0694   21018019.2164   21018017.528
        45.8004         43.0004
 14 10 27  0 14 30.0000000  0  8G27G19G24G15G22G18G21G14
 -10965428.33247  -8521931.09846  22708231.7984   22708238.3714   22708232.204
        42.2004         39.5004
  -9100614.37346  -7060917.27146  23165783.6754   23165787.5284   23165784.723
        40.6004         37.9004
 -12737952.76147  -9909869.67846  22441158.4414   22441163.3054   22441157.757
        42.9004         40.0004
  -2839204.39046  -1939296.49746  24719256.7834   24719260.5174   24719257.022
        38.7004         36.6004
 -22011514.85447 -17141604.06947  20711330.5954   20711330.7714   20711331.705
        47.7004         44.7004
 -20204328.59647 -15705416.31447  21091384.2954   21091385.0474   21091384.581
        46.5004         43.5004
 -17761233.65847 -13662219.45846  21614907.7394   21614909.2124   21614907.801
        44.2004         41.4004
 -17704377.07947 -13738752.70347  21008235.0194   21008236.7764   21008235.494
        45.8004         42.8004
 14 10 27  0 15  0.0000000  0  8G27G19G24G15G22G18G21G14
 -10921043.15847  -8487345.27046  22716678.0264   22716684.5384   22716678.717
        42.2004         39.3004
  -9108539.60746  -7067092.74146  23164276.0904   23164277.6144   23164277.041
        40.6004         37.9004
 -12723667.79147  -9898738.47946  22443875.8544   22443880.7054   22443876.156
        42.9004         40.0004
  -2734856.27746  -1857986.24146  24739114.7254   24739117.4664   24739113.764
        38.7004         36.2004
 -22036774.52747 -17161286.88747  20706524.1094   20706523.6484   20706524.898
        47.7004         44.7004
 -20176668.38447 -15683862.87547  21096647.8604   21096648.9334   21096648.085
        46.5004         43.5004
 -17693388.56947 -13609353.16246  21627817.8414   21627819.2824   21627818.111
        44.2004         41.2004
 -17755359.38547 -13778479.09647  20998533.6744   20998535.5004   20998533.983
        45.8004         43.0004
 14 10 27  0 15 30.0000000  0  8G27G19G24G15G22G18G21G14
 -10876187.51447  -8452392.83546  22725214.6744   22725221.0794   22725214.200
        42.0004         39.3004
  -9115891.10046  -7072821.13546  23162877.9364   23162878.8794   23162877.926
        40.6004         38.1004
 -12708795.35047  -9887149.51146  22446706.8414   22446711.1474   22446706.372
        42.9004         39.9004
  -2630497.61946  -1776667.80546  24758972.8104   24758976.7484   24758972.675
        38.5004         36.2004
 -22061825.11147 -17180806.77647  20701757.1604   20701756.7064   20701757.883
        47.7004         44.7004
 -20148811.28347 -15662156.01747  21101948.4354   21101949.5704   21101948.869
        46.5004         43.5004
 -17625136.97647 -13556170.13046  21640805.3874   21640808.1394   21640806.133
        44.1004         41.4004
 -17805919.61447 -13817876.59547  20988912.3234   20988914.0654   20988912.445
        45.8004         43.0004
 14 10 27  0 16  0.0000000  0  8G27G19G24G15G22G18G21G14
 -10830863.67647  -8417075.58346  22733839.7664   22733846.3554   22733838.954
        42.0004         39.2004
  -9122668.90146  -7078102.48146  23161587.0144   23161589.2294   23161587.618
        40.6004         37.8004
 -12693335.65447  -9875102.95346  22449649.2004   22449653.1244   22449648.235
        42.9004         40.0004
  -2526129.81246  -1695342.22346  24778833.9024   24778837.9394   24778832.952
        38.5004         36.2004
 -22086665.93747 -17200163.21447  20697029.8024   20697029.8164   20697031.024
        47.7004         44.7004
 -20120757.00847 -15640295.51647  21107287.0994   21107288.3184   21107287.518
        46.3004         43.3004
 -17556480.20547 -13502671.37346  21653870.5214   21653872.4744   21653870.997
        44.1004         41.2004
 -17856057.07147 -13856944.66947  20979370.9544   20979373.4254   20979371.604
        46.0004         43.0004
 14 10 27  0 16 30.0000000  0  8G27G19G24G15G22G18G21G14
 -10785073.92846  -8381395.28846  22742553.5544   22742559.4884   22742552.636
        41.8004         39.0004
  -9128873.37446  -7082937.10046  23160405.6834   23160407.6684   23160407.078
        40.4004         37.9004
 -12677289.06347  -9862599.06446  22452701.8614   22452705.6404   22452701.498
        42.7004         39.9004
  -2421755.00246  -1614011.22045  24798695.9704   24798699.6414   24798695.034
        37.8004         35.3004
 -22111296.72947 -17219355.98947  20692342.8574   20692342.8964   20692343.818
        47.7004         44.7004
 -20092504.96247 -15618280.90747  21112663.0204   21112664.3004   21112663.388
        46.3004         43.3004
 -17487419.34947 -13448857.73846  21667011.7274   21667013.8754   21667012.887
        44.1004         41.2004
 -17905771.63247 -13895683.21447  20969910.6244   20969912.6424   20969911.194
        46.0004         43.0004
 14 10 27  0 17  0.0000000  0  8G27G19G24G15G22G18G21G14
 -10738820.56346  -8345353.74346  22751354.4794   22751359.0614   22751354.483
        41.8004         39.2004
  -9134504.75346  -7087325.14046  23159334.3654   23159336.5194   23159335.329
        40.3004         37.6004
 -12660655.65747  -9849637.93146  22455867.4014   22455872.2384   22455866.690
        42.7004         40.0004
  -2317374.36646  -1532675.62345  24818558.7734   24818560.3384   24818557.639
        37.5004         35.0004
 -22135717.02447 -17238384.74347  20687695.6624   20687695.4754   20687696.762
        47.7004         44.7004
 -20064055.13047 -15596112.17647  21118076.7894   21118077.7544   21118077.289
        46.3004         43.3004
 -17417955.18647 -13394729.82746  21680230.7784   21680232.8774   21680231.719
        44.1004         41.2004
 -17955062.58147 -13934091.65847  20960530.8334   20960532.8354   20960531.270
        46.0004         42.8004
 14 10 27  0 17 30.0000000  0  8G27G19G24G15G22G18G21G14
 -10692105.76946  -8308952.64946  22760244.6354   22760249.6204   22760244.268
        41.8004         39.2004
  -9139562.93946  -7091266.52146  23158371.0464   23158374.3904   23158372.751
        40.3004         37.6004
 -12643435.92947  -9836219.90946  22459143.2644   22459147.9524   22459143.625
        42.7004         39.9004
  -2212989.68346  -1451336.91845  24838420.8044   24838424.3634   24838420.624
        36.8004         34.5004
 -22159926.31447 -17257249.08447  20683088.7934   20683088.8384   20683089.726
        47.9004         44.9004
 -20035407.25147 -15573789.12647  21123527.8534   21123529.4214   21123528.829
        46.3004         43.3004
 -17348089.26247 -13340288.86646  21693526.3004   21693528.7194   21693527.082
        44.1004         41.2004
 -18003929.43647 -13972169.64147  20951231.6244   20951233.7324   20951232.302
        46.0004         42.8004
 14 10 27  0 18  0.0000000  0  8G27G19G24G15G22G18G21G14
 -10644932.05746  -8272193.93746  22769220.6274   22769227.3604   22769220.640
        41.8004         39.2004
  -9144048.70246  -7094761.88646  23157517.8724   23157520.4784   23157519.298
        40.3004         37.6004
 -12625630.13647  -9822345.21846  22462531.7894   22462536.7294   22462531.748
        42.7004         39.9004
  -2108602.85746  -1369996.56945  24858284.6444   24858288.9324   24858286.228
        36.3004         34.1004
 -22183924.37747 -17275948.82847  20678522.1504   20678522.1454   20678523.054
        47.9004         44.9004
 -20006561.18047 -15551311.64547  21129017.7084   21129018.7264   21129018.221
        46.3004         43.3004
 -17277823.01147 -13285535.95846  21706897.8404   21706900.1474   21706898.168
        44.1004         41.2004
 -18052371.73247 -14009916.80047  20942013.3034   20942014.9784   20942014.048
        46.0004         43.0004
 14 10 27  0 18 30.0000000  0  8G27G19G24G15G22G18G21G14
 -10597301.67446  -8235079.37246  22778284.2924   22778291.2254   22778284.478
        41.8004         39.2004
  -9147962.11746  -7097811.26646  23156773.5744   23156775.6574   23156774.531
        40.3004         37.8004
 -12607238.88047  -9808014.30946  22466032.1804   22466036.7364   22466031.407
        42.5004         39.7004
  -2004215.59246  -1288655.80645  24878150.6214   24878151.9534   24878150.505
        36.1004         34.0004
 -22207710.50047 -17294483.42747  20673996.0554   20673995.5634   20673996.652
        47.9004         44.9004
 -19977516.04347 -15528679.04947  21134545.2244   21134546.0284   21134545.532
        46.3004         43.5004
 -17207157.36047 -13230471.82646  21720344.6194   21720347.1404   21720345.430
        44.1004         41.2004
 -18100389.33147 -14047333.03047  20932876.4724   20932877.2124   20932876.421
        46.0004         43.2004
 14 10 27  0 19  0.0000000  0  8G27G19G24G15G22G18G21G14
 -10549216.96147  -8197610.79246  22787435.2774   22787441.8754   22787435.248
        42.0004         39.3004
  -9151303.55446  -7100414.94246  23156137.7674   23156140.6744   23156137.812
        40.3004         37.8004
 -12588262.37647  -9793227.37746  22469642.9704   22469647.4424   22469642.327
        42.5004         39.9004
  -1899829.23446  -1207315.76645  24898012.8854   24898017.1144   24898013.759
        36.1004         34.1004
 -22231284.27047 -17312852.55647  20669510.0454   20669509.2074   20669510.930
        47.9004         44.9004
 -19948272.38547 -15505891.75847  21140109.4034   21140111.1074   21140110.242
        46.3004         43.3004
 -17136093.24647 -13175097.21246  21733868.0874   21733869.9364   21733868.087
        43.9004         41.1004
 -18147981.77447 -14084417.97547  20923819.2884   20923821.1134   20923819.805
        46.0004         43.2004
 14 10 27  0 19 30.0000000  0  8G27G19G24G15G22G18G21G14
 -10500680.30047  -8159790.04446  22796671.1504   22796678.0664   22796671.393
        42.0004         39.2004
  -9154073.42446  -7102573.25346  23155610.9264   23155614.0124   23155611.426
        40.4004         37.9004
 -12568700.99347  -9777984.68646  22473365.1444   22473369.9654   22473364.709
        42.5004         39.9004
  -1795445.60846  -1125977.85345  24917878.4504   24917880.7894   24917878.327
        36.3004         34.5004
 -22254645.26047 -17331055.88247  20665064.4784   20665064.1794   20665065.202
        47.9004         44.9004
 -19918829.83947 -15482949.48947  21145712.3974   21145713.0614   21145712.923
        46.3004         43.3004
 -17064632.35247 -13119413.41946  21747466.3164   21747468.5454   21747466.774
        43.9004         40.9004
 -18195148.83347 -14121171.44947  20914843.9204   20914845.8094   20914844.346
        46.2004         43.2004
 14 10 27  0 20  0.0000000  0  8G27G19G24G15G22G18G21G14
 -10451694.08546  -8121618.98246  22805992.9114   22805999.3664   22805993.105
        41.8004         39.2004
  -9156271.84246  -7104286.28146  23155192.5514   23155195.0834   23155193.127
        40.6004         38.1004
 -12548554.99147  -9762286.45846  22477198.5354   22477203.5524   22477198.643
        42.5004         39.5004
  -1691066.44945  -1044643.38045  24937738.1384   24937742.0594   24937740.325
        35.9004         34.0004
 -22277793.07347 -17349093.09747  20660659.0514   20660659.2564   20660660.133
        47.9004         44.7004
 -19889187.99047 -15459851.91747  21151353.1154   21151353.8854   21151353.682
        46.3004         43.2004
 -16992776.17647 -13063421.61446  21761140.1934   21761142.1784   21761140.632
        43.7004         40.7004
 -18241889.81747 -14157592.91847  20905948.9744   20905951.1494   20905949.711
        46.2004         43.3004
 14 10 27  0 20 30.0000000  0  8G27G19G24G15G22G18G21G14
 -10402260.67646  -8083099.46146  22815399.8144   22815405.6404   22815399.887
        41.8004         39.2004
  -9157899.24946  -7105554.35746  23154882.7434   23154885.0704   23154883.665
        40.9004         38.3004
 -12527825.16547  -9746133.29146  22481143.2864   22481148.9424   22481143.445
        42.3004         39.7004
  -1586693.32846   -963313.63445  24957601.8954   24957603.9404   24957601.609
        36.3004         34.6004
 -22300727.20147 -17366963.80247  20656294.9424   20656294.9744   20656295.848
        47.9004         44.9004
 -19859346.76447 -15436598.98547  21157031.2124   21157032.8944   21157031.963
        46.2004         43.3004
 -16920525.67647 -13007122.55046  21774889.2434   21774891.5324   21774889.580
        43.6004         40.6004
 -18288204.51547 -14193682.21747  20897136.0744   20897137.3944   20897136.423
        46.3004         43.3004
 14 10 27  0 21  0.0000000  0  8G27G19G24G15G22G18G21G14
 -10352382.52246  -8044233.38346  22824891.7124   22824897.8164   22824892.014
        41.8004         39.2004
  -9158956.26446  -7106377.97946  23154681.7144   23154684.1394   23154682.818
        40.9004         38.5004
 -12506511.98147  -9729525.57246  22485198.6674   22485203.2544   22485198.979
        42.3004         39.5004
  -1482328.22546   -881990.12145  24977462.6354   24977464.9174   24977461.385
        36.3004         34.3004
 -22323447.20747 -17384667.65747  20651971.1944   20651971.4964   20651972.499
        47.9004         44.9004
 -19829305.43347 -15413190.13147  21162747.8354   21162749.3104   21162748.489
        46.2004         43.2004
 -16847882.44447 -12950517.45146  21788712.3224   21788714.2934   21788713.289
        43.4004         40.6004
 -18334092.69447 -14229439.16147  20888403.2244   20888405.1514   20888403.960
        46.3004         43.3004
 14 10 27  0 21 30.0000000  0  8G27G19G24G15G22G18G21G14
 -10302062.06346  -8005022.66446  22834467.3514   22834472.6724   22834467.729
        41.8004         39.0004
  -9159443.11046  -7106757.30446  23154588.9854   23154591.8124   23154589.746
        41.1004         38.3004
 -12484615.55647  -9712463.38446  22489366.3064   22489370.5104   22489365.664
        42.2004         39.5004
  -1377971.94445   -800673.48045  24997320.7594   24997323.6764   24997319.941
        35.9004         34.0004
 -22345952.51047 -17402204.21847  20647688.9724   20647688.3954   20647689.665
        47.9004         44.9004
 -19799063.53747 -15389624.99447  21168502.6444   21168504.0344   21168503.146
        46.2004         43.2004
 -16774847.73447 -12893607.31546  21802610.6154   21802612.6474   21802611.181
        43.4004         40.6004
 -18379554.14347 -14264863.59447  20879752.6564   20879753.9704   20879752.731
        46.3004         43.5004
 14 10 27  0 22  0.0000000  0  8G27G19G24G15G22G18G21G14
 -10251301.71946  -7965469.16446  22844127.3354   22844132.9904   22844126.705
        41.8004         39.0004
  -9159360.59946  -7106692.97246  23154604.4404   23154608.0564   23154605.212
        41.1004         38.5004
 -12462137.28647  -9694947.81546  22493643.2454   22493647.6494   22493642.838
        42.2004         39.3004
  -1273626.51246   -719365.30645  25017175.0754   25017180.4994   25017176.140
        36.3004         34.5004
 -22368242.46347 -17419572.97147  20643447.1744   20643446.9444   20643448.120
        47.9004         44.9004
 -19768621.75047 -15365904.09947  21174295.5984   21174296.9674   21174295.824
        46.0004         43.0004
 -16701422.39647 -12836392.78746  21816583.0514   21816584.8034   21816583.336
        43.4004         40.4004
 -18424588.30347 -14299955.07647  20871182.7904   20871184.4604   20871183.200
        46.5004         43.5004
 14 10 27  0 22 30.0000000  0  8G27G19G24G15G22G18G21G14
 -10200103.95046  -7925574.81346  22853868.7994   22853876.0114   22853869.415
        41.8004         39.2004
  -9158709.08846  -7106185.26546  23154727.6864   23154731.4494   23154729.308
        40.9004         38.3004
 -12439077.04147  -9676978.74346  22498032.0044   22498035.7954   22498031.191
        42.0004         39.3004
  -1169293.69846   -638066.97045  25037031.2424   25037032.6864   25037029.681
        36.6004         34.5004
 -22390316.20947 -17436773.25147  20639246.6404   20639246.4164   20639247.432
        47.9004         44.9004
 -19737979.29647 -15342026.84347  21180126.6374   21180127.8524   21180127.363
        46.0004         43.2004
 -16627608.10247 -12778875.16246  21830629.0774   21830632.0134   21830629.626
        43.2004         40.4004
 -18469195.09347 -14334713.54047  20862694.0534   20862695.9774   20862694.685
        46.5004         43.5004
 14 10 27  0 23  0.0000000  0  8G27G19G24G15G22G18G21G14
 -10148471.26546  -7885341.57746  22863695.6134   22863701.8254   22863694.626
        41.8004         39.2004
  -9157488.56946  -7105234.19646  23154960.4214   23154963.4474   23154961.412
        40.8004         38.1004
 -12415435.07946  -9658556.37846  22502529.9584   22502535.8974   22502529.939
        41.8004         39.0004
  -1064974.66446   -556779.39245  25056882.6434   25056886.7184   25056881.505
        36.6004         34.6004
 -22412174.27247 -17453805.46647  20635087.0584   20635087.1064   20635088.051
        47.9004         44.9004
 -19707136.12447 -15317993.17847  21185995.6364   21185996.8934   21185996.403
        46.0004         43.0004
 -16553406.20247 -12721055.50546  21844748.3284   21844751.0964   21844749.455
        43.2004         40.4004
 -18513374.00947 -14369138.59947  20854287.0894   20854288.9784   20854287.713
        46.7004         43.7004
 14 10 27  0 23 30.0000000  0  8G27G19G24G15G22G18G21G14
 -10096406.13746  -7844771.37646  22873602.1054   22873608.5744   22873602.254
        41.8004         39.0004
  -9155700.12746  -7103840.58746  23155300.2174   23155303.0394   23155301.521
        40.8004         38.1004
 -12391212.76746  -9639681.79346  22507139.4804   22507144.2694   22507139.341
        41.8004         39.0004
   -960671.18246   -475503.89345  25076728.2814   25076732.5784   25076730.322
        36.4004         34.5004
 -22433815.70647 -17470668.88247  20630968.9634   20630968.6974   20630969.787
        47.9004         44.9004
 -19676091.81947 -15293802.78047  21191903.6884   21191904.3754   21191903.976
        46.0004         43.0004
 -16478818.27147 -12662935.05046  21858942.3074   21858945.5554   21858943.476
        43.0004         40.0004
 -18557124.93447 -14403230.15447  20845961.6954   20845962.8724   20845962.136
        46.7004         43.7004
 14 10 27  0 24  0.0000000  0  8G27G19G24G15G22G18G21G14
 -10043911.07746  -7803866.15846  22883591.2724   22883597.6334   22883591.505
        41.6004         39.0004
  -9153344.18646  -7102004.75246  23155748.6234   23155752.0184   23155749.876
        40.6004         38.1004
 -12366410.53246  -9620355.31546  22511859.6254   22511863.5614   22511859.009
        41.6004         39.2004
   -856384.86646   -394241.77345  25096575.6404   25096579.7324   25096574.810
        36.4004         34.6004
 -22455239.90347 -17487363.02147  20626892.0564   20626891.6204   20626892.757
        47.9004         44.9004
 -19644845.92647 -15269455.30747  21197849.3344   21197850.4724   21197849.748
        46.0004         43.0004
 -16403845.36347 -12604514.61746  21873210.1074   21873212.3954   21873210.700
        43.0004         40.0004
 -18600447.84747 -14436988.20247  20837717.4004   20837719.2624   20837718.014
        46.7004         43.7004
 14 10 27  0 24 30.0000000  0  8G27G19G24G15G22G18G21G14
  -9990988.60546  -7762627.88346  22893662.8474   22893669.5604   22893662.862
        41.6004         39.0004
  -9150421.46046  -7099727.27246  23156304.7644   23156306.9694   23156306.266
        40.6004         37.9004
 -12341028.89746  -9600577.36546  22516688.5954   22516694.0254   22516688.818
        41.8004         39.0004
   -752117.08446   -312994.14345  25116415.3064   25116419.7774   25116416.748
        36.4004         34.3004
 -22476446.50447 -17503887.60647  20622856.3524   20622856.0424   20622857.303
        47.9004         44.9004
 -19613398.50947 -15244950.80847  21203833.1444   21203834.5994   21203834.250
        46.0004         43.2004
 -16328488.99747 -12545795.38546  21887549.5734   21887551.9334   21887550.417
        42.9004         40.0004
 -18643342.17047 -14470412.28347  20829555.4514   20829556.5034   20829555.204
        46.7004         43.9004
 14 10 27  0 25  0.0000000  0  8G27G19G24G15G22G18G21G14
  -9937641.27246  -7721058.56446  22903814.1304   22903820.8314   22903814.435
        41.6004         39.0004
  -9146932.28346  -7097008.40646  23156968.1834   23156971.6344   23156970.042
        40.6004         37.9004
 -12315068.77746  -9580348.64046  22521629.9874   22521633.8134   22521629.013
        41.8004         39.2004
   -647869.71646   -231762.38145  25136253.6664   25136257.9584   25136253.982
        36.1004         34.1004
 -22497434.82647 -17520242.10247  20618862.6434   20618862.1014   20618863.259
        47.9004         44.9004
 -19581749.28047 -15220289.05347  21209856.5134   21209857.1574   21209856.936
        46.0004         43.2004
 -16252750.55947 -12486778.43346  21901962.2564   21901963.0584   21901962.946
        42.9004         40.0004
 -18685807.84447 -14503502.34547  20821474.0034   20821475.5874   20821474.160
        46.7004         43.9004
 14 10 27  0 25 30.0000000  0  8G27G19G24G15G22G18G21G14
  -9883871.60046  -7679160.15346  22914045.7004   22914052.6484   22914046.518
        41.5004         38.6004
  -9142877.53546  -7093848.84446  23157740.4774   23157742.8854   23157742.218
        40.6004         38.1004
 -12288530.40347  -9559669.35446  22526679.6464   22526684.0944   22526678.951
        42.0004         39.3004
   -543643.96346   -150547.42845  25156087.6454   25156091.0914   25156086.397
        36.1004         34.3004
 -22518204.45748 -17536426.18347  20614910.2074   20614909.7194   20614911.037
        48.1004         45.1004
 -19549897.81447 -15195469.72147  21215917.2844   21215918.5244   21215918.147
        46.2004         43.2004
 -16176631.52247 -12427464.91146  21916447.4974   21916448.6434   21916447.699
        42.7004         40.0004
 -18727844.44947 -14536258.07047  20813474.7844   20813475.8934   20813474.909
        46.7004         43.9004
 14 10 27  0 26  0.0000000  0  8G27G19G24G15G22G18G21G14
  -9829682.17446  -7636934.66146  22924358.5084   22924364.7634   22924357.908
        41.5004         38.8004
  -9138257.95746  -7090249.15146  23158619.7184   23158621.8974   23158620.819
        40.8004         38.1004
 -12261414.88447  -9538540.32646  22531839.7574   22531844.0994   22531839.442
        42.3004         39.5004
   -439441.33246    -69350.54545  25175916.4214   25175920.2884   25175916.323
        36.3004         34.3004
 -22538754.85848 -17552439.43447  20610999.7344   20610999.1784   20611000.698
        48.1004         45.1004
 -19517843.64747 -15170492.43247  21222016.9114   21222018.2604   21222017.838
        46.2004         43.3004
 -16100133.33047 -12367855.93046  21931003.7834   21931006.4884   21931004.478
        42.7004         39.9004
 -18769452.16747 -14568679.59847  20805557.0814   20805558.1664   20805557.408
        46.9004         43.9004
 14 10 27  0 26 30.0000000  0  8G27G19G24G15G22G18G21G14
  -9775075.54646  -7594384.08146  22934749.2554   22934755.2374   22934749.648
        41.5004         38.8004
  -9133074.04246  -7086209.71446  23159606.4864   23159609.0934   23159607.131
        40.9004         38.5004
 -12233723.00747  -9516962.20146  22537108.3464   22537113.7134   22537108.916
        42.3004         39.5004
   -335263.59746     11826.96645  25195741.0164   25195744.9864   25195740.951
        36.4004         34.3004
 -22559085.33848 -17568281.32547  20607130.8814   20607130.2364   20607131.641
        48.1004         45.2004
 -19485586.86447 -15145357.25747  21228155.4734   21228156.7034   21228156.041
        46.2004         43.2004
 -16023257.55147 -12307952.72546  21945632.3524   21945636.1804   21945633.735
        42.5004         39.7004
 -18810630.78647 -14600766.77447  20797720.9574   20797722.5804   20797721.493
        46.9004         43.9004
 14 10 27  0 27  0.0000000  0  8G27G19G24G15G22G18G21G14
  -9720054.30246  -7551510.42946  22945220.5054   22945226.6114   22945220.095
        41.5004         38.8004
  -9127326.75946  -7081731.29946  23160700.2514   23160703.0124   23160701.096
        41.1004         38.5004
 -12205455.41047  -9494935.46546  22542488.3464   22542492.9454   22542487.962
        42.2004         39.5004
   -231112.14346     92983.99545  25215559.0754   25215565.5224   25215559.786
        36.1004         34.1004
 -22579195.56548 -17583951.59447  20603304.0154   20603303.4624   20603304.963
        48.1004         45.2004
 -19453127.21947 -15120064.01347  21234331.8674   21234332.9304   21234332.747
        46.2004         43.2004
 -15946005.49047 -12247756.31446  21960334.0214   21960337.0164   21960334.535
        42.5004         39.7004
 -18851380.30447 -14632519.58547  20789966.2104   20789968.2074   20789966.737
        46.9004         43.9004
 14 10 27  0 27 30.0000000  0  8G27G19G24G15G22G18G21G14
  -9664621.05646  -7508315.72846  22955767.9894   22955775.2224   22955768.569
        41.5004         38.8004
  -9121016.65946  -7076814.30646  23161900.7974   23161903.2534   23161901.945
        41.3004         38.8004
 -12176613.17047  -9472460.95646  22547976.1404   22547980.8864   22547976.082
        42.0004         39.2004
   -126988.39446    174119.46245  25235374.9874   25235377.9324   25235374.059
        36.1004         34.5004
 -22599084.83348 -17599449.68347  20599519.0014   20599518.8284   20599519.997
        48.1004         45.1004
 -19420464.34947 -15094612.40947  21240548.0374   21240548.2674   21240548.411
        46.0004         43.2004
 -15868378.49847 -12187267.76146  21975106.0994   21975108.3684   21975106.602
        42.5004         39.9004
 -18891700.09847 -14663937.53447  20782293.5124   20782295.1844   20782293.909
        46.7004         43.7004
 14 10 27  0 28  0.0000000  0  8G27G19G24G15G22G18G21G14
  -9608778.43846  -7464802.02346  22966395.1904   22966401.4234   22966394.950
        41.5004         38.8004
  -9114144.38846  -7071459.26846  23163209.4624   23163210.8264   23163209.971
        41.5004         38.6004
 -12147196.39946  -9449538.75946  22553574.5864   22553578.2194   22553573.948
        41.8004         39.0004
    -22893.75946    255232.20945  25255182.0034   25255184.8504   25255182.227
        36.3004         34.5004
 -22618752.92548 -17614775.42747  20595776.3784   20595775.8724   20595777.229
        48.1004         45.2004
 -19387597.62147 -15069001.94447  21246802.0014   21246803.2644   21246802.730
        46.0004         43.0004
 -15790378.55747 -12126488.59346  21989948.3374   21989950.3884   21989949.217
        42.5004         39.5004
 -18931590.49847 -14695020.88847  20774702.6284   20774703.6904   20774702.973
        46.7004         43.7004
 14 10 27  0 28 30.0000000  0  8G27G19G24G15G22G18G21G14
  -9552529.03446  -7420971.35946  22977099.6284   22977105.6354   22977099.190
        41.5004         38.8004
  -9106710.78046  -7065666.82446  23164624.1054   23164626.4754   23164624.206
        41.3004         38.6004
 -12117206.69246  -9426170.11546  22559280.9264   22559285.0474   22559280.498
        41.8004         39.0004
     81170.18846    336321.09945  25274984.9244   25274985.8344   25274983.801
        36.1004         34.1004
 -22638199.01848 -17629928.18647  20592075.9904   20592075.4364   20592076.579
        48.2004         45.2004
 -19354526.96447 -15043232.57847  21253095.5654   21253096.0854   21253095.816
        46.0004         43.0004
 -15712006.78647 -12065419.69746  22004862.5194   22004864.0244   22004862.772
        42.5004         39.7004
 -18971051.29147 -14725769.48747  20767193.3904   20767194.7844   20767193.890
        46.7004         43.7004
 14 10 27  0 29  0.0000000  0  8G27G19G24G15G22G18G21G14
  -9495875.56646  -7376825.82346  22987879.9344   22987886.2874   22987880.008
        41.5004         38.6004
  -9098716.73346  -7059437.68246  23166144.1634   23166146.0044   23166144.855
        41.1004         38.5004
 -12086645.02246  -9402355.78246  22565096.7634   22565100.7084   22565096.465
        41.8004         39.0004
    185201.72246    417384.73645  25294781.6244   25294786.3874   25294780.568
        36.1004         34.3004
 -22657422.83148 -17644907.73847  20588417.8304   20588417.0984   20588418.710
        48.2004         45.2004
 -19321252.30647 -15017304.24647  21259427.4494   21259428.0834   21259427.758
        46.0004         43.0004
 -15633264.73447 -12004062.28146  22019846.5984   22019847.5984   22019847.047
        42.3004         39.7004
 -19010082.11647 -14756183.04547  20759766.2314   20759767.7084   20759766.632
        46.7004         43.9004
 14 10 27  0 29 30.0000000  0  8G27G19G24G15G22G18G21G14
  -9438820.59946  -7332367.43746  22998737.7574   22998743.4944   22998736.988
        41.5004         38.6004
  -9090162.72146  -7052772.18146  23167772.0364   23167775.5244   23167772.975
        41.1004         38.5004
 -12055511.84446  -9378096.12646  22571021.2384   22571025.1244   22571020.449
        41.8004         39.2004
    289199.86446    498422.30745  25314572.7004   25314575.6284   25314572.126
        36.3004         34.6004
 -22676423.81248 -17659713.65347  20584802.0114   20584801.3394   20584802.772
        48.2004         45.2004
 -19287773.23047 -14991216.63047  21265798.3624   21265798.7484   21265798.586
        46.0004         43.0004
 -15554154.04547 -11942417.61346  22034900.7844   22034903.5594   22034901.332
        42.3004         39.5004
 -19048683.16347 -14786261.70947  20752420.8334   20752422.0714   20752421.087
        46.7004         43.9004
 14 10 27  0 30  0.0000000  0  8G27G19G24G15G22G18G21G14
  -9381366.83746  -7287598.30046  23009669.5464   23009676.9454   23009670.045
        41.5004         38.8004
  -9081050.21546  -7045671.51046  23169505.6994   23169509.1454   23169507.095
        40.9004         38.5004
 -12023808.02647  -9353391.82646  22577054.1544   22577058.4554   22577053.859
        42.0004         39.3004
    393163.27346    579432.85045  25334355.7434   25334356.5084   25334355.646
        36.3004         34.0004
 -22695201.15848 -17674345.31647  20581228.6244   20581228.0874   20581229.533
        48.2004         45.2004
 -19254089.48847 -14964969.53647  21272208.0374   21272208.9724   21272208.418
        46.0004         43.2004
 -15474676.00847 -11880486.71246  22050024.9754   22050027.8414   22050025.433
        42.2004         39.5004
 -19086854.21547 -14816005.32347  20745156.9304   20745158.2984   20745157.220
        46.7004         43.7004
 14 10 27  0 30 30.0000000  0  8G27G19G24G15G22G18G21G14
  -9323516.95146  -7242520.49946  23020678.6924   23020684.9584   23020678.443
        41.3004         38.6004
  -9071379.97946  -7038136.24846  23171345.5844   23171347.9394   23171346.918
        40.9004         38.3004
 -11991534.70647  -9328243.74846  22583196.4224   22583200.0404   22583195.631
        42.2004         39.7004
    497090.17245    660414.92045  25354133.5414   25354135.3724   25354131.319
        35.9004         34.1004
 -22713754.28148 -17688802.25547  20577698.0034   20577697.5254   20577698.861
        48.2004         45.2004
 -19220200.78947 -14938562.73847  21278657.1074   21278657.5854   21278657.227
        46.0004         43.0004
 -15394832.29247 -11818270.84146  22065218.0484   22065221.2374   22065219.304
        42.2004         39.3004
 -19124595.14647 -14845413.77347  20737974.6634   20737976.1274   20737975.211
        46.7004         43.7004
 14 10 27  0 31  0.0000000  0  8G27G19G24G15G22G18G21G14
  -9265273.62646  -7197136.11446  23031761.1444   23031768.2054   23031761.472
        41.3004         38.5004
  -9061152.91846  -7030167.07546  23173292.7904   23173294.2974   23173293.317
        40.9004         38.3004
 -11958693.28247  -9302652.99546  22589445.3324   22589449.2904   22589445.138
        42.3004         39.9004
    600978.99946    741367.29445  25373901.0144   25373903.8014   25373901.568
        36.1004         34.3004
 -22732082.95248 -17703084.29747  20574210.0464   20574209.7264   20574211.186
        48.2004         45.2004
 -19186106.20747 -14911995.50747  21285144.5894   21285145.2884   21285145.093
        45.8004         42.8004
 -15314624.41547 -11755771.20746  22080481.2824   22080484.9384   22080482.196
        42.2004         39.5004
 -19161905.97247 -14874487.07447  20730875.0074   20730876.0404   20730875.118
        46.7004         43.7004
 14 10 27  0 31 30.0000000  0  8G27G19G24G15G22G18G21G14
  -9206639.56146  -7151447.26946  23042919.7484   23042925.5804   23042919.344
        41.1004         38.3004
  -9050369.69246  -7021764.55146  23175344.5544   23175347.2824   23175345.612
        40.9004         38.5004
 -11925283.92147  -9276619.67946  22595803.0084   22595806.5994   22595802.392
        42.5004         39.9004
    704828.62945    822289.19445  25393664.5914   25393667.4864   25393663.869
        35.2004         33.6004
 -22750186.32048 -17717190.78047  20570764.8884   20570764.4544   20570765.847
        48.2004         45.2004
 -19151806.32447 -14885268.29647  21291671.2824   21291672.3894   21291672.023
        45.8004         42.8004
 -15234054.24347 -11692989.25046  22095814.5494   22095816.6844   22095814.104
        42.0004         39.2004
 -19198787.00547 -14903225.47647  20723856.3094   20723857.9724   20723856.960
        46.7004         43.7004
 14 10 27  0 32  0.0000000  0  8G27G19G24G15G22G18G21G14
  -9147617.48846  -7105456.06746  23054150.1424   23054156.9554   23054151.220
        41.1004         38.5004
  -9039031.32546  -7012929.43546  23177502.4764   23177504.0144   23177503.485
        40.9004         38.3004
 -11891308.00047  -9250144.89046  22602267.6824   22602272.3614   22602267.695
        42.7004         39.9004
    808637.46245    903179.31045  25413414.7274   25413416.6774   25413418.217
        35.0004         33.3004
 -22768063.96648 -17731121.37347  20567362.8734   20567362.5744   20567364.030
        48.2004         45.2004
 -19117300.77747 -14858380.82847  21298237.9284   21298238.2994   21298238.434
        45.8004         42.8004
 -15153123.29547 -11629926.17446  22111214.5064   22111216.7824   22111215.082
        42.0004         39.3004
 -19235237.94447 -14931628.74547  20716920.1984   20716921.5544   20716920.463
        46.7004         43.7004
 14 10 27  0 32 30.0000000  0  8G27G19G24G15G22G18G21G14
  -9088210.12746  -7059164.64046  23065455.3224   23065462.0784   23065455.610
        40.9004         38.1004
  -9027138.89646  -7003662.58646  23179765.7404   23179768.3064   23179766.331
        40.9004         38.3004
 -11856766.44647  -9223229.34946  22608841.2944   22608846.1754   22608840.675
        42.7004         40.0004
    912404.20445    984036.59445  25433164.6954   25433170.1144   25433162.937
        34.7004         33.1004
 -22785715.23748 -17744875.57147  20564004.2384   20564003.5244   20564004.957
        48.2004         45.2004
 -19082589.18447 -14831332.80947  21304843.3304   21304844.0854   21304843.645
        45.8004         42.8004
 -15071833.28947 -11566583.32446  22126682.9834   22126684.9734   22126684.016
        42.0004         39.3004
 -19271258.71847 -14959696.82347  20710065.3804   20710066.9954   20710065.906
        46.7004         43.9004
 14 10 27  0 33  0.0000000  0  8G27G19G24G15G22G18G21G14
  -9028420.22446  -7012575.11946  23076833.8544   23076839.8904   23076833.167
        40.9004         38.3004
  -9014693.34846  -6993964.74346  23182133.3014   23182134.7604   23182134.491
        40.9004         38.5004
 -11821661.07047  -9195874.47446  22615521.5394   22615525.5324   22615521.106
        42.7004         40.0004
   1016127.67445   1064860.14645  25452901.4704   25452903.8674   25452901.923
        35.0004         33.8004
 -22803139.51448 -17758452.88747  20560688.3404   20560687.9304   20560689.408
        48.2004         45.2004
 -19047671.06647 -14804123.86147  21311487.5274   21311488.5234   21311488.134
        45.6004         42.6004
 -14990185.54647 -11502961.69746  22142220.0784   22142223.3624   22142221.101
        42.0004         39.2004
 -19306849.58747 -14987429.90847  20703292.7464   20703294.2204   20703293.175
        46.9004         43.9004
 14 10 27  0 33 30.0000000  0  7G27G19G24G22G18G21G14
  -8968250.52646  -6965689.65146  23088284.0604   23088290.0774   23088283.458
        40.9004         38.5004
  -9001695.94246  -6983836.87046  23184606.9804   23184608.9284   23184608.360
        41.1004         38.6004
 -11785992.26847  -9168080.55246  22622309.2004   22622313.4234   22622308.976
        42.7004         39.9004
 -22820336.56948 -17771853.15047  20557415.9844   20557415.3794   20557416.782
        48.2004         45.2004
 -19012546.58247 -14776754.11547  21318171.3114   21318172.5224   21318171.894
        45.6004         42.6004
 -14908181.81246 -11439062.68246  22157825.4364   22157828.3604   22157825.813
        41.8004         39.2004
 -19342010.45047 -15014827.92247  20696601.8404   20696603.4494   20696602.347
        46.9004         44.0004
 14 10 27  0 34  0.0000000  0  7G27G19G24G22G18G21G14
  -8907703.74646  -6918510.36646  23099805.7424   23099811.2484   23099804.968
        41.1004         38.5004
  -8988147.43246  -6973279.58946  23187185.0744   23187186.3524   23187186.061
        41.1004         38.5004
 -11749761.21847  -9139848.52646  22629203.3574   22629207.7264   22629203.231
        42.5004         39.7004
 -22837305.72148 -17785075.82147  20554186.9134   20554186.0164   20554187.905
        48.4004         45.4004
 -18977214.48447 -14749222.58647  21324895.2504   21324895.8984   21324895.527
        45.6004         42.6004
 -14825823.65246 -11374887.49646  22173497.4344   22173500.3474   22173498.107
        41.8004         39.0004
 -19376741.27947 -15041890.84447  20689993.0044   20689993.9034   20689993.232
        46.9004         44.0004
 14 10 27  0 34 30.0000000  0  7G27G19G24G22G18G21G14
  -8846782.73746  -6871039.46446  23111397.7644   23111405.3084   23111397.813
        41.1004         38.5004
  -8974048.93646  -6962293.72246  23189868.0504   23189870.7304   23189868.862
        41.3004         38.6004
 -11712969.10347  -9111179.30446  22636204.3304   22636208.9564   22636204.234
        42.3004         39.3004
 -22854046.22248 -17798120.31847  20551001.1024   20551000.3384   20551002.077
        48.4004         45.4004
 -18941675.43447 -14721529.78647  21331658.0044   21331658.7694   21331658.711
        45.6004         42.6004
 -14743112.99146 -11310437.63846  22189236.4144   22189238.8654   22189237.562
        41.6004         38.8004
 -19411042.21447 -15068618.78447  20683466.0604   20683466.9404   20683465.963
        47.0004         44.2004
 14 10 27  0 35  0.0000000  0  7G27G19G24G22G18G21G14
  -8785490.18546  -6823279.05146  23123060.9264   23123068.7524   23123061.059
        41.1004         38.5004
  -8959401.63846  -6950880.23946  23192655.1534   23192657.7334   23192655.416
        41.3004         38.8004
 -11675616.94147  -9082073.68846  22643312.8034   22643316.7354   22643312.080
        42.2004         39.3004
 -22870557.42548 -17810986.14047  20547859.0734   20547858.5684   20547860.057
        48.2004         45.2004
 -18905928.81147 -14693675.24447  21338460.3344   21338460.9764   21338460.848
        45.5004         42.6004
 -14660051.36246 -11245714.29846  22205043.2234   22205044.9444   22205044.079
        41.6004         38.8004
 -19444913.61247 -15095012.02147  20677019.9774   20677021.6654   20677020.402
        47.0004         44.2004
 14 10 27  0 35 30.0000000  0  8G11G27G19G24G22G18G21G14
   -296500.92844   -208661.35645      -139.940        -143.433    24911931.620
        26.4004         30.0004
  -8723828.94846  -6775231.35946  23134795.5844   23134801.8114   23134795.378
        41.1004         38.6004
  -8944206.51546  -6939039.87946  23195546.2084   23195549.6724   23195547.513
        41.3004         38.8004
 -11637706.39547  -9052532.95646  22650526.4904   22650530.8994   22650526.234
        42.0004         39.3004
 -22886839.05948 -17823673.08347  20544760.7224   20544760.1764   20544761.674
        48.2004         45.2004
 -18869974.25947 -14665658.68147  21345302.1654   21345303.0544   21345302.523
        45.5004         42.6004
 -14576640.39146 -11180718.74746  22220914.8614   22220917.5804   22220916.523
        41.5004         39.2004
 -19478355.21247 -15121070.35247  20670656.1324   20670657.2554   20670656.572
        47.0004         44.0004
 14 10 27  0 36  0.0000000  0  8G11G27G19G24G22G18G21G14
    -67643.00944    -21925.839        -139.940    24896873.471        -139.940
        26.4004          1.500
  -8661801.79546  -6726898.54746  23146598.9304   23146605.4244   23146599.083
        41.3004         38.8004
  -8928464.95946  -6926773.71946  23198541.6254   23198545.4114   23198542.975
        41.3004         38.3004
 -11599237.96847  -9022557.52446  22657847.9324   22657851.1894   22657847.003
        42.2004         39.7004
 -22902890.18448 -17836180.40847  20541706.3354   20541705.7294   20541707.118
        48.2004         45.2004
 -18833811.65547 -14637480.00847  21352183.6974   21352184.8804   21352184.091
        45.5004         42.6004
 -14492881.84446 -11115452.35546  22236855.1584   22236857.0094   22236855.092
        41.6004         39.0004
 -19511367.28847 -15146793.98447  20664374.1344   20664375.1564   20664374.484
        47.0004         44.0004
 14 10 27  0 36 30.0000000  0  8G11G27G19G24G22G18G21G14
   -166740.13144    -21925.839        -139.940    24896873.471        -139.940
        26.4004          1.500
  -8599411.58146  -6678282.82046  23158471.6964   23158478.8614   23158471.714
        41.3004         38.6004
  -8912177.89746  -6914082.49346  23201641.6544   23201643.7854   23201642.232
        41.1004         38.5004
 -11560213.34847  -8992148.69446  22665273.2204   22665277.7864   22665273.102
        42.3004         39.5004
 -22918710.33048 -17848507.74847  20538696.1004   20538695.3784   20538696.651
        48.2004         45.2004
 -18797440.56047 -14609138.86547  21359104.6334   21359106.0034   21359105.259
        45.5004         42.5004
 -14408777.63146 -11049916.60346  22252858.2674   22252860.7114   22252859.494
        41.5004         38.6004
 -19543949.91947 -15172182.97847  20658173.9374   20658175.1464   20658174.218
        47.0004         44.0004
 14 10 27  0 37  0.0000000  0  8G11G27G19G24G22G18G21G14
   -265588.87244    -21925.839        -139.940    24896873.471        -139.940
        26.4004          1.500
  -8536661.11446  -6629386.36446  23170412.7944   23170418.9434   23170412.541
        41.1004         38.3004
  -8895346.77146  -6900967.31946  23204844.6784   23204847.3694   23204845.706
        41.1004         38.5004
 -11520633.59347  -8961307.28646  22672805.2314   22672808.8444   22672804.651
        42.3004         39.5004
 -22934299.06548 -17860654.76747  20535729.3684   20535728.8024   20535730.424
        48.2004         45.2004
 -18760860.74247 -14580635.08347  21366066.0054   21366066.8494   21366066.345
        45.5004         42.6004
 -14324329.29946 -10984112.72146  22268928.8344   22268931.0014   22268929.344
        41.5004         38.6004
 -19576103.20047 -15197237.41847  20652055.0434   20652056.1984   20652055.670
        47.0004         44.2004
 14 10 27  0 37 30.0000000  0  7G27G19G24G22G18G21G14
  -8473553.17946  -6580211.37846  23182421.7414   23182427.8004   23182421.063
        41.1004         38.3004
  -8877972.63846  -6887429.01646  23208150.2134   23208153.1394   23208151.882
        41.1004         38.5004
 -11480500.29547  -8930034.55046  22680442.4554   22680446.2174   22680441.377
        42.3004         39.3004
 -22949655.77648 -17872620.99347  20532806.9214   20532806.2814   20532807.826
        48.2004         45.2004
 -18724071.53547 -14551968.14947  21373066.4264   21373067.5124   21373067.215
        45.5004         42.5004
 -14239538.42046 -10918041.91546  22285064.7174   22285065.2114   22285064.543
        41.3004         38.6004
 -19607827.36947 -15221957.49347  20646017.9924   20646019.8204   20646018.764
        47.0004         44.2004
 14 10 27  0 38  0.0000000  0  7G27G19G24G22G18G21G14
  -8410090.66146  -6530760.08446  23194497.2564   23194504.5284   23194497.571
        40.8004         38.1004
  -8860056.84346  -6873468.64146  23211559.5714   23211561.6254   23211561.262
        40.9004         38.5004
 -11439814.47447  -8898331.27846  22688183.9634   22688189.1084   22688183.418
        42.2004         39.3004
 -22964779.74248 -17884405.85447  20529929.0024   20529928.4694   20529929.895
        48.4004         45.4004
 -18687073.04147 -14523138.12147  21380107.0874   21380108.1884   21380107.532
        45.5004         42.5004
 -14154406.77546 -10851705.58946  22301263.3204   22301265.5374   22301264.662
        41.3004         38.5004
 -19639122.46247 -15246343.21647  20640063.0944   20640063.8384   20640063.230
        47.0004         44.2004
 14 10 27  0 38 30.0000000  0  7G27G19G24G22G18G21G14
  -8346276.37946  -6481034.69346  23206640.6124   23206647.1514   23206641.017
        40.8004         38.1004
  -8841600.48046  -6859087.03046  23215071.6964   23215074.0884   23215072.884
        40.9004         38.3004
 -11398577.46247  -8866198.49046  22696031.0514   22696036.4104   22696030.584
        42.0004         39.3004
 -22979670.27948 -17896008.82547  20527095.4194   20527094.9094   20527096.114
        48.2004         45.2004
 -18649865.29547 -14494145.04447  21387187.1124   21387187.8724   21387187.752
        45.5004         42.5004
 -14068936.22446 -10785105.17446  22317527.8634   22317530.5764   22317528.922
        41.3004         38.3004
 -19669988.76247 -15270394.81547  20634189.0944   20634190.0724   20634189.691
        47.0004         44.2004
 14 10 27  0 39  0.0000000  0  7G27G19G24G22G18G21G14
  -8282113.22946  -6431037.46046  23218850.7864   23218857.7414   23218851.247
        40.8004         38.1004
  -8822604.89446  -6844285.25846  23218685.9834   23218687.8644   23218686.652
        40.9004         38.3004
 -11356790.79047  -8833637.40846  22703983.4544   22703987.3334   22703982.624
        42.0004         39.3004
 -22994326.91948 -17907429.53747  20524306.2524   20524305.5084   20524307.171
        48.2004         45.2004
 -18612447.39847 -14464988.21547  21394307.7274   21394308.3814   21394308.103
        45.3004         42.3004
 -13983128.38446 -10718241.93346  22333857.2974   22333859.4444   22333857.722
        41.3004         38.6004
 -19700426.39247 -15294112.37347  20628396.9524   20628398.2734   20628397.506
        47.0004         44.2004
 14 10 27  0 39 30.0000000  0  7G27G19G24G22G18G21G14
  -8217604.05546  -6380770.60746  23231126.2754   23231133.2314   23231127.060
        40.8004         37.9004
  -8803071.16346  -6829064.14646  23222403.9464   23222405.3504   23222403.987
        41.1004         38.3004
 -11314455.38346  -8800648.71346  22712039.0894   22712044.3054   22712038.463
        41.8004         39.2004
 -23008749.09748 -17918667.55247  20521561.8054   20521560.7654   20521562.589
        48.2004         45.2004
 -18574819.51747 -14435667.76047  21401468.2154   21401468.8064   21401468.728
        45.3004         42.3004
 -13896985.11346 -10651117.31646  22350250.2134   22350252.6074   22350250.096
        41.1004         38.5004
 -19730435.51347 -15317496.03547  20622686.5784   20622687.2654   20622686.842
        47.0004         44.2004
 14 10 27  0 40  0.0000000  0  7G27G19G24G22G18G21G14
  -8152751.73046  -6330236.36446  23243468.9884   23243474.6694   23243467.928
        40.6004         37.8004
  -8783000.94746  -6813425.00746  23226223.0744   23226224.9104   23226223.746
        40.9004         38.5004
 -11271572.55846  -8767233.49346  22720199.0094   22720203.0084   22720198.950
        41.8004         39.0004
 -23022935.95748 -17929722.20347  20518862.2234   20518861.3144   20518862.998
        48.2004         45.4004
 -18536981.26847 -14406183.38647  21408668.0574   21408669.1474   21408668.977
        45.3004         42.3004
 -13810508.22146 -10583732.72346  22366704.9784   22366707.6104   22366706.164
        41.1004         38.3004
 -19760016.70547 -15340546.26447  20617057.3594   20617058.3324   20617057.767
        47.2004         44.2004
 14 10 27  0 40 30.0000000  0  7G27G19G24G22G18G21G14
  -8087559.13946  -6279436.97946  23255873.9004   23255879.4844   23255873.789
        40.4004         37.6004
  -8762395.52046  -6797368.81146  23230144.4804   23230145.8614   23230145.072
        40.9004         38.3004
 -11228143.92646  -8733392.95646  22728463.3464   22728468.3684   22728463.053
        41.6004         38.8004
 -23036887.18148 -17940593.23847  20516207.3924   20516206.4814   20516208.219
        48.2004         45.2004
 -18498931.70547 -14376534.34647  21415908.8574   21415910.0304   21415909.668
        45.3004         42.3004
 -13723699.72446 -10516089.74446  22383224.8434   22383227.4364   22383225.361
        40.9004         38.3004
 -19789169.72047 -15363262.84847  20611509.4664   20611510.7414   20611510.075
        47.2004         44.4004
 14 10 27  0 41  0.0000000  0  7G27G19G24G22G18G21G14
  -8022029.20046  -6228374.72846  23268343.4134   23268349.3014   23268343.561
        40.1004         37.4004
  -8741256.27346  -6780896.66346  23234167.4044   23234168.1854   23234167.915
        40.9004         38.3004
 -11184171.22746  -8699128.48646  22736831.2724   22736835.3254   22736830.459
        41.5004         38.6004
 -23050602.09748 -17951280.13947  20513597.2094   20513596.6414   20513598.359
        48.4004         45.4004
 -18460671.21447 -14346720.94147  21423189.6044   21423190.2674   21423190.397
        45.3004         42.5004
 -13636561.31546 -10448189.70146  22399807.1734   22399809.0714   22399807.602
        40.8004         38.1004
 -19817894.75947 -15385645.93747  20606043.3984   20606044.4064   20606043.801
        47.2004         44.2004
 14 10 27  0 41 30.0000000  0  7G27G19G24G22G18G21G14
  -7956164.79746  -6177051.85746  23280876.6074   23280883.2424   23280876.703
        39.9004         37.1004
  -8719584.77046  -6764009.75746  23238290.6624   23238292.1994   23238292.495
        40.9004         38.3004
 -11139655.64946  -8664440.99546  22745301.7974   22745305.5154   22745301.875
        41.5004         38.6004
 -23064080.03148 -17961782.37847  20511032.3714   20511031.5964   20511033.492
        48.2004         45.2004
 -18422199.21547 -14316742.72247  21430510.2864   21430511.7424   21430511.172
        45.3004         42.3004
 -13549094.69846 -10380033.89846  22416452.2154   22416453.0414   22416452.001
        40.8004         38.1004
 -19846192.45947 -15407696.03647  20600658.6144   20600659.7534   20600659.015
        47.2004         44.4004
 14 10 27  0 42  0.0000000  0  7G27G19G24G22G18G21G14
  -7889968.83146  -6125470.60446  23293472.0574   23293479.3894   23293473.620
        39.7004         37.3004
  -8697382.37946  -6746709.18446  23242516.0364   23242518.1164   23242517.007
        40.9004         38.5004
 -11094598.83246  -8629331.75546  22753876.5144   22753880.7194   22753875.962
        41.3004         38.6004
 -23077320.49748 -17972099.58947  20508513.0744   20508512.1194   20508513.744
        48.4004         45.4004
 -18383515.63547 -14286599.65047  21437872.1614   21437872.4714   21437872.530
        45.3004         42.1004
 -13461301.95746 -10311623.97946  22433157.7294   22433158.0784   22433158.332
        40.6004         38.3004
 -19874062.86547 -15429413.18147  20595355.1404   20595355.8484   20595355.450
        47.2004         44.4004
 14 10 27  0 42 30.0000000  0  7G27G19G24G22G18G21G14
  -7823444.24146  -6073633.30446  23306132.6344   23306139.7034   23306132.966
        39.9004         37.4004
  -8674650.14446  -6728995.74346  23246841.8834   23246843.9034   23246842.536
        40.9004         38.3004
 -11049002.05746  -8593801.77146  22762553.0934   22762557.4464   22762552.476
        41.3004         38.8004
 -23090322.77148 -17982231.19147  20506038.5304   20506037.8424   20506039.532
        48.4004         45.4004
 -18344619.92847 -14256291.28147  21445273.1374   21445274.0254   21445274.037
        45.3004         42.1004
 -13373184.48146 -10242961.02646  22449926.0744   22449927.4874   22449926.344
        40.6004         37.9004
 -19901506.21047 -15450797.54747  20590132.5274   20590133.5064   20590132.934
        47.4004         44.4004
 14 10 27  0 43  0.0000000  0  7G27G19G24G22G18G21G14
  -7756593.92546  -6021542.18146  23318854.9564   23318860.6034   23318854.229
        39.9004         37.4004
  -8651389.69946  -6710870.71446  23251266.8764   23251269.7724   23251268.381
        40.9004         38.3004
 -11002866.56846  -8557852.01846  22771332.4904   22771336.5984   22771331.772
        41.3004         38.5004
 -23103085.88148 -17992176.43147  20503609.9644   20503608.9504   20503610.720
        48.4004         45.4004
 -18305512.00447 -14225817.54947  21452714.9184   21452716.4444   21452715.613
        45.1004         42.1004
 -13284744.46346 -10174046.73846  22466755.2914   22466758.0744   22466756.132
        40.4004         37.8004
 -19928523.22647 -15471849.70347  20584991.3564   20584992.2514   20584991.883
        47.4004         44.4004
 14 10 27  0 43 30.0000000  0  7G27G19G24G22G18G21G14
  -7689420.83946  -5969199.54446  23331636.8984   23331643.3604   23331637.486
        40.1004         37.6004
  -8627602.65846  -6692335.34546  23255793.8564   23255796.7254   23255794.439
        41.1004         38.5004
 -10956194.15646  -8521483.87246  22780213.8754   22780218.0304   22780213.033
        41.1004         38.3004
 -23115609.69748 -18001935.21247  20501226.5904   20501225.9454   20501227.496
        48.4004         45.6004
 -18266191.58747 -14195178.23747  21460197.2044   21460198.8844   21460197.964
        45.1004         42.1004
 -13195983.77846 -10104882.57046  22483646.1324   22483647.0834   22483646.490
        40.4004         37.8004
 -19955114.02147 -15492569.74747  20579931.4314   20579931.9164   20579931.648
        47.4004         44.4004
 14 10 27  0 44  0.0000000  0  8G11G27G19G24G22G18G21G14
    -59764.43944    -23479.425        -139.940    24600353.948        -139.940
        26.4004          1.500
  -7621927.93346  -5916607.71446  23344481.0564   23344487.9574   23344481.146
        40.3004         37.8004
  -8603290.60346  -6673390.88846  23260420.3714   23260423.0944   23260420.625
        41.1004         38.5004
 -10908986.29046  -8484698.49146  22789196.9824   22789200.9144   22789196.321
        40.9004         38.5004
 -23127893.42848 -18011506.91447  20498889.0404   20498888.2634   20498889.977
        48.6004         45.4004
 -18226658.25447 -14164373.02147  21467719.9504   21467722.1814   21467721.245
        45.1004         42.3004
 -13106904.21746 -10035469.92246  22500596.0894   22500600.4634   22500597.743
        40.3004         37.4004
 -19981278.70947 -15512957.75847  20574952.4904   20574953.2304   20574952.712
        47.4004         44.4004
 14 10 27  0 44 30.0000000  0  8G11G27G19G24G22G18G21G14
   -154569.79044   -107231.028 2      -139.940    24579821.154        -139.940
        26.4004         16.400
  -7554118.12846  -5863768.94846  23357384.0484   23357391.7184   23357384.232
        40.3004         37.4004
  -8578454.73346  -6654038.25646  23265146.7344   23265148.9244   23265147.817
        41.1004         38.5004
 -10861244.43846  -8447497.02346  22798282.0834   22798286.2454   22798281.359
        40.9004         38.3004
 -23139936.46848 -18020891.05947  20496597.2254   20496596.5104   20496598.188
        48.6004         45.6004
 -18186911.65847 -14133401.62247  21475283.9994   21475285.1604   21475284.582
        45.1004         42.3004
 -13017507.85146  -9965810.39646  22517608.2384   22517610.7614   22517608.890
        40.1004         37.6004
 -20007017.63247 -15533014.00647  20570054.3424   20570055.3324   20570054.594
        47.4004         44.5004
 14 10 27  0 45  0.0000000  0  8G11G27G19G24G22G18G21G14
   -249084.26744   -179663.669 2      -139.940    24562097.534        -139.940
        26.4004         14.700
  -7485994.42246  -5810685.58546  23370348.0204   23370354.8384   23370347.737
        40.1004         37.6004
  -8553096.84146  -6634278.85346  23269971.9724   23269974.3754   23269973.127
        41.3004         38.5004
 -10812970.29046  -8409880.77846  22807468.2934   22807472.0054   22807467.300
        40.9004         38.5004
 -23151738.07848 -18030087.08447  20494351.3264   20494350.6494   20494352.337
        48.6004         45.6004
 -18146951.71047 -14102263.97647  21482888.2124   21482889.0834   21482888.923
        45.3004         42.3004
 -12927796.43446  -9895905.40446  22534679.6604   22534682.7744   22534680.504
        39.7004         37.4004
 -20032331.35647 -15552738.92647  20565237.4254   20565237.8834   20565237.599
        47.4004         44.5004
 14 10 27  0 45 30.0000000  0  7G27G19G24G22G18G21G14
  -7417559.71146  -5757359.87046  23383370.5304   23383376.3894   23383370.831
        40.1004         37.6004
  -8527218.53846  -6614113.92746  23274896.8234   23274899.4634   23274897.680
        41.3004         38.6004
 -10764165.06546  -8371850.70446  22816755.5884   22816760.4024   22816755.068
        41.1004         38.6004
 -23163297.67148 -18039094.51447  20492151.6484   20492150.9114   20492152.660
        48.6004         45.6004
 -18106778.11447 -14070959.85147  21490533.2784   21490533.8724   21490534.231
        45.3004         42.5004
 -12837771.69246  -9825756.25046  22551810.9604   22551813.6204   22551811.534
        39.7004         37.3004
 -20057220.02947 -15572132.64447  20560501.2504   20560501.8774   20560501.394
        47.4004         44.5004
 14 10 27  0 46  0.0000000  0  7G27G19G24G22G18G21G14
  -7348817.04246  -5703794.18446  23396451.5344   23396459.2094   23396451.773
        40.1004         37.4004
  -8500821.29946  -6593544.64546  23279918.9554   23279922.3794   23279921.001
        41.3004         38.5004
 -10714831.40246  -8333408.85646  22826143.1924   22826147.5984   22826142.837
        41.1004         38.5004
 -23174614.52548 -18047912.80147  20489998.1234   20489997.2364   20489998.987
        48.6004         45.6004
 -18066390.50947 -14039488.96347  21498218.8104   21498219.7804   21498219.242
        45.5004         42.5004
 -12747435.78046  -9755364.64346  22569001.1984   22569003.3024   22569001.902
        39.7004         37.1004
 -20081684.23247 -15591195.60747  20555845.5164   20555846.6934   20555845.832
        47.4004         44.5004
 14 10 27  0 46 30.0000000  0  8G11G27G19G24G22G18G21G14
    -91964.92744      -587.333        -139.940        -143.433        -139.940
        26.4004           .000
  -7279769.33646  -5649990.81546  23409591.2354   23409597.3864   23409591.334
        40.1004         37.4004
  -8473906.67046  -6572572.20246  23285041.6814   23285043.4264   23285042.934
        41.1004         38.5004
 -10664969.81946  -8294555.64846  22835631.7314   22835635.8574   22835631.624
        41.1004         38.6004
 -23185688.07448 -18056541.49347  20487890.8824   20487890.2044   20487891.954
        48.6004         45.6004
 -18025788.49647 -14007851.01947  21505944.9764   21505945.5524   21505945.468
        45.3004         42.3004
 -12656790.52946  -9684731.99246  22586252.6694   22586252.9194   22586251.841
        39.6004         37.1004
 -20105724.46847 -15609928.20747  20551270.7004   20551271.5244   20551271.154
        47.4004         44.4004
 14 10 27  0 47  0.0000000  0  8G11G27G19G24G22G18G21G14
   -185291.07744   -120160.413 2      -139.940    24490441.178        -139.940
        26.4004         15.100
  -7210419.59046  -5595952.09146  23422788.2054   23422794.6924   23422788.400
        40.1004         37.6004
  -8446476.40346  -6551197.95146  23290261.3644   23290263.1174   23290262.552
        40.9004         38.3004
 -10614582.61846  -8255292.87646  22845220.4164   22845223.6244   22845220.043
        41.3004         38.6004
 -23196517.56348 -18064980.00447  20485830.3474   20485829.2414   20485831.024
        48.6004         45.8004
 -17984971.76347 -13976045.75547  21513712.0584   21513712.7414   21513712.858
        45.3004         42.3004
 -12565837.73046  -9613859.70646  22603558.4664   22603561.9124   22603559.738
        39.7004         37.1004
 -20129340.76847 -15628330.46347  20546776.7664   20546777.3894   20546777.180
        47.4004         44.5004
 14 10 27  0 47 30.0000000  0  8G11G27G19G24G22G18G21G14
   -278313.38544   -164888.659 2      -139.940    24479500.490        -139.940
        26.4004         14.000
  -7140770.80146  -5541680.35346  23436041.9424   23436048.3824   23436042.271
        40.3004         37.6004
  -8418532.19746  -6529423.23446  23295579.0084   23295580.2324   23295580.209
        40.8004         38.1004
 -10563671.50846  -8215621.85846  22854908.5984   22854911.3944   22854908.249
        41.3004         38.5004
 -23207102.49648 -18073227.96747  20483815.8664   20483814.9084   20483816.784
        48.6004         45.6004
 -17943940.26147 -13944073.14447  21521519.9564   21521521.0084   21521520.600
        45.3004         42.3004
 -12474579.60146  -9542749.48446  22620925.3504   22620927.7614   22620925.241
        39.6004         37.1004
 -20152534.02447 -15646403.08447  20542363.0494   20542363.8174   20542363.538
        47.4004         44.5004
 14 10 27  0 48  0.0000000  0  8G11G27G19G24G22G18G21G14
   -371029.18544    -39705.153        -139.940    24455384.966        -139.940
        26.4004          1.500
  -7070825.95046  -5487177.90946  23449352.0374   23449358.6954   23449352.357
        40.3004         37.6004
  -8390075.57146  -6507249.23246  23300994.5664   23300995.3104   23300994.895
        40.6004         37.9004
 -10512238.07446  -8175543.84346  22864694.6554   22864698.7374   22864695.308
        41.1004         38.5004
 -23217442.20648 -18081284.84947  20481848.1994   20481847.6184   20481849.133
        48.8004         45.6004
 -17902693.49047 -13911932.78247  21529369.0444   21529369.6114   21529369.488
        45.3004         42.5004
 -12383017.94746  -9471402.74746  22638348.3664   22638351.4934   22638348.702
        39.6004         37.3004
 -20175304.09447 -15664145.95347  20538030.2874   20538030.8064   20538030.573
        47.5004         44.5004
 14 10 27  0 48 30.0000000  0  8G11G27G19G24G22G18G21G14
   -463436.18244   -111724.910 2      -139.940    24437793.385        -139.940
        26.4004         14.400
  -7000588.05346  -5432447.13546  23462717.7504   23462725.9644   23462718.038
        40.3004         37.4004
  -8361108.35246  -6484677.35246  23306505.5864   23306508.2704   23306506.193
        40.4004         37.8004
 -10460283.31746  -8135059.59646  22874582.3544   22874586.2744   22874581.387
        40.9004         38.1004
 -23227536.25748 -18089150.29247  20479927.5484   20479926.3004   20479928.397
        48.8004         45.6004
 -17861231.38747 -13879624.63847  21537259.4814   21537259.3504   21537259.907
        45.3004         42.3004
 -12291154.76446  -9399821.04246  22655829.3004   22655831.2134   22655829.518
        39.6004         37.3004
 -20197651.67947 -15681559.60447  20533777.5004   20533778.0854   20533777.914
        47.5004         44.5004
 14 10 27  0 49  0.0000000  0  9G11G27G19G31G24G22G18G21G14
   -555531.62644   -183503.097 2      -139.940    24420260.711        -139.940
        26.4004         13.700
  -6930060.10746  -5377490.34246  23476139.8634   23476145.8434   23476139.146
        40.1004         37.4004
  -8331632.06546  -6461708.80246  23312116.5014   23312116.6394   23312115.978
        40.4004         37.9004
    -25959.02644     -7354.22643      -139.940        -143.433    24492525.713
        26.4004         23.4004
 -10407809.62546  -8094170.98446  22884567.7834   22884571.5534   22884567.033
        40.9004         38.3004
 -23237383.72248 -18096823.59747  20478053.4224   20478052.4914   20478054.380
        48.8004         45.8004
 -17819553.27747 -13847148.17147  21545190.7104   21545191.1224   21545190.919
        45.3004         42.3004
 -12198992.01746  -9328005.90246  22673367.2484   22673368.8314   22673367.223
        39.6004         36.9004
 -20219577.30847 -15698644.46047  20529605.0124   20529605.9864   20529605.662
        47.5004         44.7004
 14 10 27  0 49 30.0000000  0  9G11G27G19G31G24G22G18G21G14
    -54735.90444    -20249.64843      -139.940        -143.433    24401930.340
        26.4004         23.4004
  -6859245.10746  -5322309.85746  23489614.9544   23489621.3064   23489614.680
        39.9004         37.3004
  -8301648.72946  -6438345.14446  23317820.1454   23317822.5294   23317822.025
        40.3004         37.6004
   -140832.15944    -96865.56645      -139.940        -143.433    24470665.530
        26.4004         32.4004
 -10354819.01246  -8052879.56746  22894650.3434   22894655.4074   22894650.854
        40.9004         38.5004
 -23246983.89448 -18104304.20847  20476226.7324   20476225.7604   20476227.468
        48.8004         45.8004
 -17777659.20947 -13814503.43247  21553162.6654   21553163.2774   21553163.029
        45.3004         42.5004
 -12106531.44146  -9255958.69246  22690961.3134   22690963.7934   22690962.094
        39.4004         36.9004
 -20241081.27247 -15715400.74247  20525513.1384   20525513.8404   20525513.320
        47.5004         44.7004
 14 10 27  0 50  0.0000000  0 10G11G27G19G31G24G22G18G21G32G14
   -146200.50144    -91522.26444      -139.940        -143.433    24384524.747
        26.4004         29.6004
  -6788146.10246  -5266908.07046  23503143.7324   23503149.6494   23503144.401
        39.6004         37.1004
  -8271159.86346  -6414587.58846  23323622.1424   23323624.4834   23323624.011
        40.3004         37.4004
   -255724.55044   -186391.65445      -139.940        -143.433    24448802.546
        26.4004         34.0004
 -10301312.80746  -8011186.40846  22904832.3944   22904837.4854   22904833.065
        40.9004         38.5004
 -23256336.02248 -18111591.53147  20474447.0944   20474445.9264   20474448.001
        48.8004         45.8004
 -17735548.89347 -13781690.17647  21561175.6504   21561175.8254   21561176.334
        45.3004         42.5004
 -12013775.52546  -9183681.33846  22708612.4124   22708614.7864   22708613.232
        39.2004         36.9004
   -186566.17344   -135433.545 3      -139.940    24999658.520        -139.940
        26.4004         23.400
 -20262164.17947 -15731828.93147  20521500.7564   20521501.8794   20521501.313
        47.5004         44.5004
 14 10 27  0 50 30.0000000  0 10G11G27G19G31G24G22G18G21G32G14
   -237345.66044   -162547.62544      -139.940        -143.433    24367180.118
        26.4004         29.6004
  -6716766.10746  -5211287.32946  23516726.6374   23516734.0314   23516727.521
        39.6004         37.3004
  -8240167.42446  -6390437.61446  23329520.0984   23329520.9614   23329521.486
        40.3004         37.8004
   -370633.30345   -275930.48445      -139.940    24426940.8744   24426935.846
        33.3004         34.0004
 -10247292.99446  -7969093.02446  22915112.8584   22915117.2854   22915112.528
        40.9004         38.5004
 -23265439.27448 -18118684.92847  20472714.9214   20472713.6774   20472715.615
        48.8004         45.8004
 -17693222.35147 -13748708.43647  21569229.9204   21569231.0574   21569230.802
        45.3004         42.5004
 -11920726.13946  -9111175.32246  22726319.9544   22726322.7734   22726320.029
        39.0004         36.9004
   -270579.42245   -201989.22445      -139.940    24983404.2854   24983395.385
        34.0004         34.3004
 -20282826.40847 -15747929.31647  20517569.0934   20517569.9434   20517569.501
        47.5004         44.7004
 14 10 27  0 51  0.0000000  0 10G11G27G19G31G24G22G18G21G32G14
   -328169.01544    -15318.58643      -139.940        -143.433    24349895.177
        26.4004         23.4004
  -6645108.13846  -5155449.99146  23530363.8914   23530370.4884   23530363.585
        39.6004         37.1004
  -8208673.12346  -6365896.59546  23335513.5644   23335514.7794   23335514.307
        40.3004         37.6004
   -485555.52245   -365479.89445  24405066.7874   24405070.2724   24405066.349
        34.9004         33.8004
 -10192760.99546  -7926600.53646  22925489.8604   22925494.0674   22925489.796
        41.1004         38.5004
 -23274293.74948 -18125584.48047  20471029.7404   20471028.7394   20471030.628
        48.8004         45.6004
 -17650678.85647 -13715557.65147  21577325.3944   21577326.9644   21577326.528
        45.3004         42.3004
 -11827385.02146  -9038441.99846  22744081.1174   22744084.1544   22744082.522
        39.2004         36.7004
   -354569.16445   -267435.38445  24967413.6594   24967419.8534   24967412.413
        35.6004         34.0004
 -20303068.49747 -15763702.32147  20513717.2864   20513717.8144   20513717.599
        47.5004         44.7004
 14 10 27  0 51 30.0000000  0 10G11G27G19G31G24G22G18G21G32G14
   -418668.01144    -84665.290 2      -139.940    24332956.295        -139.940
        26.4004         14.400
  -6573175.25646  -5099398.42346  23544051.6604   23544058.7184   23544052.039
        39.7004         37.3004
  -8176678.74146  -6340965.89546  23341602.1924   23341604.1174   23341602.327
        40.4004         37.9004
   -600488.69545   -455037.80745  24383193.2894   24383198.1604   24383195.009
        35.4004         33.6004
 -10137719.05546  -7883710.69646  22935964.6554   22935968.2794   22935963.804
        41.3004         38.6004
 -23282898.55748 -18132289.49147  20469392.2024   20469391.4144   20469393.271
        48.8004         45.8004
 -17607918.02347 -13682237.50347  21585463.0334   21585462.9194   21585463.368
        45.1004         42.1004
 -11733754.94146  -8965483.49346  22761898.5044   22761901.3004   22761899.221
        39.0004         36.6004
   -438535.16445   -332863.01845  24951434.2784   24951442.3774   24951435.258
        35.2004         33.4004
 -20322891.02347 -15779148.39647  20509944.9424   20509945.5634   20509945.649
        47.7004         44.7004
 14 10 27  0 52  0.0000000  0 10G11G27G19G31G24G22G18G21G32G14
   -508839.77144   -156106.11644      -139.940        -143.433    24315517.583
        26.4004         29.4004
  -6500970.48446  -5043134.99646  23557792.5084   23557798.1874   23557792.390
        39.7004         37.4004
  -8144186.37546  -6315647.15646  23347784.6904   23347787.1154   23347785.883
        40.6004         38.1004
   -715429.88945   -544601.97245  24361321.6074   24361325.5544   24361321.804
        35.6004         33.8004
 -10082168.67246  -7840424.67146  22946534.6874   22946539.4424   22946535.076
        41.3004         38.6004
 -23291252.45748 -18138798.99447  20467802.4844   20467801.4704   20467803.477
        48.8004         45.6004
 -17564939.09147 -13648747.41147  21593641.2424   21593642.3074   21593642.119
        45.1004         42.1004
 -11639837.09146  -8892300.76846  22779769.9564   22779772.4924   22779771.308
        39.0004         36.4004
   -522477.03845   -398271.84745  24935460.9364   24935470.5354   24935461.741
        35.0004         33.3004
 -20342294.52047 -15794267.94947  20506252.5594   20506253.3814   20506253.060
        47.7004         44.7004
 14 10 27  0 52 30.0000000  0 10G11G27G19G31G24G22G18G21G32G14
   -598681.66844    -10484.93043      -139.940        -143.433    24298420.734
        26.4004         23.4004
  -6428496.84446  -4986662.07346  23571584.3464   23571590.3204   23571583.869
        39.7004         37.4004
  -8111197.39146  -6289941.44646  23354062.9434   23354065.0634   23354063.989
        40.6004         38.1004
   -830376.19245   -634170.12545  24339448.7154   24339452.3424   24339447.704
        35.7004         34.1004
 -10026112.07846  -7796744.19146  22957202.5634   22957206.2554   22957202.282
        41.3004         38.6004
 -23299355.29648 -18145112.86347  20466260.5394   20466259.3754   20466261.432
        48.6004         45.6004
 -17521742.91547 -13615088.04347  21601861.3954   21601862.1544   21601862.316
        45.1004         42.1004
 -11545633.71646  -8818895.56846  22797698.3294   22797699.3594   22797697.696
        38.9004         36.4004
   -606394.62045   -463661.76445  24919493.3874   24919499.3404   24919493.452
        34.3004         33.1004
 -20361279.66647 -15809061.51547  20502639.9734   20502640.5914   20502640.445
        47.7004         44.9004
 14 10 27  0 53  0.0000000  0 10G11G27G19G31G24G22G18G21G32G14
   -688191.26844    -80232.95345      -139.940        -143.433    24281386.989
        26.4004         31.9004
  -6355757.41646  -4929982.03046  23585425.6994   23585433.1014   23585425.639
        39.7004         37.3004
  -8077713.93246  -6263850.43746  23360433.8724   23360436.5374   23360435.993
        40.8004         37.9004
   -945325.00245   -723740.25345  24317573.9204   24317580.2444   24317573.279
        35.7004         34.1004
  -9969550.67746  -7752670.34446  22967966.3954   22967969.0884   22967965.518
        41.1004         38.3004
 -23307206.47348 -18151230.62447  20464766.6864   20464765.2544   20464767.471
        48.6004         45.6004
 -17478328.66447 -13581258.73747  21610122.6104   21610123.7394   21610123.390
        45.1004         42.1004
 -11451147.10046  -8745269.66946  22815677.3234   22815679.5614   22815677.293
        38.7004         36.4004
   -690287.70645   -529032.63045  24903529.6964   24903539.7114   24903529.481
        33.8004         32.4004
 -20379846.85947 -15823529.41147  20499106.8044   20499107.5634   20499107.008
        47.7004         44.9004
 14 10 27  0 53 30.0000000  0 10G11G27G19G31G24G22G18G21G32G14
   -777366.19744   -149720.08445      -139.940        -143.433    24264417.262
        26.4004         30.0004
  -6282755.27446  -4873097.27846  23599317.7794   23599323.5524   23599317.354
        39.7004         37.3004
  -8043737.75546  -6237375.49046  23366899.5054   23366901.5984   23366900.818
        40.6004         37.9004
  -1060273.31645   -813309.99745  24295701.4464   24295704.3974   24295698.964
        35.9004         34.1004
  -9912486.70346  -7708204.89546  22978823.6454   22978828.3174   22978823.694
        40.8004         37.9004
 -23314804.77948 -18157151.33747  20463320.6284   20463319.3614   20463321.598
        48.6004         45.6004
 -17434695.94247 -13547259.19847  21618426.1784   21618426.5644   21618426.617
        45.1004         42.1004
 -11356379.12746  -8671424.49446  22833710.8404   22833712.6414   22833711.292
        38.5004         36.0004
   -774156.00255   -594384.17855  24887563.4955   24887577.3785   24887568.027
        33.7004         32.0004
 -20397996.55847 -15837671.98747  20495652.8264   20495653.6384   20495653.253
        47.7004         44.9004
 14 10 27  0 54  0.0000000  0 10G11G27G19G31G24G22G18G21G32G14
   -866203.63044     -4556.58243      -139.940        -143.433    24247511.962
        26.4004         23.4004
  -6209493.40146  -4816010.14346  23613258.7804   23613264.4344   23613259.070
        39.7004         37.3004
  -8009271.02946  -6210518.30546  23373458.7574   23373460.2144   23373459.595
        40.4004         37.8004
  -1175218.39946   -902877.20545  24273824.5414   24273828.4524   24273824.827
        36.3004         34.5004
  -9854921.92846  -7663349.20946  22989778.2364   22989782.8714   22989777.507
        40.6004         37.9004
 -23322150.10348 -18162874.92147  20461923.1794   20461921.6254   20461923.773
        48.6004         45.6004
 -17390844.77447 -13513089.43747  21626770.6104   21626771.3834   21626771.624
        45.1004         42.1004
 -11261331.94046  -8597361.77346  22851797.7554   22851799.7994   22851798.550
        38.5004         36.0004
   -857999.07445   -659716.08045  24871613.4974   24871619.7084   24871612.017
        33.5004         32.2004
 -20415729.53947 -15851489.84347  20492278.4244   20492278.8894   20492278.875
        47.9004         44.9004
 14 10 27  0 54 30.0000000  0 10G11G27G19G31G24G22G18G21G32G14
   -954701.11844    -73516.75844      -139.940        -143.433    24230671.839
        26.4004         29.1004
  -6135974.92646  -4758723.05546  23627249.0964   23627254.6824   23627248.770
        39.7004         37.3004
  -7974315.44246  -6183280.20146  23380109.8464   23380112.3684   23380110.845
        40.4004         37.9004
  -1290157.41346   -992439.67345  24251953.1464   24251958.0894   24251953.169
        36.4004         34.6004
  -9796858.14646  -7618104.69346  23000827.4934   23000831.1864   23000826.712
        40.3004         37.6004
 -23329241.44848 -18168400.61647  20460573.4524   20460572.1004   20460574.398
        48.6004         45.6004
 -17346774.71647 -13478749.11746  21635157.0184   21635157.4154   21635157.255
        45.1004         41.9004
 -11166007.55246  -8523083.03846  22869937.0734   22869939.8124   22869937.963
        38.3004         36.0004
   -941816.59945   -725028.13645  24855663.0484   24855668.4064   24855663.725
        33.5004         32.6004
 -20433046.18547 -15864983.27547  20488982.9254   20488983.5694   20488983.492
        47.9004         44.9004
 14 10 27  0 55  0.0000000  0 10G11G27G19G31G24G22G18G21G32G14
  -1042856.16544   -142214.04245      -139.940        -143.433    24213896.947
        26.4004         30.3004
  -6062202.87246  -4701238.37746  23641287.8744   23641292.5884   23641287.147
        39.7004         37.1004
  -7938873.11546  -6155662.80846  23386855.0624   23386857.6234   23386855.262
        40.3004         37.4004
  -1405087.71746  -1081995.35945  24230082.9274   24230086.3144   24230081.698
        36.8004         34.6004
  -9738297.22346  -7572472.79546  23011970.8364   23011975.7644   23011970.779
        40.1004         37.6004
 -23336078.26448 -18173727.97747  20459271.9924   20459271.0464   20459273.044
        48.6004         45.6004
 -17302485.23347 -13444237.81446  21643584.6524   21643585.1404   21643585.178
        44.9004         41.9004
 -11070407.95946  -8448589.84946  22888129.1644   22888131.4844   22888129.919
        38.3004         36.0004
  -1025608.58745   -790320.32745  24839717.7464   24839725.7864   24839715.837
        33.8004         32.6004
 -20449947.25647 -15878152.88347  20485767.0314   20485767.3494   20485767.282
        47.9004         44.9004
 14 10 27  0 55 30.0000000  0 10G11G27G19G31G24G22G18G21G32G14
      -735.390        -587.333        -139.940        -143.433    24197187.311
          .000            .000
  -5988180.33846  -4643558.50146  23655373.3294   23655379.7034   23655373.260
        39.7004         37.4004
  -7902946.15246  -6127667.77846  23393690.9134   23393693.5414   23393691.842
        40.1004         37.6004
  -1520006.37746  -1171541.97445  24208214.8324   24208218.2344   24208213.319
        37.0004         34.8004
  -9679241.51446  -7526455.35746  23023209.3594   23023213.9654   23023208.591
        40.1004         37.4004
 -23342659.87048 -18178856.47247  20458019.7264   20458018.4814   20458020.568
        48.6004         45.6004
 -17257976.40047 -13409555.59946  21652055.0994   21652054.6334   21652055.226
        44.9004         41.9004
 -10974535.34246  -8373883.90945  22906373.8564   22906375.6424   22906373.599
        38.2004         35.9004
  -1109374.36445   -855592.13645  24823776.7474   24823784.5714   24823778.068
        35.0004         33.8004
 -20466433.27347 -15890999.07447  20482629.5754   20482630.0414   20482630.175
        47.9004         44.9004
 14 10 27  0 56  0.0000000  0 10G11G27G19G31G24G22G18G21G32G14
  -1218128.17644    -67028.92545      -139.940        -143.433    24180542.910
        26.4004         30.3004
  -5913910.36246  -4585685.82046  23669506.5804   23669513.6774   23669506.526
        39.7004         37.3004
  -7866536.21046  -6099296.39246  23400619.6994   23400622.6314   23400621.035
        39.9004         37.3004
  -1634910.15946  -1261076.99745  24186347.5904   24186352.1844   24186347.361
        37.1004         35.2004
  -9619692.70546  -7480053.67446  23034540.6294   23034545.6684   23034540.534
        40.1004         37.6004
 -23348985.48248 -18183785.48247  20456815.8014   20456814.8444   20456816.626
        48.6004         45.4004
 -17213247.91547 -13374702.22846  21660565.6224   21660567.0514   21660566.719
        44.8004         41.9004
 -10878391.73346  -8298966.82045  22924669.1574   22924670.5684   22924669.009
        38.2004         35.9004
  -1193113.72645   -920843.36445  24807841.0334   24807849.0924   24807843.251
        35.4004         33.8004
 -20482504.89447 -15903522.36247  20479571.3944   20479571.5774   20479571.722
        47.9004         44.9004
 14 10 27  0 56 30.0000000  0 10G11G27G19G31G24G22G18G21G32G14
  -1305240.03944   -134908.73545      -139.940        -143.433    24163966.269
        26.4004         30.1004
  -5839396.04846  -4527622.74446  23683685.9824   23683693.7564   23683685.739
        39.7004         37.3004
  -7829645.29346  -6070550.23146  23407639.3874   23407642.6494   23407640.875
        39.9004         37.6004
  -1749796.64346  -1350598.56245  24164485.3744   24164489.3404   24164485.261
        37.1004         35.2004
  -9559652.76946  -7433269.30346  23045965.6824   23045970.1204   23045965.483
        40.1004         37.6004
 -23355054.49948 -18188514.54547  20455661.0444   20455659.7854   20455661.791
        48.6004         45.6004
 -17168299.59547 -13339677.55146  21669118.9494   21669119.6944   21669119.888
        44.8004         41.8004
 -10781979.21646  -8223840.17345  22943014.9764   22943018.1084   22943016.027
        38.2004         35.9004
  -1276826.30445   -986073.69845  24791911.9924   24791919.2164   24791910.982
        35.9004         34.1004
 -20498163.00247 -15915723.43647  20476591.6064   20476591.9894   20476591.940
        47.9004         44.9004
 14 10 27  0 57  0.0000000  0 10G11G27G19G31G24G22G18G21G32G14
  -1391998.89944   -202513.37445      -139.940    24147454.8224   24147456.031
        27.2004         32.7004
  -5764640.44546  -4469371.66746  23697912.5554   23697919.0484   23697911.914
        39.9004         37.3004
  -7792275.57746  -6041430.98646  23414751.2404   23414754.0944   23414752.397
        39.9004         37.4004
  -1864662.83446  -1440104.30045  24142625.5684   24142632.3744   24142626.646
        37.1004         35.2004
  -9499123.62546  -7386103.73046  23057485.1744   23057488.4084   23057484.089
        40.3004         37.6004
 -23360866.03048 -18193042.97647  20454555.2664   20454554.1994   20454556.060
        48.6004         45.6004
 -17123131.30047 -13304481.47246  21677714.5634   21677716.0254   21677715.277
        44.8004         41.9004
 -10685300.18946  -8148505.86245  22961413.1324   22961416.2514   22961413.552
        38.2004         35.9004
  -1360511.91846  -1051283.04145  24775985.6204   24775994.3724   24775985.431
        36.3004         34.5004
 -20513407.80647 -15927602.44847  20473690.3354   20473691.2374   20473691.022
        47.9004         44.9004
 14 10 27  0 57 30.0000000  0 10G11G27G19G31G24G22G18G21G32G14
  -1478402.60045   -269840.60245  24131015.1084   24131018.1374   24131014.162
        34.5004         34.0004
  -5689646.63946  -4410934.96646  23712182.3584   23712189.6654   23712182.509
        39.7004         37.1004
  -7754429.07146  -6011940.23246  23421952.5604   23421955.5674   23421954.513
        40.1004         37.6004
  -1979506.00846  -1529592.09645  24120772.9184   24120776.1444   24120772.401
        37.3004         35.3004
  -9438107.65146  -7338558.81346  23069095.5624   23069098.6934   23069095.286
        40.1004         37.6004
 -23366419.80648 -18197370.56247  20453498.4424   20453497.2164   20453499.339
        48.6004         45.6004
 -17077742.52447 -13269113.57446  21686352.2214   21686352.4904   21686352.458
        44.8004         41.8004
 -10588356.74546  -8072965.53246  22979860.9424   22979862.8534   22979861.089
        38.2004         36.0004
  -1444170.16446  -1116471.03545  24760066.8484   24760073.8074   24760067.370
        36.3004         34.3004
 -20528240.17047 -15939160.08447  20470868.2664   20470868.3964   20470868.388
        47.9004         44.9004
 14 10 27  0 58  0.0000000  0 10G11G27G19G31G24G22G18G21G32G14
  -1564448.56045   -336889.19845  24114637.8544   24114644.3594   24114640.019
        35.9004         34.3004
  -5614417.76246  -4352315.08246  23726497.9064   23726504.4204   23726498.019
        39.7004         37.1004
  -7716108.07146  -5982079.72246  23429245.5244   23429247.5374   23429247.022
        40.3004         37.8004
  -2094323.30746  -1619059.75945  24098924.3334   24098926.6774   24098923.165
        37.5004         35.3004
  -9376606.29846  -7290635.66546  23080799.3714   23080803.2264   23080798.696
        40.3004         37.8004
 -23371714.83548 -18201496.52847  20452490.7844   20452489.5634   20452491.724
        48.8004         45.8004
 -17032132.98547 -13233573.66946  21695031.3154   21695031.9814   21695031.750
        44.8004         41.8004
 -10491150.88146  -7997220.71845  22998358.4544   22998361.1504   22998359.143
        38.2004         35.9004
  -1527800.73846  -1181637.45945  24744153.3424   24744159.5314   24744152.860
        36.1004         34.3004
 -20542660.91147 -15950396.98147  20468123.8514   20468124.4424   20468124.197
        47.9004         44.9004
 14 10 27  0 58 30.0000000  0 10G11G27G19G31G24G22G18G21G32G14
  -1650133.99245   -403656.91445  24098334.7364   24098337.3844   24098334.816
        35.9004         34.1004
  -5538956.85246  -4293514.40446  23740856.9934   23740865.2824   23740857.563
        39.6004         36.7004
  -7677314.11646  -5951850.66846  23436628.0134   23436629.5424   23436628.814
        40.3004         37.6004
  -2209111.65346  -1708504.85845  24077080.0944   24077083.7364   24077079.290
        37.3004         35.2004
  -9314622.15146  -7242336.32146  23092595.1164   23092597.8874   23092594.037
        40.3004         37.6004
 -23376750.55748 -18205420.42647  20451532.3564   20451530.8524   20451533.398
        48.8004         45.8004
 -16986302.34147 -13197861.46446  21703752.0704   21703753.0104   21703752.962
        44.8004         41.8004
 -10393684.66746  -7921273.03146  23016904.3644   23016909.0654   23016906.267
        38.3004         36.0004
  -1611403.28345  -1246782.06445  24728242.1744   24728251.3794   24728242.830
        35.4004         33.4004
 -20556670.46547 -15961313.48047  20465458.0734   20465458.2334   20465458.200
        47.9004         44.9004
 14 10 27  0 59  0.0000000  0 10G11G27G19G31G24G22G18G21G32G14
  -1735456.59145   -470141.88045  24082097.3554   24082103.5884   24082098.214
        35.9004         34.0004
  -5463266.99246  -4234535.33246  23755260.8344   23755268.0084   23755260.960
        39.2004         36.7004
  -7638049.65246  -5921254.99346  23444099.4814   23444102.1724   23444100.551
        40.4004         37.8004
  -2323868.23646  -1797925.22045  24055242.9774   24055246.4534   24055241.666
        37.5004         35.3004
  -9252157.18146  -7193662.30846  23104481.0194   23104484.6534   23104480.400
        40.1004         37.6004
 -23381526.18348 -18209141.63647  20450623.7124   20450622.3284   20450624.779
        48.8004         45.8004
 -16940250.52947 -13161976.93346  21712516.0584   21712516.3914   21712516.577
        44.8004         41.9004
 -10295960.12746  -7845124.03846  23035502.6324   23035504.9754   23035502.591
        38.3004         36.0004
  -1694977.62345  -1311904.69345  24712337.8234   24712346.8194   24712338.492
        34.9004         33.1004
 -20570269.93447 -15971910.42747  20462869.8294   20462870.1574   20462870.218
        47.7004         44.9004
 14 10 27  0 59 30.0000000  0 10G11G27G19G31G24G22G18G21G32G14
  -1820413.74145   -536342.07345  24065929.8214   24065931.8924   24065931.266
        35.7004         34.0004
  -5387351.30846  -4175380.29746  23769706.5534   23769713.0244   23769706.699
        39.0004         36.4004
  -7598316.81246  -5890294.33746  23451660.9354   23451663.3514   23451661.328
        40.3004         37.8004
  -2438590.69246  -1887319.02745  24033410.6524   24033415.1704   24033410.885
        37.8004         35.7004
  -9189213.14846  -7144614.99646  23116458.5174   23116462.7664   23116457.973
        39.9004         37.3004
 -23386040.96648 -18212659.60047  20449764.5484   20449763.0344   20449765.536
        48.8004         45.8004
 -16893977.34947 -13125919.89346  21721321.3124   21721321.0774   21721322.137
        44.8004         41.9004
 -10197979.53146  -7768775.52845  23054147.8734   23054150.2704   23054147.533
        38.2004         35.9004
  -1778523.25345  -1377005.00345  24696437.8734   24696447.3014   24696440.860
        34.3004         32.9004
 -20583459.37647 -15982187.87347  20460359.9644   20460360.2554   20460360.383
        47.7004         44.7004
 14 10 27  1  0  0.0000000  0 10G11G27G19G31G24G22G18G21G32G14
  -1905002.92645   -602255.53245  24049832.8584   24049837.6984   24049834.762
        35.6004         34.1004
  -5311212.89246  -4116051.70346  23784195.1114   23784202.9224   23784195.702
        38.9004         36.4004
  -7558117.80846  -5858970.45946  23459310.4904   23459312.6944   23459310.776
        40.3004         37.8004
  -2553275.61946  -1976683.58245  24011586.8164   24011590.8034   24011586.706
        38.0004         35.9004
  -9125792.32446  -7095196.17846  23128527.1124   23128531.2124   23128526.231
        39.7004         37.1004
 -23390294.31748 -18215973.86747  20448954.7794   20448953.6714   20448956.031
        48.8004         45.8004
 -16847482.33147 -13089689.99346  21730168.8774   21730169.5534   21730169.629
        44.8004         41.8004
 -10099745.27146  -7692229.37045  23072840.0584   23072842.1844   23072841.043
        38.2004         35.7004
  -1862039.99345  -1442082.73045  24680545.4034   24680555.5914   24680547.433
        34.3004         33.1004
 -20596239.86547 -15992146.66047  20457928.1194   20457928.1724   20457928.189
        47.7004         44.7004
 14 10 27  1  0 30.0000000  0 10G11G27G19G31G24G22G18G21G32G14
  -1989221.62545   -667880.29845  24033809.7764   24033811.9354   24033807.723
        35.4004         33.4004
  -5234854.81246  -4056551.96246  23798726.7294   23798733.5444   23798726.575
        38.7004         36.0004
  -7517454.57046  -5827284.82046  23467047.6824   23467051.1554   23467048.880
        40.3004         37.6004
  -2667920.37846  -2066016.84145  23989770.0944   23989774.5934   23989769.951
        38.0004         35.7004
  -9061896.92746  -7045407.55246  23140685.9084   23140689.7564   23140684.937
        39.6004         37.1004
 -23394285.83948 -18219084.10547  20448195.3714   20448194.5124   20448196.274
        48.8004         45.8004
 -16800765.43047 -13053287.19746  21739058.9684   21739059.8844   21739059.173
        44.8004         41.8004
 -10001259.23246  -7615486.99945  23091580.9504   23091584.0024   23091582.386
        38.2004         35.9004
  -1945527.37845  -1507137.58545  24664659.7534   24664669.9434   24664659.967
        34.3004         33.1004
 -20608611.83347 -16001787.10647  20455573.6334   20455574.1704   20455574.041
        47.7004         44.9004
 14 10 27  1  1  0.0000000  0 10G11G27G19G31G24G22G18G21G32G14
  -2073067.41545   -733214.52245  24017852.3064   24017854.3804   24017851.505
        35.6004         34.0004
  -5158280.21546  -3996883.50646  23813298.1004   23813305.8144   23813297.915
        38.7004         36.2004
  -7476329.12746  -5795239.03046  23474873.9784   23474877.1444   23474875.095
        40.4004         37.9004
  -2782521.87246  -2155316.41245  23967963.1004   23967965.0794   23967962.050
        38.0004         35.9004
  -8997528.62746  -6995250.42146  23152934.2024   23152938.6444   23152934.287
        39.6004         37.1004
 -23398014.57648 -18221989.57347  20447486.0794   20447484.6144   20447486.727
        48.9004         45.9004
 -16753826.14047 -13016711.11346  21747990.6404   21747991.8584   21747991.716
        44.8004         41.8004
  -9902523.67446  -7538550.18545  23110371.0684   23110372.6154   23110371.075
        37.8004         35.7004
  -2028985.16745  -1572169.39345  24648779.6544   24648783.7764   24648779.225
        34.3004         33.3004
 -20620576.59047 -16011110.25047  20453296.7124   20453297.2954   20453296.999
        47.7004         44.9004
 14 10 27  1  1 30.0000000  0 10G11G27G19G31G24G22G18G21G32G14
  -2156537.60146   -798256.04045  24001968.6434   24001970.9874   24001967.959
        36.1004         34.3004
  -5081492.18746  -3937048.73046  23827909.8934   23827918.0124   23827910.303
        38.9004         36.6004
  -7434743.80646  -5762834.89146  23482787.6734   23482790.7394   23482788.758
        40.4004         37.9004
  -2897077.21346  -2244580.04246  23946162.5054   23946166.2694   23946162.352
        38.2004         36.0004
  -8932690.10246  -6944726.89546  23165273.3034   23165277.1204   23165273.158
        39.6004         37.1004
 -23401479.59048 -18224689.54747  20446826.3774   20446825.4004   20446827.149
        48.8004         45.8004
 -16706664.40447 -12979961.69046  21756965.7874   21756966.2904   21756966.393
        44.8004         41.8004
  -9803540.85446  -7461420.71445  23129206.2364   23129207.4164   23129206.656
        37.8004         35.5004
  -2112412.93945  -1637177.78345  24632902.0664   24632910.2504   24632904.019
        34.7004         33.4004
 -20632134.64047 -16020116.48747  20451097.4564   20451097.7434   20451097.553
        47.7004         44.7004
 14 10 27  1  2  0.0000000  0 10G11G27G19G31G24G22G18G21G32G14
  -2239629.96145   -863003.16645  23986154.9464   23986160.0194   23986156.150
        35.9004         34.3004
  -5004493.79846  -3877050.03346  23842562.3384   23842570.3924   23842562.744
        38.9004         36.6004
  -7392700.86746  -5730074.16246  23490788.7014   23490790.7254   23490789.362
        40.4004         37.8004
  -3011583.68146  -2333805.57545  23924371.3774   23924375.4804   23924371.926
        38.2004         35.9004
  -8867383.11046  -6893838.33746  23177701.0834   23177704.3564   23177700.501
        39.6004         37.1004
 -23404680.42248 -18227183.66447  20446217.1924   20446216.2834   20446218.186
        48.8004         45.8004
 -16659279.65947 -12943038.49546  21765982.3234   21765983.2204   21765983.181
        44.8004         41.8004
  -9704312.97446  -7384100.28245  23148089.0904   23148089.3904   23148089.359
        37.8004         35.5004
  -2195810.37945  -1702162.49645  24617033.8164   24617041.0034   24617033.347
        34.9004         33.4004
 -20643286.40847 -16028806.13947  20448975.0324   20448975.7314   20448975.262
        47.7004         44.7004
 14 10 27  1  2 30.0000000  0 10G11G27G19G31G24G22G18G21G32G14
  -2322342.02046   -927453.94145  23970415.6904   23970419.7114   23970416.265
        36.1004         34.3004
  -4927288.16146  -3816889.84846  23857254.8374   23857261.8684   23857254.692
        38.9004         36.4004
  -7350202.58746  -5696958.62646  23498875.3144   23498876.7584   23498876.555
        40.4004         37.8004
  -3126038.41146  -2422990.80345  23902592.7354   23902596.0034   23902591.497
        38.2004         35.9004
  -8801609.88146  -6842586.47746  23190217.1344   23190220.3794   23190216.681
        39.6004         37.1004
 -23407616.37248 -18229471.38647  20445658.5834   20445657.5234   20445659.528
        48.8004         45.8004
 -16611671.88747 -12905941.51646  21775042.0144   21775042.5634   21775042.658
        44.8004         41.9004
  -9604842.12446  -7306590.52245  23167017.5234   23167019.5344   23167018.518
        37.8004         35.7004
  -2279177.16345  -1767123.36845  24601168.3244   24601174.4694   24601168.599
        35.2004         33.6004
 -20654033.04147 -16037180.10747  20446930.0034   20446930.7724   20446930.262
        47.7004         44.7004
 14 10 27  1  3  0.0000000  0 10G11G27G19G31G24G22G18G21G32G14
  -2404671.14946   -991606.34145  23954748.8334   23954752.0374   23954748.914
        36.3004         34.5004
  -4849878.41946  -3756570.61746  23871984.7444   23871992.8074   23871984.619
        38.7004         36.4004
  -7307251.03646  -5663489.89446  23507048.1544   23507050.7534   23507049.231
        40.4004         37.8004
  -3240438.34946  -2512133.36045  23880823.2494   23880825.7104   23880822.307
        38.2004         35.9004
  -8735372.89346  -6790973.24446  23202821.0124   23202825.6054   23202821.008
        39.6004         37.1004
 -23410286.85548 -18231552.25247  20445150.2064   20445149.3534   20445151.288
        48.8004         45.8004
 -16563841.01047 -12868670.69146  21784144.5454   21784144.7824   21784144.750
        44.8004         41.8004
  -9505130.56546  -7228893.21745  23185993.0594   23185994.4854   23185992.671
        37.6004         35.3004
  -2362512.78745  -1832059.94345  24585312.3924   24585314.5364   24585310.828
        35.7004         34.0004
 -20664375.11147 -16045238.82547  20444962.0584   20444962.3484   20444962.312
        47.7004         44.7004
 14 10 27  1  3 30.0000000  0 10G11G27G19G31G24G22G18G21G32G14
  -2486615.10546  -1055458.61545  23939156.7514   23939159.5104   23939155.882
        36.3004         34.3004
  -4772267.67446  -3696094.77946  23886753.5474   23886761.6544   23886753.783
        38.7004         36.2004
  -7263848.58346  -5629669.80346  23515307.5484   23515310.3824   23515308.297
        40.3004         37.6004
  -3354780.57146  -2601230.90346  23859062.9754   23859067.6574   23859063.180
        38.3004         36.2004
  -8668673.84646  -6738999.95646  23215514.1024   23215517.7294   23215513.904
        39.6004         37.1004
 -23412690.60548 -18233425.27447  20444693.0194   20444691.8204   20444693.715
        48.8004         45.8004
 -16515786.63747 -12831225.71746  21793288.9604   21793289.1534   21793289.132
        44.8004         41.6004
  -9405180.62546  -7151010.13245  23205013.1334   23205013.6554   23205012.531
        37.8004         35.5004
  -2445817.05146  -1896972.13545  24569458.3614   24569464.2214   24569458.194
        36.3004         34.3004
 -20674313.44747 -16052982.94247  20443070.4704   20443071.3394   20443070.940
        47.7004         44.7004
 14 10 27  1  4  0.0000000  0 10G11G27G19G31G24G22G18G21G32G14
  -2568171.26946  -1119008.72345  23923636.3944   23923639.5354   23923635.875
        36.1004         34.1004
  -4694458.97246  -3635464.65846  23901560.1664   23901567.3084   23901560.586
        38.9004         36.6004
  -7219997.39146  -5595500.04246  23523652.3134   23523654.4434   23523652.975
        40.1004         37.4004
  -3469062.43846  -2690281.45046  23837317.1184   23837319.9404   23837315.767
        38.3004         36.2004
  -8601515.15846  -6686668.50646  23228294.6234   23228297.3644   23228293.301
        39.6004         36.9004
 -23414827.48248 -18235090.33547  20444286.2454   20444284.9934   20444287.055
        48.8004         45.8004
 -16467508.44047 -12793606.31946  21802475.2474   21802475.4454   21802475.981
        44.6004         41.6004
  -9304994.19146  -7072942.76545  23224076.4624   23224077.7744   23224077.651
        37.5004         35.3004
  -2529089.59346  -1961859.61345  24553610.6364   24553617.7904   24553611.886
        36.4004         34.6004
 -20683848.91347 -16060413.12947  20441256.0644   20441256.6764   20441256.529
        47.7004         44.9004
 14 10 27  1  4 30.0000000  0 10G11G27G19G31G24G22G18G21G32G14
  -2649337.05746  -1182254.61445  23908189.5314   23908191.8404   23908190.543
        36.1004         34.1004
  -4616455.48646  -3574682.77446  23916403.8184   23916411.3124   23916403.681
        38.9004         36.6004
  -7175699.79446  -5560982.42646  23532081.3464   23532083.5334   23532082.823
        40.1004         37.4004
  -3583280.71746  -2779282.42746  23815581.0694   23815583.6594   23815581.017
        38.5004         36.2004
  -8533899.08846  -6633980.65846  23241159.7694   23241164.8974   23241160.513
        39.6004         37.3004
 -23416696.79648 -18236546.91147  20443930.4774   20443929.2684   20443931.511
        48.8004         45.8004
 -16419006.52247 -12755812.60646  21811705.1754   21811705.7334   21811705.690
        44.6004         41.6004
  -9204573.67846  -6994693.00245  23243186.9054   23243187.6264   23243186.460
        37.5004         35.2004
  -2612329.96546  -2026722.05345  24537771.1374   24537777.9104   24537771.410
        36.8004         34.6004
 -20692982.24147 -16067529.96947  20439517.9794   20439518.5804   20439518.615
        47.7004         44.9004
 14 10 27  1  5  0.0000000  0 10G11G27G19G31G24G22G18G21G32G14
  -2730110.07446  -1245194.48745  23892820.4624   23892823.5934   23892819.964
        36.1004         34.3004
  -4538260.33446  -3513751.54446  23931284.4284   23931291.4984   23931284.647
        39.0004         36.6004
  -7130958.14946  -5526118.80746  23540597.1184   23540598.6844   23540597.000
        40.1004         37.6004
  -3697432.52946  -2868231.61146  23793858.5534   23793861.5904   23793858.147
        38.7004         36.4004
  -8465827.62646  -6580937.94946  23254114.3244   23254118.9164   23254113.782
        39.4004         36.9004
 -23418297.74948 -18237794.37947  20443626.0234   20443624.5164   20443626.892
        48.8004         45.8004
 -16370280.12147 -12717843.98146  21820977.3444   21820978.5194   21820978.217
        44.6004         41.6004
  -9103921.49046  -6916262.69545  23262340.5924   23262342.6224   23262340.057
        37.3004         35.2004
  -2695537.81646  -2091559.15845  24521936.5784   24521943.4624   24521936.404
        36.8004         34.8004
 -20701714.20947 -16074334.06347  20437856.4914   20437856.8704   20437856.808
        47.7004         44.9004
 14 10 27  1  5 30.0000000  0 10G11G27G19G31G24G22G18G21G32G14
  -2810488.12446  -1307826.59245  23877525.6434   23877526.7344   23877524.539
        36.1004         34.3004
  -4459876.54946  -3452673.31946  23946200.1094   23946207.1634   23946200.486
        39.0004         36.7004
  -7085774.73346  -5490910.95546  23549194.2174   23549196.2934   23549195.531
        40.3004         37.8004
  -3811515.11446  -2957126.85146  23772148.5214   23772151.7714   23772148.848
        38.9004         36.6004
  -8397303.16846  -6527542.25546  23267154.0004   23267158.7434   23267153.434
        39.4004         36.9004
 -23419629.79248 -18238832.31947  20443372.4394   20443371.1724   20443373.408
        48.9004         45.8004
 -16321329.48147 -12679700.61546  21830292.1404   21830292.3264   21830293.162
        44.4004         41.6004
  -9003039.56946  -6837653.41945  23281536.2074   23281538.6724   23281537.235
        37.1004         35.0004
  -2778712.64146  -2156370.53445  24506107.2954   24506113.9984   24506109.101
        36.8004         34.8004
 -20710045.79247 -16080826.16547  20436270.7844   20436271.7274   20436271.266
        47.9004         44.9004
 14 10 27  1  6  0.0000000  0 11G11G27G19G31G24G22G18G21G32G14G04
  -2890468.49146  -1370148.80545  23862304.3384   23862306.4804   23862304.898
        36.4004         34.6004
  -4381307.32046  -3391450.59146  23961151.7274   23961158.7834   23961151.629
        39.2004         36.7004
  -7040151.63246  -5455360.48846  23557875.6304   23557878.1314   23557876.831
        40.4004         37.8004
  -3925525.51546  -3045965.85546  23750453.8004   23750456.5174   23750453.362
        39.0004         36.6004
  -8328328.37146  -6473795.65546  23280279.3394   23280283.5934   23280279.057
        39.6004         37.1004
 -23420691.96848 -18239659.97947  20443170.3484   20443168.8144   20443171.189
        48.9004         45.9004
 -16272154.15947 -12641382.17546  21839650.5704   21839651.2844   21839650.761
        44.4004         41.6004
  -8901930.25946  -6758866.94545  23300775.0844   23300780.5684   23300777.525
        37.0004         34.6004
  -2861854.15046  -2221155.93645  24490287.3854   24490293.2954   24490288.276
        36.8004         34.6004
 -20717977.53747 -16087006.70747  20434761.3924   20434761.9574   20434761.911
        47.9004         45.1004
    -88450.96244    -51022.090        -139.940    24473177.701        -139.940
        26.4004          1.500
 14 10 27  1  6 30.0000000  0 11G11G27G19G31G24G22G18G21G32G14G04
  -2970048.92546  -1432159.38145  23847161.9374   23847163.0384   23847161.114
        36.4004         34.5004
  -4302555.73746  -3330085.75346  23976137.8554   23976144.3404   23976137.486
        39.2004         36.7004
  -6994091.46346  -5419469.45646  23566640.7394   23566643.2064   23566641.514
        40.4004         37.8004
  -4039460.72246  -3134746.27446  23728772.9804   23728775.0924   23728772.365
        39.0004         36.9004
  -8258904.82046  -6419699.37946  23293490.5444   23293493.8474   23293489.417
        39.6004         37.3004
 -23421483.69748 -18240276.88747  20443019.5664   20443018.1494   20443020.405
        48.9004         45.8004
 -16222754.24147 -12602888.72146  21849050.5674   21849051.1594   21849051.214
        44.4004         41.6004
  -8800595.79346  -6679905.03145  23320061.8644   23320063.2974   23320061.520
        37.0004         35.0004
  -2944962.03846  -2285915.13845  24474472.7814   24474478.3504   24474473.460
        36.3004         34.1004
 -20725510.80247 -16092876.75047  20433327.8404   20433328.3024   20433328.397
        47.9004         45.1004
   -191887.92944   -115520.371 3      -139.940    24457415.947        -139.940
        26.4004         19.200
 14 10 27  1  7  0.0000000  0 11G11G27G19G31G24G22G18G21G32G14G04
  -3049226.88946  -1493856.36545  23832095.4824   23832096.1114   23832094.187
        36.4004         34.5004
  -4223624.89346  -3268581.23746  23991157.5844   23991163.8454   23991158.006
        39.2004         36.6004
  -6947596.67446  -5383239.75746  23575487.9834   23575491.8454   23575489.360
        40.4004         37.8004
  -4153317.77246  -3223465.79046  23707105.4714   23707108.3804   23707105.698
        39.2004         36.7004
  -8189034.73546  -6365255.15246  23306786.5394   23306790.7094   23306785.979
        39.7004         37.3004
 -23422004.15048 -18240682.40647  20442920.4654   20442919.1014   20442921.260
        48.8004         45.8004
 -16173129.40547 -12564220.01046  21858494.0654   21858494.4814   21858494.532
        44.4004         41.6004
  -8699038.31546  -6600769.33945  23339386.1904   23339387.3514   23339386.993
        37.1004         35.3004
  -3028035.81045  -2350647.73945  24458661.7834   24458669.8364   24458664.313
        35.9004         34.0004
 -20732646.51747 -16098437.00847  20431970.2464   20431970.8824   20431970.630
        47.9004         45.1004
   -295136.38144   -216110.49044      -139.940        -143.433    24432844.962
        26.4004         29.8004
 14 10 27  1  7 30.0000000  0 10G11G27G19G31G24G22G18G21G32G14
  -3128000.17146  -1555238.02445  23817103.7194   23817106.6824   23817104.888
        36.4004         34.5004
  -4144517.92046  -3206939.47646  24006210.9814   24006218.1314   24006211.184
        39.0004         36.6004
  -6900669.33246  -5346673.01246  23584419.2834   23584421.4734   23584419.469
        40.4004         37.9004
  -4267093.75846  -3312122.12346  23685454.3834   23685457.5944   23685454.692
        39.2004         36.7004
  -8118720.65646  -6310464.96346  23320165.9994   23320170.3064   23320166.101
        39.6004         37.1004
 -23422252.46848 -18240875.86247  20442873.2984   20442872.0024   20442874.192
        48.9004         45.8004
 -16123279.27147 -12525375.74646  21867980.2594   21867981.3834   21867980.618
        44.4004         41.4004
  -8597260.40846  -6521461.87045  23358753.9864   23358757.1124   23358754.979
        37.1004         35.3004
  -3111075.07345  -2415353.43045  24442861.1894   24442864.3964   24442861.854
        35.6004         34.0004
 -20739385.15448 -16103687.85547  20430687.9414   20430688.2164   20430688.381
        48.1004         45.1004
 14 10 27  1  8  0.0000000  0 11G11G27G19G31G24G22G18G21G32G14G04
  -3206366.41646  -1616302.50645  23802191.4574   23802194.2014   23802190.655
        36.3004         34.3004
  -4065237.93046  -3145162.90446  24021298.2174   24021304.3694   24021297.602
        38.9004         36.6004
  -6853311.94946  -5309771.17146  23593430.2034   23593432.8914   23593431.369
        40.4004         37.9004
  -4380785.94546  -3400713.16846  23663818.9324   23663822.3804   23663819.188
        39.4004         37.1004
  -8047964.97246  -6255330.67146  23333630.1944   23333634.5584   23333630.397
        39.6004         37.1004
 -23422228.18248 -18240856.89347  20442877.8874   20442876.3414   20442878.631
        48.8004         45.8004
 -16073203.68547 -12486355.80346  21877509.7884   21877509.6654   21877509.632
        44.2004         41.4004
  -8495264.37946  -6441984.45445  23378164.2314   23378165.4124   23378164.056
        37.6004         35.5004
  -3194079.38145  -2480031.84145  24427067.0264   24427071.7354   24427066.393
        35.7004         34.1004
 -20745727.37848 -16108629.81247  20429481.0514   20429481.2034   20429481.322
        48.1004         45.1004
   -108620.44944    -70680.90443      -139.940        -143.433    24393661.342
        26.4004         22.7004
 14 10 27  1  8 30.0000000  0 11G11G27G19G31G24G22G18G21G32G14G04
  -3284323.06146  -1677047.82645  23787355.1234   23787359.2334   23787355.707
        36.3004         34.3004
  -3985788.03046  -3083253.92546  24036416.9524   24036424.1444   24036416.782
        38.9004         36.6004
  -6805526.95546  -5272536.13346  23602523.1674   23602526.2444   23602524.608
        40.4004         37.6004
  -4494391.10646  -3489236.40346  23642200.7774   23642204.1184   23642200.726
        39.6004         37.3004
  -7976769.59546  -6199853.74246  23347178.7884   23347182.7214   23347178.631
        39.4004         36.9004
 -23421930.73348 -18240625.07347  20442934.0324   20442933.2004   20442935.103
        48.8004         45.8004
 -16022902.33847 -12447159.94246  21887080.9764   21887081.8404   21887081.460
        44.2004         41.2004
  -8393051.91546  -6362338.38145  23397613.4264   23397616.1774   23397614.308
        37.8004         35.5004
  -3277048.39645  -2544682.75245  24411277.0744   24411282.2964   24411277.109
        35.7004         34.1004
 -20751674.14048 -16113263.61747  20428349.2334   20428349.4954   20428349.706
        48.1004         45.1004
   -211287.79844   -150681.64044      -139.940        -143.433    24374123.142
        26.4004         29.6004
 14 10 27  1  9  0.0000000  0 11G11G27G19G31G24G22G18G21G32G14G04
  -3361867.87046  -1737472.20145  23772599.0114   23772601.5194   23772599.959
        36.4004         34.5004
  -3906171.32246  -3021214.97146  24051567.9384   24051574.0984   24051567.053
        38.7004         36.4004
  -6757316.62846  -5234969.65846  23611697.8664   23611700.6754   23611698.474
        40.3004         37.6004
  -4607906.75846  -3577689.88746  23620598.8234   23620602.1164   23620598.930
        39.4004         36.9004
  -7905137.36246  -6144036.42246  23360809.5244   23360813.7594   23360809.403
        39.2004         36.7004
 -23421359.44948 -18240179.87647  20443042.8574   20443041.6154   20443043.759
        48.8004         45.8004
 -15972374.91147 -12407787.91746  21896696.2524   21896696.9844   21896696.504
        44.1004         41.2004
  -8290625.50246  -6282525.59445  23417104.6894   23417106.1354   23417105.315
        37.8004         35.7004
  -3359981.61346  -2609305.76145  24395495.3734   24395500.5114   24395495.226
        36.3004         34.5004
 -20757226.74248 -16117590.28447  20427292.5284   20427292.9404   20427293.004
        48.1004         45.1004
   -313756.18644   -230527.11945      -139.940        -143.433    24354623.988
        26.4004         33.3004
 14 10 27  1  9 30.0000000  0 11G11G27G19G31G24G22G18G21G32G14G04
  -3438998.47546  -1797573.86445  23757920.5554   23757925.4614   23757922.661
        36.6004         34.8004
  -3826390.96546  -2959048.50646  24066749.1354   24066755.4494   24066749.078
        38.7004         36.2004
  -6708683.42546  -5197073.67846  23620953.0234   23620954.4954   23620953.018
        40.1004         37.4004
  -4721329.63046  -3666071.08546  23599014.7804   23599018.9834   23599015.059
        39.4004         36.9004
  -7833070.27346  -6087880.25946  23374524.0874   23374527.8774   23374523.536
        39.2004         36.9004
 -23420513.47648 -18239520.64447  20443204.0584   20443202.6454   20443204.933
        48.8004         45.8004
 -15921621.16347 -12368239.54246  21906354.0444   21906355.0484   21906354.759
        44.1004         41.1004
  -8187987.80746  -6202548.18545  23436636.9174   23436637.4914   23436637.288
        38.0004         35.9004
  -3442878.72546  -2673900.64145  24379720.5034   24379726.2204   24379720.537
        36.4004         34.6004
 -20762385.60248 -16121610.14147  20426310.9264   20426311.0954   20426311.413
        48.1004         45.2004
   -416022.98045   -310215.32745      -139.940    24335167.6574   24335164.877
        34.5004         34.0004
 14 10 27  1 10  0.0000000  0 11G11G27G19G31G24G22G18G21G32G14G04
  -3515712.34546  -1857350.78445  23743323.3634   23743326.3434   23743324.216
        36.8004         34.8004
  -3746450.05346  -2896756.94046  24081961.0724   24081967.9644   24081961.583
        38.5004         36.2004
  -6659629.97646  -5158850.21746  23630286.1404   23630289.8184   23630287.504
        40.1004         37.6004
  -4834656.80846  -3754377.70646  23577450.1584   23577452.5304   23577449.201
        39.4004         36.7004
  -7760570.80646  -6031387.17646  23388319.5524   23388324.1024   23388320.019
        39.2004         36.9004
 -23419392.20848 -18238646.90047  20443417.6684   20443415.8314   20443418.405
        48.8004         45.8004
 -15870641.14747 -12328514.84846  21916055.2214   21916055.9284   21916056.191
        44.1004         41.2004
  -8085140.91146  -6122407.72645  23456208.4644   23456209.5984   23456208.106
        38.0004         35.7004
  -3525739.27646  -2738467.02545  24363951.6024   24363957.9504   24363952.085
        36.8004         34.8004
 -20767152.12248 -16125324.28047  20425403.7064   20425404.1034   20425404.275
        48.1004         45.2004
   -518085.66145   -389744.45145  24315741.6714   24315747.1054   24315741.505
        35.7004         34.3004
 14 10 27  1 10 30.0000000  0 11G11G27G19G31G24G22G18G21G32G14G04
  -3592007.16746  -1916801.19645  23728805.4714   23728807.4994   23728805.797
        37.0004         35.0004
  -3666351.70046  -2834342.67746  24097203.5024   24097210.5674   24097204.297
        38.5004         36.2004
  -6610158.62946  -5120301.14846  23639700.3624   23639703.5964   23639701.385
        40.1004         37.6004
  -4947885.02746  -3842607.23046  23555903.1224   23555905.2994   23555902.313
        39.2004         36.7004
  -7687641.25146  -5974558.96146  23402198.5344   23402202.2264   23402197.556
        39.2004         36.9004
 -23417994.59248 -18237557.81247  20443683.4694   20443681.6824   20443684.374
        48.8004         45.8004
 -15819434.81347 -12288613.81146  21925799.7934   21925800.0404   21925800.314
        44.1004         40.9004
  -7982086.85846  -6042105.87345  23475819.1064   23475820.7034   23475819.161
        38.0004         35.5004
  -3608562.89446  -2803004.61645  24348190.6454   24348196.5314   24348191.610
        37.3004         35.3004
 -20771526.93048 -16128733.18547  20424571.2994   20424571.6774   20424571.759
        48.1004         45.2004
   -619941.53246   -469112.47845  24296358.0084   24296365.3944   24296358.745
        36.1004         34.3004
 14 10 27  1 11  0.0000000  0 11G11G27G19G31G24G22G18G21G32G14G04
  -3667880.78246  -1975923.39045  23714368.5044   23714368.9504   23714367.865
        37.3004         35.2004
  -3586099.01746  -2771808.17746  24112475.0414   24112481.0214   24112474.936
        38.5004         36.0004
  -6560271.83546  -5081428.33746  23649193.5754   23649196.9874   23649194.948
        40.1004         37.6004
  -5061011.67246  -3930757.61846  23534376.4004   23534377.1974   23534375.251
        39.4004         36.9004
  -7614283.80046  -5917397.31746  23416157.2644   23416162.1474   23416157.287
        39.2004         36.7004
 -23416320.02448 -18236252.91947  20444001.9644   20444000.3344   20444002.737
        48.8004         45.6004
 -15768001.80147 -12248536.14146  21935587.1954   21935587.3544   21935587.580
        43.9004         41.1004
  -7878828.28346  -5961644.64545  23495468.1984   23495469.0074   23495468.326
        37.5004         35.2004
  -3691349.19646  -2867513.14845  24332437.2664   24332443.8064   24332438.389
        37.5004         35.3004
 -20775510.94948 -16131837.57847  20423813.2504   20423813.2424   20423813.679
        48.1004         45.2004
   -721587.93246   -548317.26245  24277016.3084   24277021.6384   24277016.051
        36.6004         34.6004
 14 10 27  1 11 30.0000000  0 11G11G27G19G31G24G22G18G21G32G14G04
  -3743330.59546  -2034715.32545  23700008.7524   23700011.4214   23700009.965
        37.5004         35.3004
  -3505695.11246  -2709155.81146  24127776.1884   24127782.0864   24127775.824
        38.3004         36.2004
  -6509971.84946  -5042233.54046  23658766.2804   23658768.3094   23658766.871
        40.1004         37.6004
  -5174033.87146  -4018826.61346  23512867.5794   23512871.0984   23512867.182
        39.2004         36.9004
  -7540501.21546  -5859904.40646  23430197.6784   23430201.8124   23430197.041
        39.0004         36.7004
 -23414368.32948 -18234732.08847  20444373.0784   20444371.9734   20444373.955
        48.6004         45.6004
 -15716341.78147 -12208281.58046  21945417.6144   21945418.5324   21945418.149
        43.7004         40.9004
  -7775367.14846  -5881025.56545  23515156.6154   23515155.8784   23515156.443
        37.1004         35.2004
  -3774097.56746  -2931992.13445  24316690.7514   24316697.0144   24316691.530
        37.6004         35.5004
 -20779105.45248 -16134638.44947  20423129.4984   20423129.6044   20423129.592
        48.1004         45.2004
   -823022.35746   -627356.85745  24257713.5074   24257719.0314   24257713.169
        36.4004         34.8004
 14 10 27  1 12  0.0000000  0 11G11G27G19G31G24G22G18G21G32G14G04
  -3818354.54746  -2093175.43945  23685733.0034   23685736.2824   23685733.275
        37.1004         35.2004
  -3425143.07346  -2646388.04145  24143102.7304   24143110.3614   24143103.814
        38.3004         35.9004
  -6459261.57246  -5002719.05146  23668415.3834   23668418.1194   23668416.695
        40.1004         37.6004
  -5286948.70646  -4106811.96346  23491380.8304   23491382.7124   23491380.464
        39.4004         36.9004
  -7466295.48746  -5802081.77046  23444318.0914   23444322.7864   23444318.239
        39.0004         36.6004
 -23412138.28248 -18232994.35247  20444797.3704   20444796.1304   20444798.417
        48.6004         45.6004
 -15664454.79347 -12167850.14946  21955291.2584   21955292.3694   21955291.837
        43.6004         40.6004
  -7671705.97946  -5800250.62745  23534881.6054   23534882.8824   23534882.158
        36.8004         34.6004
  -3856807.73246  -2996441.36945  24300951.2934   24300957.3604   24300952.016
        37.6004         35.3004
 -20782310.92748 -16137136.17547  20422519.1234   20422519.1074   20422519.493
        48.1004         45.2004
   -924241.98846   -706229.10045  24238451.6134   24238457.0054   24238451.621
        36.4004         34.6004
 14 10 27  1 12 30.0000000  0 11G11G27G19G31G24G22G18G21G32G14G04
  -3892950.28346  -2151301.87245  23671539.5224   23671540.5614   23671538.424
        37.1004         35.2004
  -3344446.06546  -2583507.29345  24158460.3844   24158466.9524   24158459.615
        38.2004         35.7004
  -6408143.26446  -4962886.61046  23678143.2584   23678144.4754   23678144.308
        40.1004         37.6004
  -5399753.05946  -4194711.23446  23469914.9274   23469917.0994   23469914.301
        39.4004         36.7004
  -7391668.87946  -5743931.18346  23458519.9524   23458524.8204   23458519.461
        38.9004         36.6004
 -23409629.28048 -18231039.25947  20445275.1184   20445273.5614   20445275.938
        48.8004         45.8004
 -15612340.09847 -12127241.30346  21965208.3524   21965208.3964   21965208.778
        43.6004         40.6004
  -7567847.07646  -5719321.60145  23554644.1364   23554647.3374   23554645.811
        36.4004         34.1004
  -3939479.16846  -3060860.43445  24285219.7504   24285224.7724   24285219.908
        37.6004         35.5004
 -20785128.28148 -16139331.47447  20421983.0714   20421983.1914   20421983.226
        48.1004         45.2004
  -1025244.36846   -784932.06645  24219230.7094   24219236.2514   24219231.180
        36.6004         34.5004
 14 10 27  1 13  0.0000000  0 11G11G27G19G31G24G22G18G21G32G14G04
  -3967115.54146  -2209092.86945  23657423.9894   23657427.5914   23657424.846
        37.3004         35.3004
  -3263607.12446  -2520515.95545  24173843.0244   24173850.6854   24173843.033
        38.0004         35.7004
  -6356619.54246  -4922738.26846  23687947.5744   23687949.5574   23687949.289
        40.1004         37.6004
  -5512444.06546  -4282522.17446  23448469.9774   23448470.8484   23448469.801
        39.4004         36.9004
  -7316624.39046  -5685454.96446  23472800.9974   23472805.3164   23472800.251
        39.0004         36.7004
 -23406840.82348 -18228866.40847  20445805.8614   20445804.4584   20445806.776
        48.8004         45.8004
 -15559997.89247 -12086455.16946  21975168.4404   21975169.1364   21975169.091
        43.6004         40.6004
  -7463792.96645  -5638240.47545  23574445.7454   23574447.5554   23574446.541
        35.9004         33.8004
  -4022111.51646  -3125249.04245  24269494.5414   24269499.7134   24269494.908
        37.5004         35.3004
 -20787558.89548 -16141225.42647  20421520.1544   20421520.7014   20421520.816
        48.1004         45.1004
  -1126026.85446   -863463.66345  24200053.9324   24200059.2164   24200052.781
        36.4004         34.5004
 14 10 27  1 13 30.0000000  0 11G11G27G19G31G24G22G18G21G32G14G04
  -4040847.88646  -2266546.50745  23643393.2524   23643396.0924   23643393.998
        37.1004         35.0004
  -3182629.41546  -2457416.51145  24189253.8344   24189259.2394   24189253.435
        38.2004         35.9004
  -6304692.88046  -4882275.94646  23697829.4534   23697830.8554   23697830.317
        40.1004         37.3004
  -5625018.55146  -4370242.33846  23427047.8574   23427050.7134   23427047.518
        39.2004         36.9004
  -7241163.95546  -5626654.64246  23487160.5364   23487163.5584   23487160.296
        39.2004         36.7004
 -23403772.04948 -18226475.12547  20446389.5344   20446388.2024   20446390.418
        48.8004         45.8004
 -15507428.28147 -12045491.83546  21985172.3474   21985172.9754   21985172.958
        43.4004         40.6004
  -7359545.58345  -5557008.72245  23594281.9374   23594285.3404   23594283.687
        35.9004         34.0004
  -4104704.23146  -3189606.77345  24253777.9684   24253784.1394   24253777.906
        37.1004         34.8004
 -20789603.72448 -16142818.76247  20421131.3204   20421131.4604   20421131.665
        48.1004         45.2004
  -1226586.69046   -941821.79845  24180918.0454   24180921.8884   24180916.912
        36.4004         34.5004
 14 10 27  1 14  0.0000000  0 11G11G27G19G31G24G22G18G21G32G14G04
  -4114145.08746  -2323661.08345  23629445.7834   23629448.9864   23629445.810
        37.1004         35.0004
  -3101515.98746  -2394211.30445  24204688.5404   24204695.1524   24204688.089
        38.0004         35.7004
  -6252365.63546  -4841501.46646  23707786.3734   23707789.3994   23707787.701
        39.9004         37.4004
  -5737473.74446  -4457869.54146  23405648.5704   23405651.2104   23405648.003
        39.4004         37.3004
  -7165290.47846  -5567532.44746  23501598.9374   23501601.5774   23501598.250
        39.2004         36.7004
 -23400422.28248 -18223864.89947  20447027.0604   20447025.9184   20447027.998
        48.8004         45.8004
 -15454630.87047 -12004350.99646  21995219.5084   21995220.8014   21995220.031
        43.4004         40.4004
  -7255107.37745  -5475628.30645  23614158.4394   23614160.2534   23614158.199
        35.9004         34.1004
  -4187256.91746  -3253933.33045  24238067.1274   24238074.1164   24238068.201
        36.8004         34.8004
 -20791263.70848 -16144112.22047  20420815.3914   20420815.5744   20420815.694
        48.1004         45.1004
  -1326921.27946  -1020004.44145  24161822.8034   24161827.7004   24161823.541
        36.4004         34.5004
 14 10 27  1 14 30.0000000  0 11G11G27G19G31G24G22G18G21G32G14G04
  -4187004.94946  -2380434.87845  23615580.6064   23615581.9784   23615580.625
        37.0004         35.0004
  -3020269.99946  -2330902.78745  24220149.5604   24220156.5604   24220148.957
        38.0004         35.7004
  -6199640.78346  -4800417.16946  23717820.1904   23717822.5114   23717820.965
        39.9004         37.4004
  -5849806.69646  -4545401.50346  23384271.6054   23384273.2174   23384271.355
        39.6004         37.1004
  -7089005.85046  -5508089.88946  23516114.5744   23516118.6774   23516114.613
        39.0004         36.7004
 -23396790.78248 -18221035.13847  20447718.0444   20447716.6824   20447718.968
        48.8004         45.8004
 -15401605.45847 -11963032.48746  22005309.5734   22005310.2674   22005310.304
        43.2004         40.2004
  -7150480.88945  -5394101.13445  23634066.6164   23634069.3414   23634067.357
        35.9004         34.3004
  -4269769.05046  -3318228.28245  24222366.3604   24222370.6574   24222366.088
        36.6004         34.6004
 -20792539.41048 -16145106.23747  20420572.5654   20420572.5684   20420572.819
        48.1004         45.1004
  -1427028.03346  -1098009.54745  24142774.6864   24142779.8484   24142773.923
        36.4004         34.6004
 14 10 27  1 15  0.0000000  0 11G11G27G19G31G24G22G18G21G32G14G04
  -4259425.08846  -2436866.01645  23601799.2064   23601801.6984   23601799.855
        37.0004         34.8004
  -2938894.56746  -2267493.40745  24235635.5804   24235642.1364   24235634.702
        37.8004         35.5004
  -6146520.85146  -4759025.02646  23727928.5854   23727931.1764   23727929.367
        39.9004         37.4004
  -5962014.25146  -4632835.73846  23362918.4124   23362921.7534   23362918.413
        39.6004         37.3004
  -7012312.59146  -5448328.93146  23530709.1364   23530712.8234   23530708.463
        38.9004         36.6004
 -23392876.64748 -18217985.14347  20448463.0984   20448461.6194   20448463.852
        48.8004         45.8004
 -15348351.78547 -11921536.12646  22015444.1304   22015445.0644   22015444.152
        43.2004         40.6004
  -7045668.18446  -5312428.90045  23654013.1064   23654015.2154   23654012.670
        36.4004         34.8004
  -4352240.21046  -3382491.34645  24206671.4344   24206677.9884   24206672.480
        36.6004         34.6004
 -20793432.21647 -16145801.89847  20420402.4154   20420402.8374   20420402.921
        47.9004         45.1004
  -1526904.06046  -1175834.87945  24123768.3684   24123772.7424   24123767.971
        36.3004         34.3004
 14 10 27  1 15 30.0000000  0 11G11G27G19G31G24G22G18G21G32G14G04
  -4331403.37446  -2492952.88045  23588102.5984   23588105.2654   23588102.591
        37.1004         35.3004
  -2857392.74546  -2203985.53745  24251143.3354   24251151.2374   24251143.841
        38.0004         35.9004
  -6093008.19546  -4717326.85746  23738111.5954   23738114.7824   23738112.591
        39.9004         37.4004
  -6074093.56246  -4720170.04946  23341590.7074   23341592.8964   23341590.738
        39.7004         37.4004
  -6935213.14546  -5388251.45346  23545380.5984   23545384.6904   23545379.703
        38.7004         36.2004
 -23388679.64248 -18214714.72647  20449261.5414   20449260.0704   20449262.442
        48.9004         45.8004
 -15294869.87647 -11879861.90146  22025620.7094   22025621.7144   22025621.347
        43.0004         40.2004
  -6940671.96346  -5230613.65545  23673992.6894   23673993.3784   23673993.287
        37.0004         35.0004
  -4434669.88846  -3446722.05145  24190986.6274   24190990.6314   24190987.306
        37.0004         34.6004
 -20793943.18547 -16146200.02347  20420305.2634   20420305.3204   20420305.685
        47.9004         45.1004
  -1626546.97646  -1253478.56145  24104805.9554   24104811.9534   24104806.701
        36.8004         34.8004
 14 10 27  1 16  0.0000000  0 11G11G27G19G31G24G22G18G21G32G14G04
  -4402937.52846  -2548693.63145  23574489.0264   23574492.6184   23574489.770
        37.3004         35.3004
  -2775767.64646  -2140381.60045  24266676.3764   24266684.2014   24266676.168
        38.0004         35.7004
  -6039105.55046  -4675324.81446  23748368.9084   23748370.7894   23748369.804
        39.9004         37.4004
  -6186041.59846  -4807402.06546  23320287.2374   23320289.4594   23320287.272
        39.9004         37.6004
  -6857710.02646  -5327859.43046  23560127.9904   23560132.1434   23560128.004
        38.7004         36.2004
 -23384199.06848 -18211223.34447  20450114.1034   20450112.7234   20450115.056
        48.9004         45.9004
 -15241159.69347 -11838009.81046  22035841.7484   22035842.6934   22035842.167
        43.0004         40.4004
  -6835493.96646  -5148656.75845  23694007.6774   23694008.5574   23694007.444
        37.1004         35.2004
  -4517057.62646  -3510920.08745  24175309.3854   24175313.9164   24175309.595
        37.0004         34.6004
 -20794073.17047 -16146301.26947  20420280.6254   20420280.8384   20420280.922
        47.9004         45.1004
  -1725953.96246  -1330938.44045  24085890.8664   24085895.0244   24085890.059
        36.8004         34.6004
 14 10 27  1 16 30.0000000  0 11G11G27G19G31G24G22G18G21G32G14G04
  -4474025.54346  -2604086.75745  23560961.1974   23560964.8664   23560962.311
        37.5004         35.5004
  -2694022.38346  -2076684.03146  24282231.5534   24282239.6784   24282232.292
        38.3004         36.0004
  -5984815.30046  -4633020.72746  23758699.6574   23758702.8294   23758700.743
        39.7004         37.1004
  -6297855.43846  -4894529.53746  23299010.3764   23299011.5974   23299010.002
        40.4004         38.1004
  -6779805.52446  -5267154.64446  23574953.9744   23574956.9254   23574953.301
        38.7004         36.2004
 -23379433.79048 -18207510.11447  20451020.6354   20451019.8104   20451021.664
        48.8004         45.8004
 -15187220.71047 -11795979.43546  22046105.8044   22046107.4254   22046106.566
        42.9004         39.9004
  -6730136.89146  -5066560.32545  23714055.6704   23714058.2074   23714056.982
        37.6004         35.7004
  -4599402.88646  -3575085.01645  24159640.2044   24159643.7304   24159639.632
        36.8004         34.8004
 -20793823.24847 -16146106.49447  20420327.9824   20420328.1074   20420328.518
        47.9004         45.1004
  -1825122.31746  -1408212.36045  24067018.7834   24067023.6224   24067018.773
        36.6004         34.6004
 14 10 27  1 17  0.0000000  0 11G11G27G19G31G24G22G18G21G32G14G04
  -4544665.11646  -2659130.43945  23547519.1144   23547520.6974   23547519.689
        37.5004         35.2004
  -2612160.01646  -2012895.21346  24297810.1204   24297818.0474   24297810.271
        38.5004         36.2004
  -5930140.05446  -4590416.65446  23769104.0974   23769106.3724   23769104.682
        39.6004         37.1004
  -6409532.16046  -4981550.15246  23277758.6064   23277760.5914   23277757.997
        40.6004         38.1004
  -6701502.17346  -5206139.07546  23589854.4014   23589857.2894   23589854.059
        38.7004         36.6004
 -23374382.94148 -18203574.36647  20451981.9414   20451980.6214   20451982.767
        48.8004         45.8004
 -15133053.00747 -11753770.84146  22056413.6114   22056414.5354   22056414.291
        42.9004         40.0004
  -6624603.12946  -4984326.22845  23734138.4334   23734140.7564   23734138.755
        37.8004         35.3004
  -4681705.24046  -3639216.53845  24143976.3444   24143982.3204   24143977.216
        36.8004         34.6004
 -20793194.55447 -16145616.57547  20420447.9024   20420447.6684   20420448.095
        47.9004         45.1004
  -1924049.52046  -1485298.35345  24048192.5394   24048198.3924   24048194.123
        36.6004         34.6004
 14 10 27  1 17 30.0000000  0 11G11G27G19G31G24G22G18G21G32G14G04
  -4614853.89546  -2713822.85845  23534162.1824   23534165.6474   23534163.164
        37.5004         35.3004
  -2530183.66546  -1949017.56846  24313410.0124   24313416.2814   24313410.012
        38.3004         36.0004
  -5875082.68446  -4547514.81646  23779580.8024   23779584.0394   23779582.180
        39.6004         37.1004
  -6521068.66646  -5068461.53346  23256533.7634   23256535.5614   23256533.495
        40.8004         38.3004
  -6622802.78846  -5144814.90446  23604831.1274   23604833.7394   23604829.675
        38.7004         36.4004
 -23369046.40748 -18199415.99947  20452997.6824   20452996.4434   20452998.482
        48.9004         45.8004
 -15078656.32447 -11711383.81746  22066766.2254   22066765.4274   22066765.610
        42.7004         39.5004
  -6518894.86146  -4901956.16945  23754254.1644   23754257.2874   23754255.127
        37.6004         35.5004
  -4763964.26946  -3703314.28145  24128323.3254   24128329.2504   24128324.023
        37.0004         35.0004
 -20792187.89947 -16144832.13447  20420639.2334   20420639.2274   20420639.767
        47.9004         45.1004
  -2022732.80046  -1562194.29245  24029415.5234   24029419.6034   24029414.888
        36.4004         34.5004
 14 10 27  1 18  0.0000000  0 11G11G27G19G31G24G22G18G21G32G14G04
  -4684589.91546  -2768162.49745  23520892.6954   23520894.6244   23520893.126
        37.5004         35.3004
  -2448096.40546  -1885053.51046  24329029.9474   24329037.1104   24329030.023
        38.3004         36.0004
  -5819645.88846  -4504317.32046  23790130.4014   23790133.0614   23790131.290
        39.6004         37.3004
  -6632462.11746  -5155261.43046  23235335.8354   23235337.7914   23235335.679
        40.8004         38.1004
  -6543709.69746  -5083183.93646  23619881.3854   23619885.3354   23619880.932
        38.7004         36.2004
 -23363423.42048 -18195034.42347  20454067.6284   20454066.1994   20454068.485
        48.8004         45.8004
 -15024030.76047 -11668818.43346  22077159.2614   22077160.1254   22077160.228
        42.5004         39.7004
  -6413014.53346  -4819452.00145  23774402.3084   23774405.2524   23774403.074
        37.6004         35.2004
  -4846179.30546  -3767377.75345  24112679.1974   24112683.1794   24112678.995
        37.0004         34.8004
 -20790804.42047 -16143754.06347  20420902.8584   20420902.5464   20420903.154
        47.9004         45.1004
  -2121169.45946  -1638898.04245  24010683.4124   24010686.2504   24010683.291
        36.1004         34.1004
 14 10 27  1 18 30.0000000  0 11G11G27G19G31G24G22G18G21G32G14G04
  -4753870.89346  -2822147.54045  23507708.8444   23507711.1314   23507708.921
        37.5004         35.3004
  -2365901.30346  -1821005.41246  24344671.8324   24344680.4374   24344671.223
        38.3004         36.0004
  -5763832.34746  -4460826.25846  23800750.8494   23800754.5084   23800752.156
        39.7004         37.3004
  -6743709.50846  -5241947.53946  23214166.4004   23214168.8544   23214166.395
        40.8004         38.3004
  -6464224.99946  -5021247.83646  23635006.4924   23635010.5704   23635006.224
        38.5004         36.2004
 -23357513.29448 -18190429.10647  20455191.9334   20455190.7794   20455192.932
        48.8004         45.8004
 -14969175.73947 -11626074.27146  22087597.8274   22087599.2874   22087599.054
        42.5004         39.9004
  -6306964.59746  -4736815.70345  23794583.9714   23794587.2384   23794583.593
        37.3004         35.0004
  -4928349.98646  -3831406.67245  24097041.0024   24097046.9094   24097041.412
        37.0004         35.0004
 -20789045.27448 -16142383.27147  20421237.4054   20421237.3004   20421237.714
        48.1004         45.1004
  -2219356.95446  -1715407.62545  23991998.7814   23992003.2804   23991998.374
        36.1004         34.1004
 14 10 27  1 19  0.0000000  0 11G11G27G19G31G24G22G18G21G32G14G04
  -4822694.59246  -2875776.28345  23494612.2644   23494614.0514   23494612.230
        37.5004         35.3004
  -2283601.53246  -1756875.75146  24360333.0564   24360338.6334   24360332.634
        38.2004         36.0004
  -5707644.06746  -4417043.18846  23811443.2264   23811446.4184   23811444.431
        39.7004         37.3004
  -6854807.90946  -5328517.54746  23193025.3014   23193026.3044   23193024.584
        40.8004         38.3004
  -6384351.39846  -4959008.68546  23650205.2694   23650210.7734   23650205.411
        38.3004         36.0004
 -23351315.06048 -18185599.29647  20456371.4184   20456370.2714   20456372.345
        48.8004         45.8004
 -14914091.32447 -11583151.35546  22098080.9674   22098081.8724   22098081.300
        42.5004         39.5004
  -6200747.37446  -4654049.03245  23814795.3834   23814798.0114   23814796.696
        37.0004         34.8004
  -5010475.70246  -3895400.51845  24081414.2144   24081418.3574   24081414.015
        37.3004         35.0004
 -20786911.33148 -16140720.42147  20421643.2214   20421643.5844   20421643.753
        48.1004         45.1004
  -2317292.49046  -1791720.87145  23973361.0144   23973364.9644   23973361.535
        36.3004         34.1004
 14 10 27  1 19 30.0000000  0 11G11G27G19G31G24G22G18G21G32G14G04
  -4891058.85346  -2929047.01745  23481601.7144   23481604.9194   23481602.172
        37.5004         35.3004
  -2201200.09046  -1692666.86245  24376012.2474   24376020.6784   24376013.022
        38.2004         35.9004
  -5651084.44846  -4372970.76546  23822206.9614   23822209.9884   23822207.690
        39.7004         37.4004
  -6965754.29346  -5414969.11346  23171912.8304   23171914.1084   23171912.675
        40.9004         38.3004
  -6304091.89946  -4896468.84746  23665478.5744   23665482.5094   23665478.925
        38.3004         36.2004
 -23344828.26848 -18180544.64447  20457605.8784   20457604.5714   20457606.833
        48.8004         45.8004
 -14858777.35647 -11540049.55546  22108606.5314   22108607.0774   22108607.230
        42.5004         39.5004
  -6094365.04446  -4571153.71345  23835040.4504   23835041.6954   23835040.473
        36.6004         34.6004
  -5092555.97646  -3959358.97045  24065793.5984   24065799.0584   24065794.250
        37.3004         35.0004
 -20784403.91748 -16138766.56647  20422120.5544   20422120.4714   20422120.777
        48.1004         45.1004
  -2414973.47646  -1867835.76845  23954773.8604   23954778.0474   23954773.053
        36.1004         34.3004
 14 10 27  1 20  0.0000000  0 11G11G27G19G31G24G22G18G21G32G14G04
  -4958961.71246  -2981958.20545  23468680.4164   23468681.6384   23468680.854
        37.5004         35.5004
  -2118700.06946  -1628381.16946  24391712.3114   24391719.9274   24391712.122
        38.3004         36.0004
  -5594155.90446  -4328610.86246  23833040.1294   23833042.5544   23833040.665
        39.7004         37.3004
  -7076545.46046  -5501299.74646  23150828.6804   23150830.5294   23150829.290
        40.8004         38.1004
  -6223448.73246  -4833630.03246  23680825.2714   23680828.7074   23680824.606
        38.3004         36.0004
 -23338052.24348 -18175264.60647  20458895.1594   20458894.1054   20458896.247
        48.8004         45.8004
 -14803233.55147 -11496768.67846  22119175.7244   22119176.3824   22119176.962
        42.5004         39.7004
  -5987820.04246  -4488131.61645  23855312.3214   23855315.4914   23855314.101
        36.1004         34.0004
  -5174590.44346  -4023281.72745  24050182.5794   24050188.6294   24050183.918
        37.3004         35.0004
 -20781523.93748 -16136522.39347  20422668.6474   20422668.4994   20422669.119
        48.1004         45.1004
  -2512397.10946  -1943750.13345  23936233.6434   23936237.0794   23936233.625
        36.3004         34.3004
 14 10 27  1 20 30.0000000  0 11G11G27G19G31G24G22G18G21G32G14G04
  -5026401.28546  -3034508.40745  23455848.0874   23455849.2994   23455847.615
        37.6004         35.5004
  -2036104.58346  -1564021.07745  24407430.0054   24407436.5804   24407430.283
        38.3004         35.9004
  -5536861.24546  -4283965.68246  23843942.7994   23843945.4144   23843943.936
        39.7004         37.3004
  -7187178.66746  -5587507.27946  23129776.7314   23129779.0194   23129776.613
        40.8004         37.9004
  -6142424.13846  -4770494.01246  23696243.2134   23696247.1824   23696243.405
        38.5004         36.4004
 -23330986.26348 -18169758.62047  20460240.1594   20460238.6044   20460240.818
        48.8004         45.6004
 -14747460.02047 -11453308.78946  22129790.5994   22129790.0274   22129790.338
        42.5004         39.5004
  -5881115.00445  -4404984.86845  23875618.9784   23875622.8254   23875619.676
        35.6004         33.8004
  -5256578.34446  -4087168.23345  24034580.6934   24034585.2614   24034582.015
        37.3004         35.0004
 -20778272.51648 -16133988.79247  20423287.2424   20423287.3514   20423287.594
        48.1004         45.2004
  -2609560.81446  -2019461.94745  23917744.8224   23917747.8734   23917744.434
        36.6004         34.6004
 14 10 27  1 21  0.0000000  0 11G11G27G19G31G24G22G18G21G32G14G04
  -5093375.03146  -3086695.61245  23443101.5374   23443104.1834   23443102.510
        37.8004         35.5004
  -1953416.66846  -1499588.96645  24423165.7144   24423171.2254   24423165.149
        38.2004         35.9004
  -5479202.98746  -4239037.17346  23854914.4554   23854916.5784   23854915.878
        39.7004         37.1004
  -7297650.87246  -5673589.36946  23108753.9364   23108755.1684   23108753.702
        40.6004         37.9004
  -6061020.41446  -4707062.55246  23711735.4184   23711737.4174   23711734.205
        38.7004         36.4004
 -23323629.22848 -18164025.84047  20461639.7454   20461638.4124   20461640.823
        48.6004         45.6004
 -14691456.83847 -11409669.94446  22140446.7904   22140446.4014   22140447.502
        42.5004         39.9004
  -5774252.00845  -4321714.98645  23895954.3204   23895957.0984   23895955.535
        35.6004         34.0004
  -5338519.31946  -4151018.14645  24018987.6654   24018993.2404   24018989.519
        37.3004         35.2004
 -20774650.38548 -16131166.32847  20423976.4134   20423976.5874   20423976.733
        48.1004         45.2004
  -2706461.81346  -2094969.05645  23899304.6304   23899308.3274   23899304.726
        37.0004         35.2004
 14 10 27  1 21 30.0000000  0 11G11G27G19G31G24G22G18G21G32G14G04
  -5159880.92846  -3138518.26845  23430448.4814   23430449.8794   23430447.328
        37.8004         35.5004
  -1870639.41946  -1435087.23346  24438917.1614   24438923.7844   24438917.000
        38.3004         36.0004
  -5421183.95146  -4193827.53946  23865955.4454   23865957.9194   23865956.396
        39.6004         37.1004
  -7407959.08546  -5759543.68846  23087763.5374   23087764.3954   23087762.649
        40.4004         37.8004
  -5979240.37046  -4643337.87446  23727296.6604   23727300.1874   23727296.174
        38.7004         36.4004
 -23315980.97548 -18158066.13347  20463095.2994   20463093.9874   20463096.404
        48.6004         45.6004
 -14635223.72247 -11365851.93346  22151149.0194   22151148.1074   22151148.335
        42.5004         39.7004
  -5667233.60145  -4238324.02645  23916318.1184   23916322.9664   23916320.548
        35.4004         33.6004
  -5420412.70346  -4214830.99245  24003405.6184   24003410.6814   24003405.034
        37.3004         35.2004
 -20770659.14848 -16128056.24247  20424735.9124   20424736.0174   20424736.403
        48.1004         45.2004
  -2803097.50546  -2170269.43045  23880916.4874   23880917.3274   23880915.780
        37.1004         35.0004
 14 10 27  1 22  0.0000000  0 11G11G27G19G31G24G22G18G21G32G14G04
  -5225917.10746  -3189974.92545  23417881.6894   23417882.0324   23417881.014
        38.0004         35.7004
  -1787775.86646  -1370518.26845  24454685.4804   24454693.2054   24454685.271
        38.0004         35.7004
  -5362806.99446  -4148339.00246  23877063.9424   23877066.2804   23877065.119
        39.7004         37.3004
  -7518100.49446  -5845368.02146  23066803.6824   23066806.0094   23066803.217
        40.4004         37.8004
  -5897087.24846  -4579322.48346  23742929.5024   23742934.9524   23742929.178
        38.7004         36.4004
 -23308040.65448 -18151878.85547  20464606.3754   20464605.0494   20464607.280
        48.6004         45.6004
 -14578760.50147 -11321854.61946  22161892.5224   22161892.8994   22161892.708
        42.5004         39.5004
  -5560062.14545  -4154813.78545  23936713.6544   23936714.7914   23936714.259
        35.6004         33.8004
  -5502258.03546  -4278606.39745  23987829.4074   23987834.8094   23987830.109
        37.5004         35.3004
 -20766299.75348 -16124659.27947  20425565.4674   20425565.6074   20425565.822
        48.1004         45.2004
  -2899465.31546  -2245361.07045  23862577.2384   23862580.3564   23862577.300
        37.3004         35.2004
 14 10 27  1 22 30.0000000  0 11G11G27G19G31G24G22G18G21G32G14G04
  -5291481.44146  -3241063.90745  23405403.7864   23405404.7314   23405404.109
        38.0004         35.7004
  -1704829.15946  -1305884.50545  24470468.8374   24470477.2934   24470468.641
        37.6004         35.3004
  -5304074.75046  -4102573.61046  23888240.5174   23888243.0244   23888241.736
        39.7004         37.3004
  -7628071.97846  -5931059.95546  23045876.4464   23045877.8574   23045876.534
        40.3004         37.9004
  -5814562.69746  -4515017.66446  23758633.1384   23758637.9254   23758633.130
        38.7004         36.4004
 -23299807.60248 -18145463.47147  20466172.9964   20466171.5734   20466173.998
        48.6004         45.6004
 -14522067.06447 -11277677.89846  22172680.4394   22172680.2344   22172681.253
        42.3004         39.5004
  -5452739.96145  -4071186.08345  23957136.9174   23957138.5354   23957136.994
        35.4004         33.8004
  -5584054.76446  -4342343.94645  23972264.0354   23972269.3644   23972264.392
        37.8004         35.7004
 -20761573.38148 -16120976.37447  20426464.6884   20426464.8344   20426465.088
        48.1004         45.2004
  -2995562.65246  -2320241.95045  23844290.8954   23844294.4044   23844290.480
        37.1004         35.2004
 14 10 27  1 23  0.0000000  0 11G11G27G19G31G24G22G18G21G32G14G04
  -5356572.02246  -3291783.72445  23393017.8824   23393019.6984   23393018.033
        37.8004         35.5004
  -1621802.32046  -1241188.29045  24486268.5014   24486277.6664   24486268.588
        37.6004         35.5004
  -5244989.88146  -4056533.46046  23899484.6774   23899486.1314   23899485.250
        39.6004         37.3004
  -7737870.42846  -6016617.04246  23024983.7354   23024984.7264   23024982.670
        40.3004         37.9004
  -5731669.40446  -4450425.51946  23774407.3074   23774412.4564   23774407.154
        38.5004         36.2004
 -23291281.04148 -18138819.37347  20467795.3404   20467794.3714   20467796.349
        48.6004         45.6004
 -14465143.25147 -11233321.70046  22183512.9114   22183512.3934   22183513.482
        42.2004         39.5004
  -5345269.55945  -3987442.89045  23977587.2934   23977590.5444   23977587.622
        35.4004         33.8004
  -5665802.36346  -4406043.20245  23956706.3604   23956713.1154   23956707.954
        38.2004         35.9004
 -20756480.91548 -16117008.19247  20427433.6724   20427433.9364   20427434.214
        48.1004         45.2004
  -3091386.42046  -2394909.66245  23826055.5944   23826057.5414   23826055.388
        37.1004         35.2004
 14 10 27  1 23 30.0000000  0 11G11G27G19G31G24G22G18G21G32G14G04
  -5421186.32846  -3342132.41545  23380721.8554   23380724.7104   23380722.246
        37.8004         35.7004
  -1538698.37246  -1176432.01145  24502083.7934   24502089.6944   24502083.197
        37.6004         35.7004
  -5185555.30046  -4010220.81146  23910793.9484   23910795.2264   23910794.853
        39.6004         37.1004
  -7847493.11046  -6102037.18146  23004121.3134   23004123.4284   23004121.960
        40.4004         37.8004
  -5648410.03846  -4385548.13946  23790251.5804   23790256.2994   23790251.082
        38.5004         36.2004
 -23282460.52248 -18131946.22147  20469473.6844   20469472.6264   20469474.705
        48.6004         45.6004
 -14407989.15047 -11188786.03546  22194388.5324   22194389.7584   22194389.543
        42.2004         39.5004
  -5237653.07845  -3903585.85145  23998067.2044   23998067.6164   23998066.700
        35.6004         34.0004
  -5747500.26646  -4469703.71945  23941160.8434   23941166.2674   23941161.152
        38.0004         35.7004
 -20751023.33548 -16112755.49947  20428472.5714   20428472.2094   20428472.888
        48.1004         45.2004
  -3186934.23546  -2469362.34245  23807873.5734   23807876.8634   23807873.553
        37.1004         35.2004
 14 10 27  1 24  0.0000000  0 11G11G27G19G31G24G22G18G21G32G14G04
  -5485322.65246  -3392108.65445  23368517.5064   23368519.5004   23368516.706
        37.8004         35.5004
  -1455520.42846  -1111618.07145  24517911.4604   24517918.3414   24517911.233
        38.0004         35.7004
  -5125773.47446  -3963637.57146  23922170.3074   23922172.4634   23922171.540
        39.6004         37.1004
  -7956936.77646  -6187317.82646  22983294.9764   22983296.7684   22983295.340
        40.4004         37.9004
  -5564787.14546  -4320387.47546  23806164.2584   23806168.0994   23806163.804
        38.5004         36.2004
 -23273345.15848 -18124843.31447  20471208.5694   20471207.0344   20471209.536
        48.6004         45.4004
 -14350604.53247 -11144070.74846  22205309.8804   22205308.9094   22205309.492
        42.0004         39.3004
  -5129893.20045  -3819617.05545  24018572.4364   24018572.5684   24018572.784
        35.7004         34.1004
  -5829147.81846  -4533325.01145  23925623.7234   23925628.0594   23925624.422
        38.2004         35.9004
 -20745202.19948 -16108219.51947  20429579.9884   20429580.3264   20429580.505
        48.1004         45.2004
  -3282203.16546  -2543597.70045  23789743.4074   23789748.2644   23789743.752
        37.1004         35.0004
 14 10 27  1 24 30.0000000  0 11G11G27G19G31G24G22G18G21G32G14G04
  -5548979.04946  -3441710.93345  23356403.2874   23356405.7884   23356403.785
        37.8004         35.7004
  -1372271.50146  -1046748.83146  24533752.8304   24533760.6914   24533753.604
        38.2004         36.0004
  -5065647.43946  -3916786.12846  23933611.8914   23933613.6354   23933612.838
        39.6004         37.1004
  -8066198.39246  -6272456.61846  22962503.2174   22962504.4584   22962503.502
        40.6004         38.1004
  -5480803.30946  -4254945.55246  23822145.7064   23822150.4704   23822146.049
        38.5004         36.2004
 -23263934.42548 -18117510.25347  20472999.5634   20472998.1574   20473000.420
        48.6004         45.4004
 -14292989.29447 -11099175.76146  22216271.8594   22216272.4774   22216273.344
        42.0004         39.5004
  -5021992.16645  -3735538.30245  24039105.7114   24039105.1844   24039105.692
        35.7004         33.8004
  -5910744.52846  -4596906.66745  23910096.1074   23910101.9004   23910096.983
        38.2004         35.9004
 -20739018.61748 -16103401.11347  20430757.0294   20430756.6854   20430757.061
        48.1004         45.2004
  -3377190.83046  -2617613.91145  23771669.0964   23771671.1054   23771668.354
        37.1004         35.0004
 14 10 27  1 25  0.0000000  0 11G11G27G19G31G24G22G18G21G32G14G04
  -5612153.48246  -3490937.63645  23344382.4244   23344384.2734   23344381.920
        37.8004         35.7004
  -1288954.68146   -981826.68445  24549608.9414   24549615.6714   24549608.290
        38.2004         35.9004
  -5005179.98246  -3869668.63946  23945117.9344   23945119.7684   23945119.441
        39.6004         37.1004
  -8175275.45146  -6357451.60346  22941747.2464   22941748.1334   22941746.684
        40.6004         38.1004
  -5396461.14046  -4189224.41246  23838196.3094   23838200.2234   23838195.246
        38.5004         36.4004
 -23254227.51248 -18109946.41247  20474846.6574   20474844.7524   20474847.717
        48.6004         45.4004
 -14235143.34747 -11054101.00346  22227281.0084   22227280.8024   22227281.024
        42.0004         39.2004
  -4913952.39645  -3651351.45045  24059662.9884   24059665.9904   24059665.001
        35.7004         34.0004
  -5992289.89046  -4660448.32846  23894579.1554   23894584.0044   23894579.808
        38.3004         36.2004
 -20732473.51248 -16098301.00647  20432002.0514   20432002.4334   20432002.650
        48.1004         45.2004
  -3471894.30046  -2691408.67145  23753646.1194   23753650.5294   23753646.473
        37.1004         35.2004
 14 10 27  1 25 30.0000000  0 11G11G27G19G31G24G22G18G21G32G14G04
  -5674844.13146  -3539787.35345  23332453.0394   23332453.7624   23332452.194
        37.8004         35.9004
  -1205572.97946   -916853.97345  24565475.4154   24565481.8624   24565475.505
        38.2004         35.9004
  -4944373.72346  -3822287.14146  23956689.5304   23956692.0084   23956690.188
        39.4004         36.7004
  -8284164.58746  -6442300.14446  22921024.9854   22921027.8334   22921025.208
        40.6004         38.1004
  -5311763.27346  -4123226.10846  23854314.0184   23854316.3954   23854313.106
        38.7004         36.4004
 -23244223.86348 -18102151.34347  20476750.0294   20476748.5884   20476750.892
        48.4004         45.4004
 -14177066.44547 -11008846.28146  22238331.4194   22238332.2124   22238332.673
        42.0004         39.2004
  -4805776.09345  -3567058.21645  24080250.1974   24080252.1264   24080249.953
        35.7004         34.0004
  -6073783.22246  -4723949.44346  23879070.8784   23879076.2444   23879072.222
        38.7004         36.4004
 -20725567.93148 -16092920.01647  20433315.9384   20433316.3424   20433316.763
        48.1004         45.2004
  -3566311.24746  -2764980.15945  23735678.8744   23735683.3074   23735679.405
        37.3004         35.2004
 14 10 27  1 26  0.0000000  0 11G11G27G19G31G24G22G18G21G32G14G04
  -5737048.87946  -3588258.46645  23320614.5434   23320616.8394   23320614.971
        38.0004         35.9004
  -1122129.39646   -851833.04745  24581355.1714   24581360.8274   24581354.293
        37.8004         35.5004
  -4883231.51946  -3774643.86646  23968324.5274   23968326.9904   23968325.210
        39.2004         36.7004
  -8392862.89346  -6527000.00246  22900340.8264   22900342.3774   22900340.857
        40.8004         38.3004
  -5226712.17246  -4056952.55146  23870498.0944   23870502.1724   23870498.083
        38.7004         36.4004
 -23233922.82348 -18094124.54847  20478710.2784   20478708.7094   20478711.302
        48.4004         45.4004
 -14118758.68947 -10963411.68146  22249427.3304   22249427.7494   22249428.238
        42.0004         39.2004
  -4697465.94445  -3482660.68645  24100859.1244   24100861.1254   24100861.047
        35.7004         34.0004
  -6155223.97046  -4787409.59246  23863573.2534   23863577.4864   23863573.809
        38.7004         36.4004
 -20718303.29048 -16087259.23347  20434698.6584   20434698.6584   20434699.159
        48.1004         45.2004
  -3660438.39346  -2838325.83745  23717766.3424   23717771.4114   23717766.577
        37.5004         35.3004
 14 10 27  1 26 30.0000000  0 11G11G27G19G31G24G22G18G21G32G14G04
  -5798765.77746  -3636349.43145  23308870.9754   23308872.9554   23308870.567
        38.0004         35.7004
  -1038627.02446   -786766.31745  24597243.5894   24597251.5514   24597243.627
        37.6004         35.2004
  -4821756.21146  -3726741.04646  23980022.7914   23980024.3214   23980023.874
        39.4004         36.7004
  -8501367.48046  -6611548.90546  22879693.2234   22879694.9274   22879692.941
        40.9004         38.5004
  -5141310.24146  -3990405.62646  23886749.5274   23886754.1374   23886749.502
        38.9004         36.4004
 -23223323.65248 -18085865.43347  20480727.7304   20480725.6644   20480728.448
        48.6004         45.6004
 -14060220.19846 -10917797.26946  22260566.0894   22260567.6744   22260567.625
        41.8004         39.0004
  -4589024.20245  -3398160.62345  24121496.7194   24121496.1444   24121496.931
        35.2004         33.3004
  -6236611.52546  -4850828.28946  23848085.1344   23848091.1714   23848085.333
        38.5004         36.0004
 -20710680.60648 -16081319.45447  20436149.1474   20436149.0234   20436149.550
        48.2004         45.2004
  -3754273.64646  -2911444.03745  23699910.3584   23699914.0204   23699911.136
        37.6004         35.5004
 14 10 27  1 27  0.0000000  0 11G11G27G19G31G24G22G18G21G32G14G04
  -5859992.84846  -3684058.72146  23297218.8534   23297221.0244   23297219.721
        38.3004         36.2004
   -955068.84646   -721656.09545  24613143.6134   24613152.7984   24613144.647
        37.3004         34.8004
  -4759950.64446  -3678580.86146  23991784.5804   23991787.0914   23991784.999
        39.4004         37.1004
  -8609675.20946  -6695944.40746  22859082.6504   22859083.8614   22859082.190
        40.9004         38.3004
  -5055560.44546  -3923587.63446  23903067.7124   23903070.6654   23903067.130
        38.7004         36.4004
 -23212425.78148 -18077373.56147  20482801.3444   20482799.8164   20482802.025
        48.6004         45.6004
 -14001450.76046 -10872002.89046  22271750.6614   22271750.3084   22271751.164
        41.8004         39.0004
  -4480453.38845  -3313560.00145  24142160.0484   24142158.0534   24142157.623
        35.0004         33.3004
  -6317945.42346  -4914205.18445  23832609.3084   23832613.1744   23832608.347
        38.2004         35.7004
 -20702701.06148 -16075101.59647  20437667.5664   20437667.7024   20437668.192
        48.2004         45.4004
  -3847814.12746  -2984332.56345  23682111.8754   23682114.2474   23682110.397
        37.5004         35.3004
 14 10 27  1 27 30.0000000  0 11G11G27G19G31G24G22G18G21G32G14G04
  -5920727.97646  -3731384.69146  23285662.1284   23285664.6824   23285661.973
        38.5004         36.0004
   -871457.92346   -656504.76445  24629054.6384   24629064.4664   24629055.494
        36.8004         34.6004
  -4697817.61746  -3630165.50446  24003607.7454   24003609.1294   24003608.722
        39.6004         37.1004
  -8717783.30046  -6780184.33946  22838510.0904   22838511.5424   22838510.125
        40.8004         38.3004
  -4969465.09346  -3856500.38746  23919451.1144   23919454.2054   23919450.279
        38.7004         36.4004
 -23201228.29348 -18068648.21447  20484931.9924   20484930.5204   20484932.812
        48.6004         45.4004
 -13942450.38246 -10826028.58046  22282979.0284   22282978.9374   22282978.754
        41.8004         38.8004
  -4371755.94845  -3228860.68345  24162840.4904   24162842.5284   24162842.141
        35.0004         33.3004
  -6399224.92946  -4977539.69645  23817140.5584   23817145.2664   23817141.002
        38.0004         35.9004
 -20694365.91848 -16068606.65147  20439254.2034   20439254.0644   20439254.243
        48.2004         45.4004
  -3941056.89846  -3056989.08745  23664365.5984   23664372.9904   23664367.131
        37.6004         35.5004
 14 10 27  1 28  0.0000000  0 11G11G27G19G31G24G22G18G21G32G14G04
  -5980969.77646  -3778326.23946  23274197.2714   23274200.1534   23274198.044
        38.3004         36.2004
   -787797.26046   -591314.70745  24644973.7334   24644981.3844   24644974.208
        36.1004         34.1004
  -4635360.07946  -3581497.29846  24015493.9674   24015495.3084   24015493.830
        39.6004         37.1004
  -8825688.58346  -6864266.25346  22817977.0614   22817977.8884   22817976.585
        40.9004         38.3004
  -4883026.77246  -3789145.88346  23935898.8054   23935903.6544   23935899.486
        38.5004         36.2004
 -23189730.64748 -18059688.97747  20487119.8184   20487118.2024   20487120.571
        48.4004         45.4004
 -13883218.89246 -10779874.17746  22294250.8654   22294250.2894   22294250.174
        41.8004         39.0004
  -4262934.07945  -3144064.40745  24183549.9674   24183549.3274   24183549.416
        34.5004         33.1004
  -6480449.46046  -5040831.38545  23801683.6814   23801687.6964   23801684.725
        37.8004         35.5004
 -20685676.22148 -16061835.42547  20440907.1954   20440907.1854   20440907.706
        48.2004         45.2004
  -4033999.45046  -3129411.69445  23646681.7484   23646684.2794   23646680.787
        37.6004         35.5004
 14 10 27  1 28 30.0000000  0 11G11G27G19G31G24G22G18G21G32G14G04
  -6040716.23746  -3824881.82246  23262827.6094   23262830.7724   23262828.275
        38.5004         36.2004
   -704089.90445   -526088.28145  24660904.1624   24660911.3394   24660903.733
        35.9004         34.1004
  -4572580.65346  -3532578.26146  24027438.8994   24027441.2764   24027440.957
        39.6004         36.9004
  -8933388.16446  -6948187.87246  22797481.9494   22797482.9984   22797481.944
        40.9004         38.5004
  -4796248.62246  -3721526.57345  23952411.8164   23952417.7144   23952412.923
        38.2004         35.7004
 -23177932.33548 -18050495.46447  20489365.0744   20489363.3284   20489365.877
        48.4004         45.4004
 -13823756.50546 -10733539.86046  22305564.0974   22305565.1174   22305565.241
        41.6004         39.0004
  -4153990.34145  -3059173.19345  24204281.1844   24204280.3094   24204281.176
        34.5004         33.3004
  -6561618.50346  -5104079.81345  23786237.8024   23786242.4914   23786238.299
        37.6004         35.5004
 -20676633.12048 -16054788.81747  20442628.2944   20442628.2794   20442628.402
        48.2004         45.2004
  -4126639.34446  -3201598.45245  23629052.4024   23629056.4754   23629052.191
        37.8004         35.7004
 14 10 27  1 29  0.0000000  0 11G11G27G19G31G24G22G18G21G32G14G04
  -6099965.44646  -3871049.93946  23251553.1484   23251556.1234   23251553.322
        38.5004         36.0004
   -620338.84345   -460827.77745  24676843.0114   24676847.7114   24676842.181
        35.9004         34.1004
  -4509482.29346  -3483410.71846  24039446.6414   24039449.4844   24039447.476
        39.4004         36.9004
  -9040879.02646  -7031946.85546  22777027.0614   22777028.0224   22777026.849
        40.9004         38.5004
  -4709132.58946  -3653644.00045  23968990.9824   23968995.0114   23968989.908
        37.8004         35.5004
 -23165832.72848 -18041067.18847  20491667.6664   20491665.9474   20491668.545
        48.4004         45.4004
 -13764062.67346 -10687025.18846  22316922.8934   22316923.7724   22316924.427
        41.5004         38.6004
  -4044926.99345  -2974188.76345  24225035.0104   24225035.6774   24225035.022
        34.7004         33.4004
  -6642731.34546  -5167284.46445  23770801.9254   23770807.5654   23770803.536
        37.8004         35.5004
 -20667237.97048 -16047467.89947  20444416.2414   20444416.2704   20444416.360
        48.2004         45.2004
  -4218973.58546  -3273547.04745  23611482.8304   23611484.7294   23611481.643
        37.8004         35.7004
 14 10 27  1 29 30.0000000  0 11G11G27G19G31G24G22G18G21G32G14G04
  -6158715.45846  -3916829.05246  23240374.2064   23240375.5504   23240373.790
        38.5004         36.2004
   -536547.11145   -395535.54145  24692787.0594   24692793.2654   24692786.743
        35.7004         34.1004
  -4446067.94346  -3433996.93746  24051514.0634   24051516.4484   24051515.131
        39.4004         37.1004
  -9148158.49846  -7115541.11646  22756612.0754   22756613.7294   22756611.960
        40.8004         38.1004
  -4621681.76746  -3585500.54245  23985630.9024   23985634.1164   23985630.492
        37.3004         35.0004
 -23153430.96748 -18031403.46247  20494027.5944   20494025.8414   20494028.185
        48.4004         45.4004
 -13704137.46846 -10640330.23446  22328327.2314   22328328.4574   22328327.710
        41.3004         38.6004
  -3935746.87745  -2889113.34045  24245811.9324   24245812.6864   24245810.726
        34.9004         33.3004
  -6723787.36046  -5230444.81945  23755377.4184   23755382.8924   23755378.827
        38.0004         35.7004
 -20657492.11348 -16039873.70447  20446270.5354   20446270.5684   20446270.918
        48.2004         45.4004
  -4310999.52546  -3345255.40245  23593969.1324   23593972.6254   23593969.589
        38.0004         35.7004
 14 10 27  1 30  0.0000000  0 11G11G27G19G31G24G22G18G21G32G14G04
  -6216964.23446  -3962217.63146  23229289.0574   23229290.8214   23229289.269
        38.5004         36.2004
   -452717.71245   -330213.97945  24708738.7684   24708745.7214   24708739.235
        35.6004         33.8004
  -4382340.46746  -3384339.17746  24063640.3724   24063643.6924   24063642.460
        39.4004         36.9004
  -9255223.02646  -7198967.90046  22736238.4144   22736239.5134   22736238.248
        40.8004         37.9004
  -4533898.39146  -3517097.93645  24002334.3424   24002340.3894   24002335.080
        37.3004         35.2004
 -23140726.38348 -18021503.76947  20496445.0854   20496443.3724   20496445.979
        48.4004         45.4004
 -13643980.86146 -10593454.96846  22339774.5414   22339775.0404   22339775.358
        41.3004         38.6004
  -3826451.98345  -2803948.49945  24266608.6494   24266613.0174   24266608.842
        35.0004         33.4004
  -6804785.93346  -5293560.40345  23739964.2384   23739969.3864   23739965.063
        38.0004         35.7004
 -20647396.46648 -16032006.94947  20448191.6124   20448191.8834   20448192.103
        48.2004         45.2004
  -4402714.71246  -3416721.62145  23576517.2194   23576518.2424   23576516.397
        37.8004         35.3004
 14 10 27  1 30 30.0000000  0 11G11G27G19G31G24G22G18G21G32G14G04
  -6274710.35746  -4007214.51546  23218299.9844   23218302.0464   23218301.127
        38.5004         36.0004
   -368853.62545   -264865.36745  24724697.4824   24724704.0854   24724697.962
        35.2004         33.6004
  -4318302.42846  -3334439.43046  24075827.8614   24075828.9104   24075828.480
        39.4004         36.9004
  -9362070.13546  -7282225.25746  22715905.7884   22715908.3054   22715906.009
        40.8004         37.9004
  -4445785.30346  -3448438.43145  24019102.0124   24019106.4844   24019102.119
        37.0004         35.0004
 -23127718.48948 -18011367.72647  20498920.1954   20498918.7044   20498921.074
        48.4004         45.6004
 -13583593.33146 -10546399.75546  22351267.5224   22351267.5454   22351266.417
        41.1004         38.1004
  -3717044.72545  -2718696.08845  24287428.1524   24287426.6224   24287428.026
        34.9004         33.3004
  -6885726.48946  -5356630.79845  23724561.1714   23724566.8824   23724562.131
        37.8004         35.7004
 -20636952.18048 -16023868.53247  20450179.0454   20450179.2504   20450179.473
        48.2004         45.2004
  -4494116.32246  -3487943.49645  23559123.4374   23559125.9664   23559122.954
        37.8004         35.7004
 14 10 27  1 31  0.0000000  0 11G11G27G19G31G24G22G18G21G32G14G04
  -6331951.93646  -4051818.25346  23207408.1074   23207410.8084   23207407.907
        38.7004         36.4004
   -284957.84045   -199492.06345  24740661.2704   24740668.0224   24740662.432
        34.9004         33.3004
  -4253957.06246  -3284300.18646  24088071.4814   24088072.7854   24088072.255
        39.2004         36.9004
  -9468696.78846  -7365310.84546  22695615.7854   22695617.2684   22695615.055
        40.6004         37.9004
  -4357345.10146  -3379523.99145  24035933.1774   24035936.6974   24035932.022
        37.0004         34.6004
 -23114406.68548 -18000994.87647  20501453.5744   20501451.8174   20501454.243
        48.4004         45.4004
 -13522974.24546 -10499164.11246  22362800.7014   22362800.9684   22362802.247
        41.3004         38.5004
  -3607527.45345  -2633357.90245  24308268.9834   24308272.2894   24308268.475
        34.5004         33.1004
  -6966608.34946  -5419655.46345  23709170.5434   23709175.1734   23709170.810
        37.8004         35.7004
 -20626159.87748 -16015458.91647  20452232.9254   20452232.9364   20452233.296
        48.2004         45.2004
  -4585201.54846  -3558918.83645  23541789.6704   23541791.9184   23541789.761
        37.6004         35.3004
 14 10 27  1 31 30.0000000  0 12G11G27G19G31G24G01G22G18G21G32G14G04
  -6388687.21146  -4096027.46446  23196612.3474   23196612.9654   23196611.715
        38.7004         36.2004
   -201033.37245   -134096.41245  24756631.1744   24756638.9914   24756633.279
        34.7004         33.3004
  -4189307.03746  -3233923.55546  24100373.4224   24100375.3744   24100374.534
        39.0004         36.6004
  -9575099.97146  -7448222.30146  22675367.6134   22675369.5084   22675367.312
        40.6004         37.9004
  -4268580.28146  -3310356.62745  24052824.2604   24052827.6374   24052824.149
        36.8004         34.6004
   -280309.62445   -193962.10045      -139.940    24662828.9834   24662822.184
        34.7004         34.5004
 -23100790.24448 -17990384.64847  20504044.6854   20504042.9084   20504045.573
        48.4004         45.4004
 -13462123.95146 -10451748.31246  22374380.5034   22374381.4454   22374381.508
        41.1004         38.5004
  -3497903.03745  -2547936.26545  24329126.1384   24329131.9064   24329129.412
        34.5004         33.3004
  -7047430.81646  -5482633.83545  23693789.9864   23693794.3024   23693790.391
        37.8004         35.7004
 -20615021.92248 -16006779.96147  20454352.4714   20454352.5394   20454352.674
        48.2004         45.4004
  -4675967.87746  -3629645.67845  23524519.1304   23524519.9134   23524517.559
        37.6004         35.5004
 14 10 27  1 32  0.0000000  0 12G11G27G19G31G24G01G22G18G21G32G14G04
  -6444914.33946  -4139840.71846  23185910.4774   23185913.7334   23185911.892
        38.5004         36.0004
   -117083.19045    -68680.69745  24772607.3424   24772613.6054   24772608.072
        34.5004         33.1004
  -4124355.21646  -3183311.75446  24112733.7054   24112735.4884   24112734.742
        38.9004         36.6004
  -9681276.46346  -7530957.11446  22655162.8374   22655164.4304   22655162.805
        40.6004         38.1004
  -4179493.97646  -3240938.74945  24069776.6254   24069781.7134   24069776.836
        37.0004         35.0004
   -380272.29546   -271854.96045  24643799.2804   24643806.7124   24643801.052
        36.4004         34.8004
 -23086868.28348 -17979536.35147  20506693.8774   20506692.0694   20506694.453
        48.4004         45.4004
 -13401042.28446 -10404152.22246  22386003.7074   22386005.2214   22386004.559
        41.1004         38.6004
  -3388173.99845  -2462433.10745  24350010.3954   24350013.1254   24350009.859
        34.5004         32.9004
  -7128193.34646  -5545565.52245  23678420.9304   23678425.6124   23678421.123
        37.6004         35.7004
 -20603539.14548 -15997832.30647  20456537.4124   20456537.1084   20456537.755
        48.2004         45.2004
  -4766412.57346  -3700121.90745  23507306.7654   23507308.2734   23507306.218
        37.8004         35.7004
 14 10 27  1 32 30.0000000  0 12G11G27G19G31G24G01G22G18G21G32G14G04
  -6500631.51246  -4183256.59646  23175308.4814   23175310.1764   23175308.636
        38.5004         36.0004
    -33110.26845     -3247.27445  24788585.5094   24788592.6154   24788588.388
        34.9004         33.4004
  -4059104.78046  -3132467.26846  24125150.7714   24125153.8444   24125151.313
        38.7004         36.4004
  -9787223.71246  -7613513.29146  22635001.5744   22635002.8714   22635001.506
        40.8004         38.1004
  -4090087.86846  -3171271.67445  24086788.9804   24086794.9964   24086789.762
        36.8004         34.6004
   -480038.00346   -349594.30745  24624816.1274   24624822.3644   24624815.587
        36.8004         34.8004
 -23072640.85748 -17968450.03247  20509401.0554   20509399.6274   20509402.044
        48.4004         45.6004
 -13339729.49846 -10356376.02946  22397671.5144   22397673.2614   22397672.459
        40.9004         38.3004
  -3278342.10345  -2376849.75345  24370909.7514   24370911.4664   24370910.184
        34.2004         33.1004
  -7208895.17246  -5608449.88845  23663064.4654   23663069.4904   23663064.774
        37.8004         35.5004
 -20591712.48548 -15988616.70447  20458787.8584   20458787.6434   20458788.100
        48.1004         45.2004
  -4856533.06946  -3770345.49445  23490157.3984   23490159.9574   23490156.154
        37.8004         35.7004
 14 10 27  1 33  0.0000000  0 12G11G27G19G31G24G01G22G18G21G32G14G04
  -6555837.22946  -4226273.94645  23164804.0604   23164804.9304   23164803.444
        38.5004         35.9004
     50882.42645     62201.60645  24804570.5124   24804580.3684   24804571.894
        35.4004         33.8004
  -3993558.27846  -3081392.08546  24137623.7044   24137625.6744   24137624.088
        38.5004         36.2004
  -9892938.33846  -7695888.21446  22614885.3124   22614885.9664   22614884.857
        40.9004         38.5004
  -4000365.57646  -3101358.23345  24103863.3514   24103868.9994   24103863.711
        36.6004         34.5004
   -579604.17246   -427178.17945  24605868.9094   24605875.8674   24605868.642
        36.6004         34.6004
 -23058106.89948 -17957124.85647  20512166.9354   20512165.4104   20512167.923
        48.6004         45.4004
 -13278185.28146 -10308419.50946  22409383.7814   22409383.5084   22409383.490
        40.9004         38.3004
  -3168409.95845  -2291188.28945  24391827.2904   24391832.1214   24391829.396
        34.5004         33.3004
  -7289535.78046  -5671286.55445  23647718.3104   23647722.9824   23647719.125
        37.6004         35.3004
 -20579543.49748 -15979134.35647  20461103.7694   20461103.4054   20461103.794
        48.1004         45.2004
  -4946326.64346  -3840314.35145  23473069.4084   23473070.9344   23473069.430
        38.0004         35.5004
 14 10 27  1 33 30.0000000  0 12G11G27G19G31G24G01G22G18G21G32G14G04
  -6610529.64146  -4268891.30246  23154395.5924   23154397.7754   23154395.639
        38.3004         36.0004
    134891.98945    127663.57945  24820559.7814   24820565.7914   24820558.114
        35.7004         34.1004
  -3927718.91546  -3030088.68646  24150152.4474   24150154.3844   24150152.825
        38.3004         36.0004
  -9998417.86146  -7778079.93546  22594813.1354   22594814.4034   22594812.629
        41.1004         38.5004
  -3910329.07346  -3031199.94645  24120998.2994   24121002.4414   24120995.718
        36.6004         34.5004
   -678968.20546   -504604.54845  24586960.5824   24586966.5674   24586959.883
        36.4004         34.5004
 -23043265.72948 -17945560.29947  20514990.7834   20514989.5324   20514991.830
        48.6004         45.4004
 -13216409.64446 -10260282.65546  22421138.1294   22421139.6384   22421139.147
        40.9004         38.5004
  -3058379.96045  -2205450.57845  24412766.2604   24412770.5494   24412767.201
        34.3004         32.7004
  -7370114.30746  -5734074.83445  23632384.7364   23632389.2074   23632385.697
        37.6004         35.3004
 -20567032.95148 -15969385.86847  20463484.0864   20463484.1364   20463484.735
        48.1004         45.2004
  -5035790.52146  -3910026.32745  23456043.2074   23456048.7294   23456044.149
        38.0004         35.7004
 14 10 27  1 34  0.0000000  0 12G11G27G19G31G24G01G22G18G21G32G14G04
  -6664707.24846  -4311107.53546  23144085.9414   23144087.8344   23144085.720
        38.3004         36.0004
    218915.32845    193136.32845  24836547.7204   24836555.7164   24836546.726
        35.9004         34.3004
  -3861589.49846  -2978559.28745  24162736.1584   24162737.3144   24162737.676
        38.3004         35.9004
 -10103659.05846  -7860085.94546  22574786.1024   22574787.2384   22574785.783
        41.3004         38.8004
  -3819981.07446  -2960798.94845  24138189.1334   24138194.5104   24138189.893
        36.6004         34.6004
   -778127.50246   -581871.37845  24568090.9414   24568097.6114   24568090.348
        36.6004         34.6004
 -23028116.57948 -17933755.75347  20517873.9444   20517872.2814   20517874.829
        48.4004         45.4004
 -13154402.46846 -10211965.40146  22432938.6994   22432939.1654   22432938.883
        40.9004         38.3004
  -2948254.80945  -2119638.74545  24433722.6304   24433724.3334   24433722.999
        34.0004         32.7004
  -7450630.20146  -5796814.32145  23617063.6284   23617067.2974   23617064.395
        37.8004         35.5004
 -20554182.42148 -15959372.45047  20465929.6434   20465929.5604   20465930.008
        48.1004         45.2004
  -5124922.13346  -3979479.36845  23439084.0734   23439086.5594   23439083.404
        38.0004         35.9004
 14 10 27  1 34 30.0000000  0 12G11G27G19G31G24G01G22G18G21G32G14G04
  -6718367.91746  -4352920.96646  23133873.8024   23133874.9014   23133874.273
        38.5004         36.0004
    302949.53746    258617.50345  24852539.2164   24852543.4704   24852538.292
        36.1004         34.3004
  -3795172.91146  -2926806.10246  24175375.4874   24175376.5774   24175376.456
        38.3004         36.0004
 -10208659.01346  -7941903.97846  22554805.1864   22554805.8994   22554804.830
        41.5004         38.8004
  -3729324.58846  -2890157.58445  24155442.0254   24155444.8384   24155441.131
        37.0004         34.8004
   -877079.47446   -658976.67245  24549261.4964   24549264.7244   24549260.110
        36.6004         34.6004
 -23012659.10748 -17921710.95947  20520815.4724   20520813.5024   20520816.126
        48.4004         45.4004
 -13092164.07546 -10163467.95146  22444781.6114   22444783.0734   22444782.766
        40.9004         38.5004
  -2838036.78145  -2033754.54745  24454696.8384   24454701.8754   24454695.921
        33.8004         32.6004
  -7531082.77646  -5859504.48445  23601753.3574   23601756.6144   23601753.762
        38.0004         35.9004
 -20540992.98648 -15949094.94647  20468439.4544   20468439.3784   20468439.732
        48.1004         45.2004
  -5213718.79746  -4048671.43445  23422186.1214   23422189.3224   23422186.359
        38.3004         35.7004
 14 10 27  1 35  0.0000000  0 12G11G27G19G31G24G01G22G18G21G32G14G04
  -6771509.99746  -4394330.28946  23123762.2024   23123764.4194   23123761.447
        38.5004         36.4004
    386991.64646    324104.82445  24868531.7864   24868539.9664   24868531.173
        36.4004         34.5004
  -3728472.22946  -2874831.54145  24188067.6234   24188070.2714   24188069.090
        38.3004         35.9004
 -10313414.77646  -8023531.71846  22534870.3964   22534871.7464   22534870.373
        41.5004         38.8004
  -3638361.91046  -2819277.62345  24172751.6784   24172754.7244   24172750.609
        37.1004         35.2004
   -975821.58546   -735918.41945  24530472.5394   24530477.5314   24530470.980
        36.4004         34.1004
 -22996892.72948 -17909425.45247  20523815.7104   20523814.1364   20523816.341
        48.4004         45.4004
 -13029694.50046 -10114790.38946  22456669.1914   22456670.0534   22456670.335
        40.9004         38.5004
  -2727728.17045  -1947799.84345  24475685.7874   24475691.3464   24475687.414
        33.5004         32.4004
  -7611471.37546  -5922144.79945  23586456.2224   23586458.5294   23586456.599
        38.0004         35.9004
 -20527465.87648 -15938554.31247  20471013.4214   20471013.3864   20471013.928
        48.1004         45.2004
  -5302178.06246  -4117600.59946  23405352.4124   23405355.3144   23405353.163
        38.3004         36.0004
 14 10 27  1 35 30.0000000  0 12G11G27G19G31G24G01G22G18G21G32G14G04
  -6824132.28246  -4435334.58446  23113747.3254   23113750.5214   23113748.039
        38.7004         36.4004
    471038.72146    389596.06145  24884525.9764   24884532.5654   24884524.526
        36.4004         34.5004
  -3661490.10646  -2822637.67445  24200814.0974   24200816.5814   24200814.882
        38.3004         35.9004
 -10417923.29446  -8104966.81046  22514983.4584   22514985.2064   22514983.141
        41.5004         38.8004
  -3547096.07846  -2748161.40745  24190119.8524   24190122.1864   24190118.669
        37.3004         35.3004
  -1074351.18146   -812694.57645  24511719.8464   24511726.6564   24511721.069
        36.3004         34.5004
 -22980816.61648 -17896898.60947  20526874.7854   20526873.1684   20526875.808
        48.4004         45.4004
 -12966993.35346 -10065932.36846  22468601.6724   22468600.9434   22468602.170
        41.1004         38.3004
  -2617331.58245  -1861776.53445  24496693.6934   24496699.4974   24496695.188
        33.3004         32.2004
  -7691795.21346  -5984734.63245  23571170.1594   23571174.1744   23571171.373
        38.0004         35.9004
 -20513602.51948 -15927751.67247  20473651.7444   20473651.5834   20473651.907
        48.1004         45.2004
  -5390297.01446  -4186264.58146  23388585.4144   23388587.1674   23388584.438
        38.5004         36.4004
 14 10 27  1 36  0.0000000  0 12G11G27G19G31G24G01G22G18G21G32G14G04
  -6876233.05546  -4475932.50246  23103833.5754   23103836.0894   23103833.694
        38.9004         36.4004
    555087.82746    455088.83345  24900518.3794   24900526.8614   24900518.963
        36.8004         35.0004
  -3594229.71746  -2770226.99246  24213614.5394   24213614.6924   24213614.339
        38.3004         36.0004
 -10522181.92746  -8186207.18346  22495143.4424   22495144.0284   22495143.794
        41.6004         39.2004
  -3455529.36746  -2676810.78045  24207543.4074   24207547.9164   24207543.543
        37.8004         35.7004
  -1172665.66046   -889303.11445  24493011.6074   24493018.1704   24493012.546
        36.4004         34.5004
 -22964430.25048 -17884129.99847  20529992.7624   20529991.1784   20529993.636
        48.4004         45.4004
 -12904060.93846 -10016894.13646  22480577.6074   22480577.3084   22480577.721
        41.1004         38.5004
  -2506849.51645  -1775686.61245  24517717.2344   24517718.9824   24517718.647
        33.1004         32.0004
  -7772053.67946  -6047273.55146  23555897.4864   23555902.4514   23555898.373
        38.2004         36.0004
 -20499404.16548 -15916688.00447  20476353.4404   20476353.4354   20476353.907
        48.1004         45.2004
  -5478073.24446  -4254661.51946  23371881.4544   23371883.2384   23371881.250
        38.5004         36.4004
 14 10 27  1 36 30.0000000  0 12G11G27G19G31G24G01G22G18G21G32G14G04
  -6927810.51446  -4516122.63846  23094018.7004   23094019.5454   23094019.016
        38.9004         36.6004
    639136.01246    520580.88845  24916512.7694   24916519.4454   24916513.541
        36.8004         34.8004
  -3526693.99446  -2717601.74746  24226464.9124   24226466.3334   24226466.010
        38.3004         36.0004
 -10626187.53046  -8267250.38446  22475352.1274   22475352.1914   22475352.045
        41.8004         39.3004
  -3363664.64146  -2605227.91546  24225024.5744   24225029.2564   24225024.802
        38.3004         36.0004
  -1270762.43846   -965741.98745  24474344.7754   24474352.0194   24474345.108
        36.4004         34.5004
 -22947732.97948 -17871119.12047  20533170.1724   20533168.4384   20533171.238
        48.4004         45.4004
 -12840897.34746  -9967675.75646  22492595.3414   22492597.6404   22492597.407
        41.1004         38.6004
  -2396284.08945  -1689531.72945  24538758.7214   24538759.6514   24538758.648
        32.8004         32.0004
  -7852246.02346  -6109760.94145  23540638.6624   23540641.8804   23540638.619
        38.2004         35.9004
 -20484871.86148 -15905364.12447  20479118.7174   20479118.7604   20479119.254
        48.1004         45.2004
  -5565503.82946  -4322789.12146  23355243.6994   23355246.1474   23355243.722
        38.7004         36.4004
 14 10 27  1 37  0.0000000  0 12G11G27G19G31G24G01G22G18G21G32G14G04
  -6978863.18246  -4555903.85146  23084303.2274   23084305.5054   23084303.885
        38.9004         36.4004
    723180.38646    586069.98645  24932506.9854   24932513.8524   24932506.481
        36.4004         34.5004
  -3458885.73046  -2664764.14046  24239368.0864   24239370.8024   24239369.181
        38.3004         36.0004
 -10729937.13747  -8348094.11146  22455609.3364   22455609.6484   22455608.892
        42.0004         39.3004
  -3271504.65646  -2533414.98746  24242561.9654   24242566.5484   24242562.346
        38.3004         36.2004
  -1368638.89046  -1042009.19245  24455719.7394   24455725.4824   24455719.012
        36.4004         34.5004
 -22930724.43048 -17857865.69147  20536406.6644   20536405.2524   20536407.823
        48.2004         45.2004
 -12777502.73846  -9918277.38046  22504660.9084   22504661.2154   22504661.150
        41.3004         38.8004
  -2285637.72145  -1603313.74545  24559816.2894   24559816.9344   24559814.306
        32.6004         31.9004
  -7932371.56146  -6172196.27745  23525391.8644   23525393.1934   23525390.860
        38.2004         35.7004
 -20470007.02448 -15893781.12047  20481947.4644   20481947.3624   20481947.835
        48.1004         45.1004
  -5652586.18046  -4390645.36546  23338672.1964   23338674.9524   23338672.250
        38.7004         36.4004
 14 10 27  1 37 30.0000000  0 12G11G27G19G31G24G01G22G18G21G32G14G04
  -7029389.74346  -4595275.11346  23074689.0964   23074688.9094   23074689.057
        38.9004         36.2004
    807217.97346    651553.77145  24948497.9804   24948504.6414   24948497.803
        36.1004         34.5004
  -3390807.88346  -2611716.48346  24252324.2984   24252326.0314   24252323.944
        38.3004         36.0004
 -10833427.86147  -8428736.11746  22435914.9094   22435914.7954   22435914.948
        42.2004         39.5004
  -3179051.61046  -2461373.68646  24260156.0604   24260160.0994   24260155.360
        38.5004         36.4004
  -1466292.40146  -1118102.66845  24437136.1484   24437144.8464   24437136.492
        36.6004         34.6004
 -22913403.86348 -17844369.13247  20539702.9814   20539701.1354   20539703.570
        48.2004         45.4004
 -12713876.83346  -9868698.76946  22516768.0354   22516768.4554   22516768.845
        41.3004         38.6004
  -2174913.44345  -1517035.02845  24580884.0334   24580887.2004   24580884.696
        33.3004         32.6004
  -8012429.60646  -6234579.02745  23510155.2594   23510159.4354   23510156.099
        38.2004         35.9004
 -20454810.79648 -15881939.89047  20484839.2144   20484839.1224   20484839.560
        48.1004         45.1004
  -5739317.78746  -4458228.28946  23322167.4544   23322170.0934   23322167.745
        38.7004         36.4004
 14 10 27  1 38  0.0000000  0 12G11G27G19G31G24G01G22G18G21G32G14G04
  -7079388.10146  -4634234.76546  23065174.4814   23065176.2044   23065174.294
        38.9004         36.6004
    891245.89146    717030.05145  24964486.3124   24964493.6384   24964487.225
        36.1004         34.0004
  -3322463.59546  -2558461.20746  24265329.4384   24265330.4964   24265329.706
        38.3004         36.0004
 -10936656.63747  -8509174.00946  22416271.0414   22416272.0164   22416271.080
        42.2004         39.3004
  -3086308.66746  -2389106.50346  24277803.9274   24277807.1534   24277803.338
        38.7004         36.6004
  -1563720.35746  -1194020.37545  24418596.6124   24418602.4694   24418595.840
        37.0004         34.8004
 -22895770.67148 -17830628.97747  20543058.5394   20543056.7454   20543059.435
        48.2004         45.2004
 -12650019.62246  -9818939.91946  22528919.6204   22528920.6634   22528920.362
        41.5004         38.8004
  -2064113.07445  -1430697.02845  24601969.7784   24601973.4144   24601969.805
        33.8004         32.9004
  -8092419.38246  -6296908.58145  23494934.2634   23494936.5954   23494934.285
        38.2004         35.9004
 -20439284.21748 -15869841.24047  20487794.0034   20487793.6274   20487794.334
        48.1004         45.2004
  -5825695.88946  -4525535.77846  23305731.1304   23305734.1024   23305730.449
        38.7004         36.6004
 14 10 27  1 38 30.0000000  0 12G11G27G19G31G24G01G22G18G21G32G14G04
  -7128857.14446  -4672781.98246  23055759.5004   23055762.2504   23055760.875
        38.7004         36.4004
    975261.24145    782496.50045  24980475.0854   24980481.4614   24980474.916
        35.9004         34.1004
  -3253855.65146  -2505000.49646  24278385.0344   24278387.0504   24278385.525
        38.3004         36.2004
 -11039620.84647  -8589405.75146  22396678.1284   22396677.6724   22396677.337
        42.0004         39.2004
  -2993278.33946  -2316615.37846  24295506.4764   24295511.7374   24295506.794
        38.5004         36.2004
  -1660920.18646  -1269760.30945  24400100.7094   24400104.6774   24400099.616
        37.0004         35.0004
 -22877824.15648 -17816644.67047  20546473.5234   20546471.8814   20546474.292
        48.2004         45.2004
 -12585931.21446  -9769000.90846  22541115.5724   22541116.6304   22541116.040
        41.5004         38.8004
  -1953239.29545  -1344301.88345  24623065.6424   24623068.1544   24623067.084
        34.2004         32.7004
  -8172340.21246  -6359184.41345  23479725.1764   23479728.9144   23479726.015
        38.0004         35.9004
 -20423429.08548 -15857486.55547  20490811.1964   20490810.3924   20490811.385
        48.1004         45.2004
  -5911717.88746  -4592565.75846  23289361.1844   23289363.1274   23289360.870
        38.7004         36.4004
 14 10 27  1 39  0.0000000  0 12G11G27G19G31G24G01G22G18G21G32G14G04
  -7177795.44346  -4710915.64146  23046448.6094   23046448.4634   23046448.250
        38.7004         36.4004
   1059261.08345    847950.90545  24996458.7834   24996467.5484   24996459.325
        35.9004         34.1004
  -3184987.17346  -2451336.75445  24291489.3454   24291493.1014   24291490.204
        38.3004         35.9004
 -11142317.45647  -8669428.97046  22377135.2554   22377134.8484   22377134.721
        42.0004         39.5004
  -2899963.31046  -2243902.40346  24313265.3134   24313268.6304   24313263.327
        38.3004         36.0004
  -1757889.25446  -1345320.46045  24381647.5914   24381653.6494   24381646.834
        37.1004         35.2004
 -22859563.64148 -17802415.69047  20549948.2454   20549946.7084   20549949.104
        48.2004         45.1004
 -12521611.95146  -9718882.01946  22553355.5474   22553355.5804   22553355.508
        41.5004         38.8004
  -1842294.26045  -1257851.22845  24644181.2744   24644183.7484   24644179.547
        33.7004         32.4004
  -8252191.34946  -6421405.93245  23464529.7934   23464533.9694   23464530.397
        38.2004         35.9004
 -20407246.37248 -15844876.62547  20493890.5524   20493890.1064   20493890.857
        48.1004         45.2004
  -5997381.24446  -4659316.30746  23273059.2504   23273062.4544   23273059.247
        38.7004         36.2004
 14 10 27  1 39 30.0000000  0 12G11G27G19G31G24G01G22G18G21G32G14G04
  -7226201.24646  -4748634.36246  23037235.8254   23037237.6264   23037236.690
        38.7004         36.2004
   1143242.58846    913390.99745  25012440.7324   25012449.2054   25012442.032
        36.4004         34.5004
  -3115861.14346  -2397472.32045  24304643.0684   24304646.0074   24304644.524
        38.3004         35.9004
 -11244743.41947  -8749241.29446  22357644.0924   22357645.0344   22357643.800
        42.2004         39.7004
  -2806366.13546  -2170969.59145  24331075.0024   24331079.1744   24331074.441
        38.2004         35.9004
  -1854624.95846  -1420698.74745  24363239.3174   24363244.9464   24363238.697
        37.3004         35.2004
 -22840988.81648 -17787941.79047  20553483.0614   20553481.4414   20553483.691
        48.1004         45.1004
 -12457061.78746  -9668583.21246  22565638.1194   22565638.9544   22565638.900
        41.3004         38.5004
  -1731280.49345  -1171347.00945  24665305.6634   24665309.9574   24665303.198
        33.3004         32.2004
  -8331971.98246  -6483572.52546  23449348.2004   23449351.5584   23449348.812
        38.3004         36.0004
 -20390737.27748 -15832012.36447  20497031.8544   20497031.6724   20497032.349
        48.1004         45.2004
  -6082683.31846  -4725785.32946  23256826.2704   23256828.9304   23256826.250
        38.5004         36.2004
 14 10 27  1 40  0.0000000  0 12G11G27G19G31G24G01G22G18G21G32G14G04
  -7274073.26546  -4785937.14146  23028126.2144   23028127.4374   23028126.640
        38.9004         36.6004
   1227202.86146    978814.54945  25028420.2844   25028428.7184   25028419.855
        36.1004         34.1004
  -3046480.17546  -2343409.25245  24317846.2514   24317848.0724   24317847.116
        38.0004         35.9004
 -11346895.97747  -8828840.58446  22338204.5964   22338205.5324   22338204.756
        42.2004         39.5004
  -2712490.01846  -2097819.40445  24348939.9804   24348943.1244   24348939.106
        37.5004         35.0004
  -1951124.67246  -1495893.15845  24344874.5124   24344881.4014   24344875.040
        37.3004         35.2004
 -22822099.22748 -17773222.61847  20557077.3094   20557075.7904   20557078.311
        48.1004         45.1004
 -12392280.83646  -9618104.55346  22577965.5494   22577967.1234   22577966.473
        41.3004         38.5004
  -1620200.70145  -1084791.37845  24686440.2194   24686448.6834   24686443.258
        33.5004         32.2004
  -8411681.40146  -6545683.62946  23434180.3684   23434183.2074   23434180.676
        38.2004         36.0004
 -20373903.09748 -15818894.80547  20500235.7684   20500235.1674   20500236.038
        48.1004         45.2004
  -6167621.38846  -4791970.69646  23240663.7384   23240666.0394   23240663.145
        38.3004         36.0004
 14 10 27  1 40 30.0000000  0 12G11G27G19G31G24G01G22G18G21G32G14G04
  -7321409.92546  -4822822.75946  23019118.9844   23019119.7904   23019118.854
        38.7004         36.2004
   1311138.89745   1044219.18845  25044391.8754   25044398.5884   25044389.786
        35.9004         34.1004
  -2976847.70846  -2289150.20445  24331096.9804   24331098.4824   24331097.882
        38.0004         35.9004
 -11448772.33147  -8908224.65646  22318818.7484   22318818.7504   22318818.427
        42.3004         39.7004
  -2618336.78146  -2024453.30145  24366855.4764   24366860.5484   24366854.944
        36.6004         34.3004
  -2047385.81046  -1570901.65745  24326558.4814   24326564.0564   24326557.084
        37.1004         35.0004
 -22802893.94848 -17758257.45347  20560732.0374   20560730.3334   20560732.942
        48.1004         45.1004
 -12327269.05946  -9567446.04146  22590336.7534   22590337.3244   22590337.749
        41.1004         38.1004
  -1509057.07245   -998185.93845  24707593.3644   24707595.1414   24707593.594
        33.8004         32.7004
  -8491318.88746  -6607738.67645  23419024.8514   23419029.3064   23419025.403
        38.2004         35.9004
 -20356745.12348 -15805524.94247  20503500.7994   20503500.2014   20503500.989
        48.2004         45.2004
  -6252192.87446  -4857870.41145  23224570.5014   23224570.7644   23224569.421
        38.2004         35.7004
 14 10 27  1 41  0.0000000  0 12G11G27G19G31G24G01G22G18G21G32G14G04
  -7368209.78546  -4859290.10146  23010211.4634   23010213.0604   23010212.435
        38.7004         36.4004
   1395047.97945   1109602.84545  25060357.5144   25060364.8334   25060357.842
        35.9004         34.1004
  -2906966.58746  -2234697.40645  24344394.7514   24344396.9264   24344395.880
        38.2004         35.9004
 -11550369.26547  -8987391.01546  22299485.6054   22299485.4774   22299485.319
        42.5004         39.7004
  -2523909.30846  -1950873.52345  24384824.9494   24384830.2844   24384824.546
        36.1004         34.0004
  -2143405.69246  -1645722.16345  24308283.8744   24308291.1904   24308284.797
        37.0004         34.8004
 -22783372.49048 -17743045.91147  20564447.0234   20564445.4714   20564447.996
        48.1004         45.1004
 -12262026.61946  -9516607.80446  22602752.2954   22602752.3004   22602753.214
        40.9004         37.9004
  -1397852.15245   -911532.73445  24728756.7554   24728758.4494   24728755.165
        34.3004         33.4004
  -8570883.66046  -6669737.06345  23403884.4584   23403888.2914   23403884.860
        38.2004         35.9004
 -20339264.59748 -15791903.74147  20506826.8864   20506826.9494   20506827.387
        48.1004         45.2004
  -6336395.20046  -4923482.49045  23208544.8534   23208549.7584   23208546.131
        38.0004         35.7004
 14 10 27  1 41 30.0000000  0 12G11G27G19G31G24G01G22G18G21G32G14G04
  -7414471.34046  -4895337.97646  23001409.7254   23001411.2674   23001409.533
        38.9004         36.6004
   1478927.05746   1174963.16445  25076319.4534   25076327.3534   25076318.243
        36.1004         34.3004
  -2836839.74846  -2180053.13146  24357740.2854   24357742.4154   24357741.288
        38.3004         36.0004
 -11651683.94647  -9066337.43746  22280205.8754   22280206.1774   22280205.944
        42.7004         40.0004
  -2429210.43745  -1877082.23945  24402846.7364   24402852.4684   24402844.509
        35.2004         33.3004
  -2239181.74546  -1720352.66145  24290059.4684   24290065.5494   24290059.325
        36.8004         34.8004
 -22763534.28948 -17727587.55847  20568221.9474   20568220.3024   20568222.825
        48.1004         45.1004
 -12196553.76146  -9465590.01446  22615212.0864   22615212.1534   22615211.876
        40.8004         37.9004
  -1286588.35745   -824833.65245  24749929.7184   24749931.2424   24749928.325
        34.7004         33.4004
  -8650374.89446  -6731678.13145  23388757.3004   23388761.2404   23388758.307
        38.2004         35.9004
 -20321462.79148 -15778032.18747  20510214.3394   20510214.1814   20510214.780
        48.1004         45.1004
  -6420225.71346  -4988804.81545  23192594.2304   23192596.2304   23192593.832
        38.0004         35.9004
 14 10 27  1 42  0.0000000  0 12G11G27G19G31G24G01G22G18G21G32G14G04
  -7460193.52846  -4930965.58046  22992708.8664   22992709.9654   22992708.823
        39.0004         36.6004
   1562773.42545   1240297.94445  25092273.2984   25092282.4004   25092273.800
        35.9004         33.8004
  -2766470.34646  -2125219.84945  24371130.2624   24371133.2654   24371132.125
        38.3004         35.9004
 -11752713.57047  -9145061.72846  22260980.6274   22260980.5304   22260980.413
        42.9004         40.0004
  -2334242.90345  -1803081.64145  24420920.9744   24420922.6584   24420917.304
        34.9004         33.4004
  -2334711.35046  -1794791.11545  24271880.9144   24271887.7684   24271880.645
        36.4004         34.3004
 -22743378.87248 -17711882.02047  20572057.4944   20572055.8334   20572058.245
        48.1004         45.1004
 -12130850.36046  -9414392.57246  22627713.6604   22627715.6084   22627714.872
        40.6004         38.1004
  -1175267.88845   -738090.40645  24771112.5214   24771115.0794   24771112.364
        34.9004         33.3004
  -8729791.98746  -6793561.44446  23373645.0014   23373648.4924   23373645.254
        38.3004         36.0004
 -20303341.24948 -15763911.48747  20513662.8264   20513662.5254   20513663.067
        48.1004         45.1004
  -6503681.94746  -5053835.50446  23176713.0904   23176715.4864   23176712.429
        38.3004         36.0004
 14 10 27  1 42 30.0000000  0 12G11G27G19G31G24G01G22G18G21G32G14G04
  -7505374.72146  -4966171.61746  22984111.4544   22984112.5704   22984111.724
        39.0004         36.6004
   1646584.10845   1305604.94345  25108224.0914   25108230.3684   25108222.295
        35.7004         34.0004
  -2695861.12546  -2070199.67945  24384566.9564   24384569.1634   24384568.227
        38.3004         35.9004
 -11853455.36747  -9223561.73846  22241810.1434   22241810.9534   22241809.781
        42.9004         40.0004
  -2239008.80545  -1728873.29845  24439040.8534   24439043.7754   24439040.008
        34.9004         33.3004
  -2429991.82946  -1869035.46045  24253749.6094   24253755.5034   24253749.347
        36.4004         34.5004
 -22722905.68548 -17695928.87247  20575953.2974   20575951.6494   20575954.269
        48.1004         45.1004
 -12064916.41146  -9363015.49646  22640261.0474   22640262.1874   22640261.310
        40.4004         37.6004
  -1063893.23545   -651304.94945  24792306.3294   24792308.0924   24792305.875
        35.0004         33.3004
  -8809134.02146  -6855386.26945  23358546.3024   23358549.9724   23358546.487
        38.3004         35.9004
 -20284901.02348 -15749542.46147  20517171.9284   20517171.5514   20517172.273
        48.1004         45.1004
  -6586761.18246  -5118572.44046  23160902.9304   23160905.2134   23160903.194
        38.5004         36.4004
 14 10 27  1 43  0.0000000  0 12G11G27G19G31G24G01G22G18G21G32G14G04
  -7550013.78846  -5000955.23846  22975615.3524   22975617.0894   22975616.814
        39.0004         36.7004
   1730356.28745   1370881.94845  25124166.0654   25124171.2784   25124165.583
        35.7004         34.3004
  -2625015.12646  -2014995.00646  24398047.5954   24398051.5284   24398049.848
        38.2004         36.0004
 -11953906.45347  -9301835.23746  22222695.3514   22222695.7934   22222694.649
        42.9004         40.0004
  -2143511.42645  -1654459.78345  24457214.0384   24457216.0234   24457212.968
        35.2004         33.6004
  -2525020.60846  -1943083.67545  24235666.5884   24235671.3574   24235665.691
        36.3004         34.5004
 -22702113.90948 -17679727.47447  20579909.8294   20579907.8824   20579910.591
        48.1004         45.1004
 -11998752.23746  -9311459.03246  22652852.3514   22652850.4974   22652852.036
        40.3004         37.6004
   -952466.84945   -564479.18545  24813510.5844   24813514.2524   24813509.818
        34.7004         33.3004
  -8888400.19846  -6917151.98546  23343462.5524   23343465.5294   23343463.290
        38.3004         36.0004
 -20266143.32448 -15734926.05447  20520741.2524   20520741.0204   20520741.624
        48.1004         45.1004
  -6669460.78846  -5183013.57146  23145165.0534   23145168.7054   23145165.726
        38.7004         36.4004
 14 10 27  1 43 30.0000000  0 12G11G27G19G31G24G01G22G18G21G32G14G04
  -7594109.32246  -5035315.30946  22967226.0204   22967226.6124   22967225.855
        39.0004         36.7004
   1814087.10246   1436126.71845  25140099.2374   25140107.1924   25140099.343
        36.1004         34.3004
  -2553935.45546  -1959608.25546  24411574.8054   24411576.9854   24411575.555
        38.3004         36.0004
 -12054063.77147  -9379879.82246  22203635.4604   22203635.6944   22203634.839
        42.9004         40.2004
  -2047753.35945  -1579843.10545  24475435.6524   24475437.7144   24475434.524
        35.9004         34.6004
  -2619795.03746  -2016933.68645  24217631.8244   24217636.5404   24217631.521
        36.4004         34.5004
 -22681003.46448 -17663277.76547  20583927.0464   20583925.2944   20583927.864
        48.1004         45.1004
 -11932357.86146  -9259723.16846  22665485.4584   22665487.4324   22665486.757
        40.1004         37.6004
   -840991.19945   -477615.00945  24834723.6914   24834724.6934   24834723.058
        34.3004         32.9004
  -8967589.85046  -6978858.07045  23328392.4794   23328395.7494   23328393.521
        38.2004         35.7004
 -20247069.75547 -15720063.51647  20524370.8464   20524370.9094   20524371.167
        47.9004         45.1004
  -6751778.33346  -5247156.98046  23129500.5114   23129502.6314   23129500.743
        38.9004         36.6004
 14 10 27  1 44  0.0000000  0 12G11G27G19G31G24G01G22G18G21G32G14G04
  -7637660.00246  -5069250.84446  22958938.4774   22958938.2644   22958938.193
        39.0004         36.4004
   1897773.74346   1501337.04845  25156024.3084   25156029.2634   25156024.133
        36.3004         34.5004
  -2482625.12246  -1904041.76246  24425144.3354   24425148.3094   24425145.545
        38.3004         36.0004
 -12153924.48347  -9457693.28246  22184632.3694   22184632.1494   22184632.258
        43.0004         40.2004
  -1951737.28746  -1505025.41145  24493706.8124   24493709.8004   24493706.203
        36.6004         35.0004
  -2714312.55046  -2090583.54145  24199645.1314   24199650.1684   24199644.292
        36.6004         34.6004
 -22659573.46348 -17646579.05647  20588004.9074   20588003.4074   20588006.101
        48.1004         45.1004
 -11865733.59346  -9207808.17646  22678164.1704   22678165.0804   22678164.971
        40.1004         37.6004
   -729468.65045   -390714.24245  24855942.4314   24855949.4834   24855945.162
        33.5004         32.6004
  -9046702.11746  -7040503.85146  23313339.8534   23313341.2644   23313338.959
        38.2004         36.0004
 -20227681.46847 -15704955.74747  20528060.6494   20528060.0794   20528060.754
        47.9004         45.1004
  -6833711.03946  -5311000.51446  23113909.9074   23113912.8014   23113909.429
        38.9004         36.6004
 14 10 27  1 44 30.0000000  0 12G11G27G19G31G24G01G22G18G21G32G14G04
  -7680664.42246  -5102760.70346  22950754.7724   22950755.3404   22950754.557
        39.0004         36.4004
   1981413.37846   1566510.82445  25171939.9174   25171947.1704   25171939.792
        36.3004         34.6004
  -2411086.91246  -1848297.73245  24438758.0554   24438758.3724   24438759.168
        38.3004         35.9004
 -12253485.85847  -9535273.51146  22165686.3674   22165686.8184   22165685.970
        43.2004         40.6004
  -1855465.61246  -1430008.53945  24512026.2024   24512031.3874   24512025.375
        37.3004         35.5004
  -2808570.49046  -2164031.11145  24181707.7924   24181713.4004   24181707.224
        37.0004         34.8004
 -22637823.36848 -17629630.91847  20592144.0214   20592142.2964   20592144.672
        48.1004         45.1004
 -11798879.45946  -9155714.05746  22690886.4474   22690886.5134   22690887.042
        40.1004         37.4004
   -617901.64245   -303778.85845  24877176.9964       -143.433    24877175.253
        32.8004         31.7004
  -9125736.17846  -7102088.69546  23298299.5024   23298301.9544   23298299.851
        38.3004         36.0004
 -20207979.72748 -15689603.72747  20531809.4504   20531809.3704   20531810.062
        48.1004         45.1004
  -6915256.42646  -5374542.24346  23098392.4524   23098394.2764   23098392.121
        38.9004         36.6004
 14 10 27  1 45  0.0000000  0 12G11G27G19G31G24G01G22G18G21G32G14G04
  -7723121.69446  -5135844.21646  22942675.5044   22942675.7944   22942674.986
        38.9004         36.6004
   2065003.21646   1631645.74345  25187846.6844   25187854.1294   25187846.007
        36.4004         34.5004
  -2339324.31146  -1792378.82146  24452414.0994   24452415.9314   24452415.138
        38.2004         36.0004
 -12352745.22647  -9612618.39646  22146797.0464   22146797.6434   22146797.553
        43.4004         40.7004
  -1758941.29646  -1354794.80746  24530394.9274   24530398.6064   24530393.911
        37.8004         36.0004
  -2902566.19346  -2237274.33045  24163820.8164   24163825.9994   24163820.330
        37.1004         35.2004
 -22615752.99048 -17612433.21247  20596343.8044   20596342.2754   20596344.604
        48.1004         44.9004
 -11731795.35746  -9103440.76646  22703651.5214   22703652.4764   22703652.719
        40.1004         37.8004
   -506292.66245   -216810.76345  24898416.4734       -143.433    24898413.550
        31.7004         31.3004
  -9204691.26346  -7163612.02746  23283274.3464   23283277.7194   23283275.279
        38.3004         36.0004
 -20187965.36648 -15674008.10847  20535618.2404   20535618.0874   20535618.644
        48.1004         45.1004
  -6996411.90446  -5437780.15046  23082948.0504   23082950.9314   23082948.869
        38.9004         36.6004
 14 10 27  1 45 30.0000000  0 12G11G27G19G31G24G01G22G18G21G32G14G04
  -7765030.29546  -5168500.19846  22934698.7074   22934700.8224   22934700.399
        38.7004         36.4004
   2148540.39046   1696739.62845  25203742.1234   25203748.7144   25203742.987
        36.6004         34.5004
  -2267340.02446  -1736287.18345  24466112.5004   24466114.2074   24466113.294
        38.2004         35.9004
 -12451699.33047  -9689725.43046  22127967.6484   22127967.8574   22127967.138
        43.6004         40.9004
  -1662166.94046  -1279386.25546  24548809.7474   24548814.7664   24548808.545
        38.3004         36.2004
  -2996297.11446  -2310311.26145  24145983.5874   24145991.6104   24145983.754
        37.1004         35.3004
 -22593361.59848 -17594985.37447  20600604.7224   20600603.0144   20600605.778
        48.1004         45.1004
 -11664481.43646  -9050988.38746  22716461.6604   22716461.8194   22716462.263
        40.1004         37.3004
   -394643.61945   -129811.50045      -139.940        -143.433    24919660.813
        30.5004         30.8004
  -9283566.46246  -7225073.08646  23268264.8524   23268267.5874   23268265.447
        38.3004         36.0004
 -20167640.21847 -15658170.32247  20539486.2084   20539485.2244   20539486.373
        47.9004         45.1004
  -7077175.00146  -5500712.31346  23067579.1074   23067582.1694   23067579.774
        38.7004         36.4004
 14 10 27  1 46  0.0000000  0 11G11G27G19G31G24G01G22G18G32G14G04
  -7806388.85346  -5200727.56746  22926829.4914   22926831.1064   22926829.420
        38.7004         36.2004
   2232022.15245   1761790.37845  25219627.1024   25219635.5424   25219628.082
        35.9004         34.0004
  -2195136.93646  -1680025.04545  24479852.3404   24479854.2944   24479853.183
        38.0004         35.7004
 -12550345.36047  -9766592.41246  22109195.0904   22109195.2834   22109195.510
        43.7004         41.1004
  -1565145.05446  -1203784.84246  24567272.3774   24567275.9624   24567272.764
        38.7004         36.4004
  -3089760.54046  -2383139.71045  24128198.5764   24128205.1814   24128198.181
        37.3004         35.3004
 -22570648.54448 -17577286.88547  20604926.9654   20604925.2414   20604927.730
        48.1004         45.1004
 -11596938.26846  -8998357.37046  22729314.5174   22729315.0134   22729315.122
        40.1004         37.3004
  -9362361.03346  -7286471.31346  23253270.6594   23253273.7844   23253270.793
        38.3004         36.4004
 -20147005.59847 -15642091.38247  20543412.2924   20543412.2274   20543412.780
        47.9004         45.1004
  -7157543.10946  -5563336.68246  23052285.2834   23052287.6644   23052286.065
        38.7004         36.6004
 14 10 27  1 46 30.0000000  0 11G11G27G19G31G24G01G22G18G32G14G04
  -7847196.25546  -5232525.47146  22919064.2844   22919065.2754   22919064.365
        38.7004         36.2004
   2315445.71145   1826795.77945  25235503.4314   25235511.9394   25235503.140
        35.2004         33.4004
  -2122718.14746  -1623594.83545  24493632.7594   24493635.0904   24493634.036
        38.0004         35.7004
 -12648680.57047  -9843217.19146  22090483.5854   22090483.1624   22090482.948
        44.1004         41.2004
  -1467878.10246  -1127992.44046  24585781.2824   24585785.9274   24585781.076
        38.7004         36.4004
  -3182953.87946  -2455757.74745  24110463.9644   24110469.9814   24110463.721
        37.5004         35.3004
 -22547613.29648 -17559337.33347  20609310.4954   20609309.0054   20609311.229
        48.1004         45.1004
 -11529165.92946  -8945547.77446  22742210.1774   22742212.0784   22742211.876
        39.7004         37.3004
  -9441074.12846  -7347806.06746  23238290.7444   23238294.7894   23238291.604
        38.3004         36.2004
 -20126062.59847 -15625772.14247  20547397.8174   20547397.3664   20547398.235
        47.9004         44.9004
  -7237513.81346  -5625651.38046  23037068.1944   23037069.9544   23037067.719
        38.7004         36.2004
 14 10 27  1 47  0.0000000  0 11G11G27G19G31G24G01G22G18G32G14G04
  -7887451.17146  -5263892.86146  22911404.9234   22911403.9954   22911404.063
        38.7004         36.4004
   2398808.20245   1891753.53745  25251366.2304   25251373.7264   25251366.597
        35.2004         33.6004
  -2050086.75846  -1566998.95445  24507454.3514   24507456.7814   24507454.986
        37.8004         35.3004
 -12746702.07347  -9919597.51646  22071830.5664   22071830.3544   22071830.053
        44.1004         41.2004
  -1370369.65146  -1052011.87546  24604337.3334   24604341.4024   24604336.802
        38.7004         36.4004
  -3275874.55246  -2528163.30645  24092782.0394   24092787.4114   24092781.135
        37.3004         35.2004
 -22524255.39148 -17541136.36047  20613755.5734   20613753.8994   20613756.073
        48.1004         45.1004
 -11461164.25546  -8892559.47246  22755150.6354   22755151.5864   22755151.849
        39.7004         37.1004
  -9519704.96046  -7409076.71146  23223327.8774   23223331.5734   23223328.572
        38.5004         36.2004
 -20104812.60747 -15609213.69347  20551441.1974   20551441.3464   20551441.899
        47.9004         44.9004
  -7317084.45646  -5687654.35946  23021925.3884   23021928.7114   23021925.973
        38.7004         36.6004
 14 10 27  1 47 30.0000000  0 11G11G27G19G31G24G01G22G18G32G14G04
  -7927152.32646  -5294828.73946  22903849.4054   22903849.0264   22903849.323
        38.7004         36.6004
   2482106.83745   1956661.60145  25267216.6414   25267224.0254   25267218.028
        34.9004         33.3004
  -1977245.65046  -1510239.66145  24521314.9864   24521318.1574   24521316.138
        37.8004         35.5004
 -12844406.87547  -9995731.07446  22053237.2524   22053236.6394   22053237.374
        44.1004         41.2004
  -1272621.20946   -975844.30845  24622937.8374   24622941.4584   24622937.742
        38.2004         35.7004
  -3368519.86346  -2600354.30745  24075152.5344   24075157.1354   24075151.409
        37.5004         35.2004
 -22500573.55148 -17522682.96647  20618261.6444   20618260.2114   20618262.481
        48.1004         45.1004
 -11392933.34046  -8839392.55346  22768135.6184   22768136.8074   22768135.954
        39.7004         37.4004
  -9598252.72546  -7470282.64746  23208381.1064   23208384.3064   23208381.362
        38.5004         36.2004
 -20083256.78647 -15592416.93647  20555543.3094   20555543.0604   20555543.685
        47.9004         44.9004
  -7396252.53446  -5749343.63846  23006860.1184   23006862.2794   23006860.018
        38.7004         36.6004
 14 10 27  1 48  0.0000000  0 11G11G27G19G31G24G01G22G18G32G14G04
  -7966299.31746  -5325332.83146  22896400.5754   22896399.5944   22896399.687
        38.9004         36.4004
   2565338.88845   2021517.77445  25283056.7594   25283062.1724   25283056.847
        33.8004         32.2004
  -1904197.75746  -1453319.23145  24535215.6204   24535218.6914   24535216.882
        37.6004         35.5004
 -12941792.20147 -10071615.68346  22034705.6334   22034706.1334   22034705.514
        44.2004         41.4004
  -1174636.02246   -899492.26045  24641583.8694   24641587.6414   24641583.783
        37.6004         35.2004
  -3460887.19446  -2672328.70645  24057575.9404   24057581.4824   24057574.820
        37.3004         35.2004
 -22476568.51148 -17503977.73047  20622829.6684   20622828.1334   20622830.559
        48.1004         44.9004
 -11324473.67246  -8786047.37246  22781162.5774   22781163.3904   22781163.525
        39.9004         37.4004
  -9676716.51346  -7531423.14746  23193449.9244   23193453.7254   23193450.343
        38.7004         36.4004
 -20061396.41647 -15575382.86247  20559703.2324   20559703.1504   20559703.496
        47.7004         44.9004
  -7475015.55346  -5810717.29646  22991871.3734   22991875.3364   22991872.096
        39.0004         36.7004
 14 10 27  1 48 30.0000000  0 11G11G27G19G31G24G01G22G18G32G14G04
  -8004890.65146  -5355403.93446  22889056.6584   22889056.8864   22889056.054
        39.0004         36.6004
   2648501.61645   2086319.98345  25298884.4834   25298885.2664   25298882.319
        33.3004         32.2004
  -1830946.52846  -1396240.36345  24549155.2044   24549158.2544   24549155.921
        37.6004         35.3004
 -13038855.79547 -10147249.60046  22016235.0924   22016235.5274   22016234.743
        44.2004         41.2004
  -1076416.48746   -822957.57545  24660273.9754   24660279.5024   24660274.790
        37.1004         34.6004
  -3552973.92146  -2744084.45345  24040051.7244   24040056.7424   24040050.792
        37.3004         35.2004
 -22452239.66147 -17485020.17247  20627459.2584   20627457.8024   20627460.325
        47.9004         44.9004
 -11255785.45146  -8732524.10846  22794233.1014   22794235.3464   22794234.909
        39.7004         37.3004
  -9755095.32946  -7592497.43346  23178533.7134   23178537.0164   23178535.380
        38.7004         36.4004
 -20039232.89247 -15558112.57647  20563920.6934   20563920.6434   20563921.211
        47.7004         44.9004
  -7553370.99546  -5871773.36046  22976962.0034   22976965.3754   22976961.812
        39.0004         36.7004
 14 10 27  1 49  0.0000000  0 11G11G27G19G31G24G01G22G18G32G14G04
  -8042925.18546  -5385041.16746  22881818.0114   22881819.3584   22881818.283
        39.0004         36.7004
   2731592.16545   2151065.94045  25314693.3884   25314697.9254   25314694.559
        33.0004         32.0004
  -1757494.80046  -1339005.26245  24563133.6604   24563134.7534   24563133.303
        37.5004         35.5004
 -13135594.34847 -10222630.23746  21997826.3494   21997826.5974   21997825.976
        44.2004         41.2004
   -977965.70346   -746242.75845  24679008.6374   24679012.2184   24679008.495
        36.1004         33.8004
  -3644777.47246  -2815619.53745  24022582.0044   24022586.9264   24022581.549
        37.5004         35.3004
 -22427586.06547 -17465809.57647  20632150.6064   20632149.0354   20632151.597
        47.9004         44.9004
 -11186868.51946  -8678822.61646  22807349.2894   22807349.1564   22807349.375
        39.7004         37.1004
  -9833388.46346  -7653504.94146  23163636.0364   23163638.6424   23163636.455
        38.9004         36.4004
 -20016767.45747 -15540607.03847  20568195.8934   20568195.4164   20568196.349
        47.7004         44.9004
  -7631316.18446  -5932509.75746  22962129.9754   22962131.7624   22962129.601
        39.4004         37.1004
 14 10 27  1 49 30.0000000  0 11G11G27G19G31G24G01G22G18G32G14G04
  -8080402.11246  -5414243.90946  22874686.4164   22874687.4224   22874686.313
        39.0004         36.6004
   2814607.78745   2215753.51145  25330493.4594       -143.433    25330491.589
        32.3004         31.3004
  -1683845.54646  -1281616.26045  24577148.1154   24577149.6924   24577149.115
        37.6004         35.5004
 -13232005.15847 -10297755.48146  21979479.8734   21979480.4844   21979479.475
        44.2004         41.4004
   -879285.89245   -669349.45245  24697786.5734   24697790.4354   24697785.705
        35.6004         33.8004
  -3736295.13046  -2886931.84845  24005166.6844   24005171.9164   24005166.008
        37.3004         35.5004
 -22402607.40947 -17446345.68247  20636903.9524   20636902.3864   20636904.894
        47.9004         44.9004
 -11117723.49446  -8624943.40746  22820507.2774   22820505.2674   22820506.626
        39.6004         37.1004
  -9911595.16146  -7714445.11846  23148753.5624   23148756.5614   23148754.263
        38.9004         36.4004
 -19994001.84547 -15522867.60047  20572528.1224   20572527.5424   20572528.633
        47.7004         44.9004
  -7708848.77546  -5992924.64346  22947375.7244   22947378.7654   22947375.713
        39.4004         37.1004
 14 10 27  1 50  0.0000000  0 11G11G27G19G31G24G01G22G18G32G14G04
  -8117320.08846  -5443011.09846  22867659.8844   22867660.8654   22867660.951
        39.0004         36.2004
   2897545.91045   2280380.74445  25346269.0574   25346281.0044   25346273.657
        32.8004         32.0004
  -1610001.72846  -1224075.62745  24591198.2984   24591203.5964   24591200.245
        37.5004         35.2004
 -13328085.56647 -10372623.27546  21961196.0944   21961196.1744   21961196.089
        44.2004         41.2004
   -780379.76845   -592279.81345  24716606.6014   24716609.9834   24716606.411
        34.9004         33.3004
  -3827524.34246  -2958019.39645  23987805.6214   23987811.8614   23987805.821
        37.6004         35.5004
 -22377303.13447 -17426628.06647  20641719.4344   20641717.5694   20641720.177
        47.9004         44.9004
 -11048350.39946  -8570886.47046  22833707.9684   22833708.0544   22833707.498
        39.4004         37.1004
  -9989714.36246  -7775317.08746  23133887.8844   23133891.1644   23133888.874
        39.0004         36.6004
 -19970936.87547 -15504894.89347  20576916.8264   20576916.9154   20576917.645
        47.7004         44.7004
  -7785966.31946  -6053016.11346  22932700.7874   22932701.7394   22932700.741
        39.4004         36.9004
 14 10 27  1 50 30.0000000  0 11G11G27G19G31G24G01G22G18G32G14G04
  -8153678.14546  -5471341.96646  22860740.5014   22860741.8444   22860742.237
        39.0004         36.6004
   2980403.56145   2344945.19545  25362041.7854   25362050.2144   25362039.745
        33.0004         31.9004
  -1535966.82946  -1166386.11145  24605287.9714   24605290.3114   24605288.942
        37.1004         35.2004
 -13423832.64347 -10447231.33246  21942975.7744   21942975.9394   21942975.941
        44.2004         41.4004
   -681250.14845   -515036.00945  24735468.6614   24735477.0374   24735469.092
        34.5004         33.1004
  -3918462.44046  -3028880.10145  23970500.8064   23970505.9844   23970500.669
        37.6004         35.5004
 -22351672.73947 -17406656.32547  20646596.6314   20646595.0114   20646597.225
        47.9004         44.9004
 -10978749.76546  -8516652.23946  22846951.7194   22846952.4174   22846951.765
        39.2004         36.9004
 -10067745.17046  -7836120.19946  23119039.1914   23119042.7874   23119039.987
        39.0004         36.7004
 -19947574.02047 -15486690.06647  20581363.0284   20581362.4894   20581363.546
        47.7004         44.7004
  -7862666.06146  -6112782.03546  22918105.2714   22918107.9494   22918105.230
        39.4004         36.9004
 14 10 27  1 51  0.0000000  0 11G11G27G19G31G24G01G22G18G32G14G04
  -8189475.30246  -5499235.77046  22853929.8864   22853931.5034   22853930.096
        39.0004         36.4004
   3063178.20545   2409444.95945  25377786.8734       -143.433    25377789.880
        32.3004         31.5004
  -1461743.43646  -1108549.70545  24619411.4804   24619415.7644   24619412.701
        37.1004         35.0004
 -13519243.76147 -10521577.59546  21924821.0784   21924820.4314   21924819.647
        44.2004         41.6004
   -581899.80445   -437620.22045  24754377.9684   24754379.9214   24754377.757
        34.9004         33.4004
  -4009106.81046  -3099511.91645  23953251.0164   23953256.2254   23953251.476
        37.8004         35.7004
 -22325715.95247 -17386430.25147  20651535.8004   20651534.2444   20651536.687
        47.9004         44.9004
 -10908920.69946  -8462239.99946  22860240.0634   22860239.9634   22860240.067
        39.2004         36.6004
 -10145686.86746  -7896853.86246  23104207.8334   23104209.7844   23104208.003
        39.2004         36.7004
 -19923914.51347 -15468254.07147  20585865.2124   20585865.0474   20585865.579
        47.7004         44.7004
  -7938945.88046  -6172220.74846  22903590.4784   22903592.0354   22903589.487
        39.4004         36.9004
 14 10 27  1 51 30.0000000  0 10G11G19G31G24G01G22G18G32G14G04
  -8224710.60446  -5526691.78246  22847224.1394   22847226.4674   22847225.253
        39.0004         36.6004
  -1387334.75046  -1050568.91845  24633570.6764   24633574.5744   24633572.482
        37.3004         35.3004
 -13614315.78647 -10595659.63546  21906728.3084   21906728.2814   21906727.970
        44.4004         41.6004
   -482331.23245   -360034.32945  24773323.5884   24773327.9814   24773324.284
        34.9004         33.4004
  -4099454.85146  -3169912.81945  23936059.3284   23936064.3344   23936058.915
        38.0004         35.9004
 -22299431.94647 -17365949.20247  20656537.5814   20656536.2634   20656538.554
        47.9004         44.9004
 -10838864.57546  -8407650.84446  22873569.9774   22873572.3644   22873571.581
        39.2004         36.7004
 -10223538.51846  -7957517.36546  23089392.4604   23089397.2374   23089393.441
        39.2004         36.9004
 -19899959.66247 -15449587.93347  20590423.7464   20590423.1414   20590424.066
        47.7004         44.7004
  -8014803.07246  -6231330.13746  22889154.5544   22889155.9164   22889154.363
        39.4004         37.1004
 14 10 27  1 52  0.0000000  0 10G11G19G31G24G01G22G18G32G14G04
  -8259383.16746  -5553709.29146  22840627.1064   22840627.3104   22840627.345
        39.0004         36.7004
  -1312743.84746   -992446.13745  24647766.6544   24647767.8064   24647766.599
        37.5004         35.2004
 -13709046.24947 -10669475.52646  21888702.3664   21888701.4564   21888701.557
        44.6004         41.8004
   -382546.95645   -282280.34145  24792312.8194   24792315.8164   24792313.148
        35.4004         33.8004
  -4189503.89746  -3240080.74945  23918923.0964   23918927.9784   23918923.289
        38.0004         35.7004
 -22272820.48347 -17345212.98847  20661601.4984   20661600.1114   20661602.452
        47.9004         44.9004
 -10768581.18446  -8352884.59546  22886946.7304   22886947.6414   22886946.465
        39.2004         36.7004
 -10301299.16346  -8018109.93646  23074594.8154   23074598.0024   23074595.743
        39.2004         36.7004
 -19875711.00547 -15430692.85647  20595037.8974   20595037.6594   20595038.429
        47.7004         44.7004
  -8090235.32646  -6290108.40046  22874799.9404   22874801.7564   22874799.780
        39.6004         37.1004
 14 10 27  1 52 30.0000000  0 10G11G19G31G24G01G22G18G32G14G04
  -8293491.81546  -5580287.38546  22834137.2714   22834136.6444   22834136.363
        39.0004         36.4004
  -1237973.45546   -934183.47745  24661995.2804   24661995.4404   24661995.478
        37.6004         35.5004
 -13803432.24347 -10743022.99346  21870740.6244   21870740.4664   21870740.690
        44.8004         41.9004
   -282549.80045   -204360.48245  24811342.5464   24811347.2924   24811342.539
        35.7004         34.3004
  -4279251.39446  -3310013.69645  23901844.9804   23901849.5824   23901844.241
        38.0004         35.7004
 -22245881.05147 -17324221.20847  20666727.8894   20666726.4644   20666728.922
        47.9004         44.9004
 -10698070.70546  -8297941.38746  22900364.2454   22900365.3614   22900364.236
        39.0004         36.6004
 -10378967.96346  -8078630.95746  23059815.8344   23059818.1624   23059816.173
        39.4004         36.7004
 -19851169.62147 -15411569.67347  20599707.9484   20599707.6994   20599708.405
        47.5004         44.5004
  -8165240.09046  -6348553.57646  22860528.0434   22860529.7054   22860527.038
        39.6004         37.1004
 14 10 27  1 53  0.0000000  0 10G11G19G31G24G01G22G18G32G14G04
  -8327035.91246  -5606425.56546  22827752.9494   22827753.6864   22827753.320
        38.9004         36.6004
  -1163026.93446   -875783.57945  24676256.3924   24676258.0754   24676257.228
        37.6004         35.3004
 -13897471.41347 -10816300.20846  21852845.9654   21852844.7964   21852845.493
        44.9004         41.9004
   -182342.33145   -126276.76745  24830411.6414   24830415.0824   24830410.311
        35.9004         34.0004
  -4368694.64746  -3379709.56045  23884823.1304   23884828.4104   23884823.458
        38.0004         35.7004
 -22218613.29447 -17302973.59847  20671916.8564   20671915.3764   20671917.870
        47.9004         44.9004
 -10627333.44946  -8242821.48446  22913825.0124   22913824.5314   22913825.326
        39.0004         36.6004
 -10456543.92246  -8139079.62846  23045052.5084   23045054.8234   23045053.682
        39.4004         36.9004
 -19826336.91847 -15392219.48747  20604433.5984   20604433.3814   20604433.798
        47.5004         44.5004
  -8239814.83846  -6406663.66146  22846335.5524   22846337.8904   22846335.465
        39.6004         37.1004
 14 10 27  1 53 30.0000000  0 10G11G19G31G24G01G22G18G32G14G04
  -8360014.20146  -5632122.86346  22821477.4764   22821477.1394   22821478.073
        39.0004         36.6004
  -1087907.19646   -817248.70645  24690551.3834   24690553.8744   24690551.520
        37.6004         35.5004
 -13991160.67147 -10889304.76446  21835017.2164   21835016.5614   21835017.064
        44.9004         41.8004
    -81927.49745    -48031.42145  24849519.7964   24849522.1164   24849519.356
        35.6004         33.8004
  -4457831.13546  -3449166.39845  23867861.2884   23867865.7594   23867861.128
        38.0004         35.7004
 -22191016.55447 -17281469.64147  20677168.0514   20677166.7254   20677169.267
        47.9004         44.7004
 -10556369.87046  -8187525.21146  22927328.0254   22927329.3414   22927328.969
        38.9004         36.7004
 -10534026.17046  -8199455.28446  23030308.0414   23030310.7364   23030308.987
        39.4004         36.7004
 -19801214.05247 -15372643.19847  20609213.8444   20609213.9334   20609214.383
        47.5004         44.5004
  -8313957.47246  -6464437.04746  22832227.0904   22832229.0114   22832226.222
        39.6004         37.1004
 14 10 27  1 54  0.0000000  0 10G11G19G31G24G01G22G18G32G14G04
  -8392426.25246  -5657378.92346  22815309.6134   22815310.1834   22815309.532
        39.0004         36.7004
  -1012617.13046   -758581.10745  24704877.8574   24704881.5774   24704879.091
        37.8004         35.7004
 -14084497.17047 -10962034.44847  21817255.9094   21817255.7474   21817255.420
        44.9004         42.1004
     18692.56845     30373.86145  24868666.8314   24868670.4254   24868666.908
        35.9004         34.0004
  -4546658.23046  -3518382.13745  23850957.8844   23850964.5284   23850957.400
        38.0004         35.9004
 -22163090.65847 -17259709.19747  20682482.6124   20682480.8784   20682483.432
        47.7004         44.7004
 -10485179.72946  -8132052.39946  22940875.3984   22940876.3984   22940875.773
        39.0004         36.6004
 -10611413.79646  -8259757.18646  23015582.3924   23015583.8784   23015582.484
        39.4004         36.9004
 -19775802.42747 -15352841.90147  20614049.5054   20614049.6634   20614049.997
        47.5004         44.5004
  -8387665.24646  -6521871.59346  22818199.9604   22818201.9974   22818200.453
        39.7004         36.9004
 14 10 27  1 54 30.0000000  0 10G11G19G31G24G01G22G18G32G14G04
  -8424270.98146  -5682192.92346  22809250.2714   22809251.4614   22809249.666
        39.2004         36.6004
   -937159.79646   -699783.17145  24719237.8684   24719239.7934   24719238.497
        37.6004         35.5004
 -14177478.48447 -11034487.36147  21799562.1904   21799561.3654   21799561.646
        45.1004         42.3004
    119515.33146    108937.04345  24887852.6804   24887857.8764   24887852.720
        36.1004         34.3004
  -4635173.26246  -3587354.72445  23834113.4414   23834120.6814   23834113.401
        37.8004         35.7004
 -22134835.04047 -17237691.82747  20687859.1954   20687857.6494   20687860.386
        47.7004         44.7004
 -10413763.76846  -8076403.62146  22954465.5544   22954466.1714   22954465.840
        39.0004         36.7004
 -10688705.84546  -8319984.63246  23000873.7994   23000876.5064   23000874.674
        39.6004         37.1004
 -19750103.37047 -15332816.64147  20618939.9714   20618939.8734   20618940.597
        47.5004         44.5004
  -8460935.82146  -6578965.45146  22804256.8374   22804259.1744   22804257.138
        39.7004         37.3004
 14 10 27  1 55  0.0000000  0 10G11G19G31G24G01G22G18G32G14G04
  -8455547.70146  -5706564.32246  22803298.2054   22803298.0594   22803297.879
        39.2004         36.7004
   -861538.64846   -640857.58545  24733626.9514   24733629.6324   24733628.769
        37.8004         35.7004
 -14270101.84647 -11106661.35847  21781936.3264   21781935.9484   21781936.004
        45.1004         42.1004
    220537.53545    187655.62245  24907078.4914   24907080.3324   24907076.618
        35.9004         34.0004
  -4723373.68746  -3656082.15545  23817330.1464   23817335.1944   23817329.081
        38.0004         35.5004
 -22106249.13847 -17215417.08647  20693299.0524   20693297.3474   20693299.830
        47.7004         44.7004
 -10342122.08846  -8020578.94546  22968099.1134   22968099.5304   22968098.769
        39.2004         36.7004
 -10765901.44946  -8380136.92946  22986184.5254   22986184.9974   22986184.486
        39.6004         37.3004
 -19724118.12847 -15312568.38547  20623884.8734   20623884.6584   20623885.272
        47.5004         44.5004
  -8533766.85146  -6635716.81946  22790397.8714   22790400.4544   22790398.236
        39.7004         37.3004
 14 10 27  1 55 30.0000000  0 10G11G19G31G24G01G22G18G32G14G04
  -8486255.33046  -5730492.29146  22797453.0134   22797454.7584   22797454.372
        39.2004         36.7004
   -785756.40946   -581806.48645  24748048.3244   24748050.3434   24748049.648
        38.0004         35.9004
 -14362364.36447 -11178554.17847  21764379.1454   21764378.3694   21764379.197
        45.3004         42.5004
    321757.15745    266528.07145  24926339.5524   24926342.5664   24926337.987
        35.9004         34.0004
  -4811256.90746  -3724562.44145  23800605.3894   23800610.8634   23800604.909
        38.0004         35.7004
 -22077332.63147 -17192884.73747  20698801.6004   20698799.8914   20698802.411
        47.7004         44.7004
 -10270254.93546  -7964578.60046  22981774.2664   22981774.6264   22981774.898
        39.2004         36.7004
 -10842999.63046  -8440213.31946  22971512.9584   22971515.5544   22971513.220
        39.7004         37.1004
 -19697848.04647 -15292098.17847  20628883.6614   20628883.9094   20628884.351
        47.5004         44.5004
  -8606155.73846  -6692123.63946  22776622.6434   22776623.8684   22776622.734
        39.9004         37.3004
 14 10 27  1 56  0.0000000  0 11G11G19G31G24G01G22G18G25G32G14G04
  -8516393.34546  -5753976.40346  22791719.5804   22791719.1064   22791718.902
        39.2004         36.7004
   -709816.17246   -522632.27746  24762499.5704   24762501.8784   24762501.038
        38.3004         36.0004
 -14454263.51747 -11250163.84647  21746891.1274   21746890.6774   21746890.944
        45.3004         42.3004
    423171.29545    345552.11745  24945638.5654   24945640.3764   24945636.733
        35.7004         34.1004
  -4898820.26646  -3792793.47745  23783943.4874   23783948.1924   23783942.493
        38.0004         35.5004
 -22048085.08247 -17170094.43147  20704367.1964   20704365.5944   20704368.116
        47.5004         44.5004
 -10198162.64346  -7908402.82146  22995493.8684   22995495.0554   22995493.928
        39.4004         36.7004
    -19120.00844     -4535.72743      -139.940        -143.433    24485014.055
        26.4004         23.4004
 -10919999.42046  -8500213.03946  22956859.6204   22956862.0734   22956860.791
        39.7004         37.4004
 -19671294.59247 -15271407.16147  20633936.6794   20633936.2794   20633937.286
        47.5004         44.5004
  -8678100.49546  -6748184.38446  22762932.3434   22762933.9934   22762932.187
        39.9004         37.4004
 14 10 27  1 56 30.0000000  0 11G11G19G31G24G01G22G18G25G32G14G04
  -8545960.85846  -5777015.97146  22786092.9894   22786092.9594   22786092.344
        39.2004         36.9004
   -633720.79646   -463337.17046  24776980.0174   24776982.1914   24776981.044
        38.3004         36.2004
 -14545796.62547 -11321488.28547  21729472.5094   21729472.5704   21729472.560
        45.3004         42.1004
    524777.50045    424725.76645  24964971.7944   24964974.5704   24964971.220
        35.6004         33.8004
  -4986061.19446  -3860773.28645  23767341.5264   23767346.7494   23767342.075
        38.2004         35.9004
 -22018506.29747 -17147046.01347  20709995.5344   20709994.5204   20709996.797
        47.5004         44.5004
 -10125845.32046  -7852051.69646  23009254.8834   23009255.4674   23009255.709
        39.2004         36.7004
    -86900.78144    -57352.59745      -139.940        -143.433    24472116.847
        26.4004         31.3004
 -10996899.81646  -8560135.31046  22942226.6734   22942228.0434   22942226.910
        39.7004         37.1004
 -19644458.90547 -15250496.22247  20639043.5004   20639043.4294   20639044.048
        47.5004         44.5004
  -8749598.45446  -6803896.96946  22749326.0524   22749328.8674   22749327.141
        40.1004         37.4004
 14 10 27  1 57  0.0000000  0 11G11G19G31G24G01G22G18G25G32G14G04
  -8574957.39046  -5799610.60746  22780574.5294   22780574.9584   22780574.537
        39.2004         36.7004
   -557473.60646   -403923.77846  24791489.4464   24791492.0354   24791490.548
        38.5004         36.2004
 -14636960.87947 -11392525.31747  21712124.7934   21712124.7924   21712124.442
        45.3004         42.3004
    626572.87845    504046.78945  24984342.9554   24984347.3614   24984341.960
        35.4004         33.6004
  -5072977.11146  -3928499.83446  23750802.3534   23750806.8164   23750802.325
        38.2004         36.0004
 -21988595.80347 -17123739.12647  20715687.8944   20715686.1314   20715688.670
        47.5004         44.5004
 -10053303.14546  -7795525.35046  23023059.7734   23023059.9304   23023059.994
        39.2004         36.7004
   -154426.41844   -109971.16544      -139.940        -143.433    24459265.684
        26.4004         29.1004
 -11073699.94346  -8619979.45346  22927612.1144   22927613.7124   22927612.137
        39.7004         37.3004
 -19617342.39247 -15229366.45647  20644203.8754   20644203.4164   20644204.226
        47.5004         44.7004
  -8820647.35446  -6859259.65646  22735806.8884   22735808.0204   22735806.922
        40.3004         37.8004
 14 10 27  1 57 30.0000000  0 11G11G19G31G24G01G22G18G25G32G14G04
  -8603382.14346  -5821759.71346  22775166.4914   22775166.5694   22775165.618
        39.2004         36.9004
   -481077.51646   -344394.35146  24806026.8394   24806029.3684   24806027.976
        38.7004         36.4004
 -14727753.96247 -11463273.13047  21694847.2044   21694847.2044   21694846.970
        45.3004         42.5004
    728555.13145    583513.50045  25003747.9744   25003755.3914   25003747.660
        35.2004         33.4004
  -5159565.43646  -3995971.13345  23734325.1864   23734329.9464   23734325.157
        38.2004         35.9004
 -21958353.04247 -17100173.33247  20721442.6314   20721440.8954   20721443.487
        47.5004         44.5004
  -9980536.78146  -7738824.31646  23036906.2364   23036906.4164   23036906.603
        39.0004         36.4004
   -221693.75544      -984.97343      -139.940        -143.433    24446465.248
        26.4004         23.4004
 -11150398.72746  -8679744.62946  22913016.6304   22913017.7564   22913016.710
        39.7004         37.3004
 -19589945.91447 -15208018.53247  20649416.8964   20649416.6014   20649417.351
        47.5004         44.7004
  -8891244.78646  -6914270.53646  22722373.1094   22722373.7214   22722372.334
        40.3004         37.9004
 14 10 27  1 58  0.0000000  0 12G11G27G19G31G24G01G22G18G25G32G14G04
  -8631234.09346  -5843462.47246  22769864.7904   22769866.3274   22769865.887
        39.4004         37.1004
    174090.05544    117191.83645      -139.940    25596112.5394       -139.940
        26.4004         34.3004
   -404535.50346   -284751.21246  24820592.2264   24820594.8494   24820593.285
        38.9004         36.4004
 -14818172.84347 -11533729.34847  21677641.6304   21677641.0254   21677641.227
        45.3004         42.5004
    830721.46945    663123.64745  25023190.2424   25023193.8804   25023189.450
        35.2004         33.4004
  -5245823.52746  -4063185.07746  23717910.7054   23717915.8614   23717910.480
        38.3004         36.2004
 -21927777.61047 -17076348.31547  20727261.0424   20727259.1574   20727261.960
        47.5004         44.4004
  -9907546.45846  -7681948.76246  23050796.5834   23050796.9574   23050796.195
        39.0004         36.7004
   -288699.69044    -53197.33944      -139.940        -143.433    24433714.060
        26.4004         29.4004
 -11226995.30146  -8739430.15546  22898440.4594   22898440.8634   22898440.997
        39.7004         37.4004
 -19562271.43647 -15186453.98847  20654683.2854   20654683.1764   20654683.867
        47.5004         44.7004
  -8961388.59346  -6968927.95046  22709024.1794   22709027.3154   22709024.177
        40.4004         37.8004
 14 10 27  1 58 30.0000000  0 11G11G19G31G24G01G22G18G25G32G14G04
  -8658513.01446  -5864718.73046  22764674.4614   22764674.0394   22764674.688
        39.4004         37.1004
   -327850.73446   -224996.83746  24835184.9624   24835188.4104   24835185.756
        38.9004         36.4004
 -14908214.75847 -11603891.84047  21660506.8484   21660506.5794   21660506.786
        45.3004         42.3004
    933069.10245    742875.03245  25042666.5804   25042671.9874   25042668.095
        35.9004         34.3004
  -5331748.82546  -4130139.73546  23701559.6904   23701564.2404   23701559.831
        38.3004         36.0004
 -21896869.40847 -17052263.99647  20733142.6564   20733141.1644   20733143.369
        47.5004         44.5004
  -9834332.67446  -7624899.09146  23064727.9304   23064727.7314   23064728.301
        38.9004         36.4004
   -355441.15244   -105203.44145      -139.940        -143.433    24421013.389
        26.4004         34.3004
 -11303488.63946  -8799035.26246  22883882.9304   22883886.5864   22883884.627
        39.7004         37.3004
 -19534320.00647 -15164673.64547  20660002.6064   20660002.0684   20660002.787
        47.5004         44.5004
  -9031076.09046  -7023229.79146  22695761.8314   22695764.8244   22695762.695
        40.4004         37.9004
 14 10 27  1 59  0.0000000  0 11G11G19G31G24G01G22G18G25G32G14G04
  -8685218.13846  -5885527.85646  22759592.3704   22759592.4964   22759592.539
        39.4004         37.3004
   -251026.16646   -165133.53646  24849803.9964   24849806.5974   24849804.996
        38.7004         36.2004
 -14997877.44947 -11673758.82947  21643444.1204   21643444.2534   21643444.526
        45.3004         42.5004
   1035595.57445    822765.77245  25062178.3074   25062179.0524   25062178.207
        35.7004         33.8004
  -5417338.76746  -4196833.05145  23685271.8734   23685277.1094   23685272.227
        38.3004         35.9004
 -21865627.82447 -17027919.90447  20739087.9914   20739086.4514   20739088.628
        47.5004         44.5004
  -9760895.32046  -7567675.21146  23078703.3364   23078703.9734   23078703.168
        38.9004         36.6004
   -421915.01845   -157001.24045      -139.940    24408369.1204   24408364.509
        35.2004         34.3004
 -11379877.80146  -8858559.18346  22869346.8724   22869348.9304   22869347.846
        39.7004         37.3004
 -19506092.77747 -15142678.39147  20665373.6554   20665373.4144   20665374.017
        47.5004         44.7004
  -9100305.26346  -7077174.49946  22682589.5724   22682592.0014   22682588.411
        40.4004         37.9004
 14 10 27  1 59 30.0000000  0 11G11G19G31G24G01G22G18G25G32G14G04
  -8711348.85346  -5905889.39146  22754619.8074   22754619.8604   22754620.197
        39.4004         37.1004
   -174064.71046   -105163.56446  24864449.2554   24864452.7594   24864450.527
        38.7004         36.2004
 -15087157.90947 -11743327.96347  21626455.3234   21626454.7934   21626454.980
        45.3004         42.5004
   1138298.55245    902794.03345  25081722.6444   25081725.4164   25081720.830
        35.9004         34.3004
  -5502590.75146  -4263263.03646  23669049.1014   23669053.5874   23669049.177
        38.3004         36.0004
 -21834052.61447 -17003315.83547  20745096.1094   20745094.7754   20745097.235
        47.5004         44.5004
  -9687234.91446  -7510277.50346  23092720.6384   23092719.7264   23092719.981
        38.7004         36.2004
   -488118.23146   -208588.08945  24395764.8164   24395771.0464   24395766.251
        36.3004         34.5004
 -11456161.72746  -8918001.09546  22854830.5584   22854833.8774   22854831.744
        39.9004         37.3004
 -19477591.16347 -15120469.32947  20670797.0614   20670797.3484   20670797.808
        47.5004         44.7004
  -9169073.71546  -7130760.20046  22669503.3324   22669504.5894   22669502.240
        40.4004         37.8004
 14 10 27  2  0  0.0000000  0 11G11G19G31G24G01G22G18G25G32G14G04
  -8736904.59746  -5925802.89346  22749758.1254   22749756.1744   22749757.189
        39.6004         36.9004
    -96969.46446    -45089.36146  24879120.6434   24879122.3134   24879121.003
        38.7004         36.2004
 -15176053.93747 -11812597.55447  21609538.0764   21609538.0584   21609538.624
        45.3004         42.5004
   1241175.06445    982957.58145  25101297.5974   25101302.4314   25101298.369
        35.6004         34.0004
  -5587502.17846  -4329427.63846  23652890.8144   23652896.0774   23652891.003
        38.5004         36.2004
 -21802143.21347 -16978451.36247  20751168.1364   20751166.5204   20751169.118
        47.5004         44.4004
  -9613351.74846  -7452706.23146  23106779.1894   23106780.2174   23106779.416
        38.5004         36.4004
   -554047.63146   -259961.58745  24383219.8554   24383225.3274   24383220.398
        36.3004         34.3004
 -11532339.38446  -8977360.18646  22840335.1884   22840336.3924   22840335.808
        39.9004         37.4004
 -19448816.51747 -15098047.51447  20676272.7884   20676272.7084   20676273.355
        47.5004         44.5004
  -9237379.24046  -7183985.20246  22656504.5064   22656507.3344   22656504.300
        40.4004         37.8004
 14 10 27  2  0 30.0000000  0 11G11G19G31G24G01G22G18G25G32G14G04
  -8761884.76446  -5945267.89446  22745004.9274   22745004.0934   22745003.879
        39.4004         37.1004
    -19743.46146     15086.73446  24893815.7814   24893819.6554   24893817.501
        38.7004         36.2004
 -15264562.94547 -11881565.57447  21592696.1554   21592696.0294   21592695.916
        45.3004         42.5004
   1344222.58345   1063254.35045  25120908.2004   25120912.5244   25120907.060
        35.9004         34.3004
  -5672070.50046  -4395324.89946  23636798.4644   23636803.2254   23636797.641
        38.3004         36.0004
 -21769899.29147 -16953326.22247  20757304.2814   20757302.8214   20757305.086
        47.4004         44.4004
  -9539246.05946  -7394961.55345  23120881.2524   23120882.0144   23120881.054
        38.3004         35.9004
   -619700.21046   -311119.38545  24370726.0944   24370731.2114   24370727.046
        36.1004         34.3004
 -11608409.86346  -9036635.77546  22825858.6524   22825861.2314   22825859.743
        39.9004         37.4004
 -19419770.17947 -15075413.98747  20681800.1994   20681799.7374   20681800.496
        47.5004         44.7004
  -9305219.28146  -7236847.47646  22643594.5284   22643596.4374   22643594.725
        40.4004         37.9004
 14 10 27  2  1  0.0000000  0 11G11G19G31G24G01G22G18G25G32G14G04
  -8786288.94246  -5964284.08046  22740359.6334   22740360.6414   22740359.709
        39.4004         36.9004
     57609.99146     75362.12846  24908535.9134   24908538.9044   24908536.396
        38.3004         36.0004
 -15352682.16647 -11950229.86647  21575927.5674   21575927.1354   21575927.218
        45.5004         42.6004
   1447438.89646   1143682.68645  25140547.7544   25140552.4814   25140546.874
        36.4004         34.5004
  -5756293.14146  -4460952.80046  23620770.8854   23620774.4944   23620770.798
        38.5004         36.2004
 -21737320.77047 -16927940.35647  20763504.0444   20763501.9784   20763504.754
        47.4004         44.4004
  -9464918.05046  -7337043.67645  23135025.6544   23135025.5934   23135025.434
        38.2004         35.9004
   -685072.86945   -362059.04245  24358285.7034   24358290.4754   24358286.706
        35.9004         33.8004
 -11684372.08746  -9095827.00846  22811404.0194   22811405.3944   22811404.227
        39.9004         37.4004
 -19390453.40447 -15052569.73347  20687378.9064   20687379.0354   20687379.426
        47.5004         44.7004
  -9372591.91146  -7289345.54346  22630775.1614   22630776.0564   22630773.957
        40.3004         37.8004
 14 10 27  2  1 30.0000000  0 11G11G19G31G24G01G22G18G25G32G14G04
  -8810116.38546  -5982850.86446  22735825.3024   22735825.1674   22735825.214
        39.6004         37.1004
    135088.04946    135734.64045  24923280.9674   24923281.5784   24923280.886
        38.2004         35.7004
 -15440408.88247 -12018588.30647  21559233.3944   21559232.8734   21559233.308
        45.5004         42.6004
   1550821.07645   1224240.29345  25160218.4364   25160226.7354   25160219.481
        35.9004         34.0004
  -5840167.57446  -4526309.36646  23604809.5864   23604813.5764   23604810.313
        38.5004         36.2004
 -21704407.18047 -16902293.40047  20769767.1854   20769765.1604   20769767.944
        47.4004         44.4004
  -9390368.57246  -7278953.20545  23149211.3084   23149212.7324   23149211.633
        38.0004         35.3004
   -750162.53145   -412778.18645  24345900.3154   24345904.0924   24345899.856
        35.6004         33.8004
 -11760225.00846  -9154933.09846  22796970.0434   22796970.4604   22796969.969
        40.1004         37.3004
 -19360867.34947 -15029515.64947  20693009.1994   20693008.9774   20693009.357
        47.5004         44.5004
  -9439494.79446  -7341477.55846  22618042.6014   22618043.7244   22618042.965
        40.4004         37.8004
 14 10 27  2  2  0.0000000  0 11G11G19G31G24G01G22G18G25G32G14G04
  -8833366.91646  -6000968.12646  22731400.4574   22731400.4994   22731400.814
        39.6004         37.3004
    212687.76046    196201.92945  24938047.5484   24938049.2384   24938048.076
        38.0004         35.5004
 -15527740.41247 -12086638.80447  21542614.6334   21542614.7104   21542614.446
        45.6004         42.8004
   1654366.42645   1304924.91845  25179924.1504   25179928.6854   25179924.626
        35.7004         34.0004
  -5923691.22946  -4591392.60346  23588915.6134   23588919.8444   23588915.630
        38.5004         36.2004
 -21671158.05547 -16876384.98647  20776094.3974   20776092.1204   20776095.165
        47.4004         44.4004
  -9315597.91646  -7220690.38645  23163438.9304   23163441.1234   23163440.431
        37.6004         35.5004
   -814966.11845   -463274.43145  24333566.3234   24333574.6394   24333567.926
        35.7004         34.0004
 -11835967.64846  -9213953.22846  22782555.4404   22782557.6394   22782556.497
        40.1004         37.8004
 -19331013.40547 -15006252.82047  20698689.9984   20698689.8484   20698690.593
        47.5004         44.5004
  -9505925.43346  -7393241.60046  22605401.6304   22605403.8314   22605401.360
        40.3004         37.6004
 14 10 27  2  2 30.0000000  0 11G11G19G31G24G01G22G18G25G32G14G04
  -8856040.02546  -6018635.40646  22727085.5714   22727086.6824   22727085.651
        39.7004         37.3004
    290406.15946    256761.70845  24952834.8034   24952838.2474   24952836.350
        37.5004         35.0004
 -15614674.58747 -12154379.68047  21526072.0174   21526071.4324   21526071.566
        45.8004         43.0004
   1758072.74845   1385735.13545  25199659.5794   25199663.4104   25199660.387
        35.4004         33.8004
  -6006861.48546  -4656200.47146  23573088.6304   23573092.7514   23573088.625
        38.7004         36.4004
 -21637573.18347 -16850214.95347  20782484.7344   20782483.4424   20782485.982
        47.4004         44.4004
  -9240606.30846  -7162255.38745  23177709.6944   23177710.3534   23177711.082
        37.5004         35.3004
   -879480.56745   -513545.35945  24321291.2234   24321296.1504   24321291.449
        35.4004         33.6004
 -11911598.97646  -9272886.63446  22768164.3844   22768165.8244   22768164.534
        40.3004         37.8004
 -19300892.94647 -14982782.32147  20704421.8334   20704421.5994   20704422.131
        47.5004         44.5004
  -9571881.76646  -7444636.05446  22592849.8264   22592851.6464   22592850.445
        40.3004         37.6004
 14 10 27  2  3  0.0000000  0 11G11G19G31G24G01G22G18G25G32G14G04
  -8878135.03946  -6035852.26846  22722881.4814   22722882.2854   22722881.372
        39.6004         37.3004
    368240.01146    317411.47345  24967646.5284   24967649.2294   24967646.927
        37.0004         34.6004
 -15701208.72747 -12221808.83947  21509605.1014   21509604.7354   21509604.759
        46.0004         43.2004
   1861937.58145   1466668.83845  25219423.7124   25219431.2204   25219422.814
        35.0004         33.4004
  -6089675.86146  -4720731.03046  23557329.9124   23557334.7674   23557329.175
        38.7004         36.4004
 -21603652.24147 -16823783.04447  20788939.8544   20788938.4844   20788940.758
        47.4004         44.4004
  -9165394.29146  -7103648.66945  23192023.7524   23192022.3044   23192023.644
        37.6004         35.5004
   -943702.81945   -563588.63545  24309069.9724   24309072.4714   24309070.954
        35.4004         33.8004
 -11987118.04546  -9331732.55146  22753793.0054   22753794.9884   22753793.733
        40.4004         37.9004
 -19270507.41147 -14959105.27547  20710204.2034   20710203.8424   20710204.396
        47.5004         44.7004
  -9637361.71046  -7495659.30646  22580389.7564   22580392.0014   22580389.499
        40.3004         37.4004
 14 10 27  2  3 30.0000000  0 11G11G19G31G24G01G22G18G25G32G14G04
  -8899651.60746  -6052618.38246  22718787.2064   22718788.1904   22718786.893
        39.7004         37.3004
    446186.41246    378148.92445  24982477.8144   24982481.7664   24982479.676
        36.4004         34.3004
 -15787340.38947 -12288924.37847  21493214.6124   21493214.3264   21493214.370
        46.0004         43.0004
   1965957.89445   1547723.62245  25239217.5234   25239225.9244   25239218.002
        35.2004         33.4004
  -6172131.80446  -4784982.29146  23541639.8724   23541642.9664   23541638.724
        38.9004         36.4004
 -21569395.05247 -16797089.12447  20795458.8784   20795457.4544   20795459.924
        47.4004         44.4004
  -9089961.97346  -7044870.26645  23206377.6024   23206376.9604   23206377.811
        37.5004         35.5004
  -1007629.83245   -613401.81745  24296906.2954   24296909.5784   24296906.288
        35.6004         34.0004
 -12062523.59546  -9390490.01446  22739443.5544   22739445.5964   22739444.656
        40.8004         38.1004
 -19239857.83647 -14935222.47747  20716036.6904   20716036.1444   20716036.890
        47.5004         44.7004
  -9702362.87446  -7546309.45646  22568019.6534   22568022.0474   22568020.026
        40.3004         37.8004
 14 10 27  2  4  0.0000000  0 11G11G19G31G24G01G22G18G25G32G14G04
  -8920589.38046  -6068933.46646  22714802.0774   22714803.9134   22714802.626
        39.7004         37.3004
    524242.30846    438971.68145  24997330.8774   24997334.2624   24997332.562
        36.1004         34.0004
 -15873067.08747 -12355724.36347  21476901.0584   21476900.6454   21476900.919
        46.0004         43.2004
   2070131.54345   1628897.92945  25259042.0214   25259045.5724   25259041.631
        34.3004         33.1004
  -6254226.78346  -4848952.28046  23526016.5314   23526022.5934   23526016.924
        38.9004         36.6004
 -21534801.00647 -16770132.71847  20802041.7714   20802040.3794   20802043.013
        47.4004         44.4004
  -9014309.65046  -6985920.43945  23220772.3824   23220772.5694   23220773.659
        37.6004         35.3004
  -1071258.60245   -662982.60545  24284797.8464   24284802.7904   24284798.315
        35.7004         34.1004
 -12137814.75246  -9449158.33846  22725116.7424   22725118.3324   22725117.344
        40.9004         38.5004
 -19208945.58547 -14911135.00047  20721918.7904   20721918.5804   20721919.254
        47.5004         44.7004
  -9766883.12346  -7596584.90146  22555742.8424   22555743.9074   22555742.419
        40.3004         37.9004
 14 10 27  2  4 30.0000000  0 11G11G19G31G24G01G22G18G25G32G14G04
  -8940948.06546  -6084797.33346  22710928.2784   22710927.7234   22710928.564
        39.9004         37.4004
    602404.77645    499877.49545  25012203.5304   25012209.4944   25012206.407
        35.6004         34.0004
 -15958386.12447 -12422206.69147  21460665.3904   21460665.5874   21460665.135
        46.0004         43.0004
   2174455.61245   1710189.43345  25278890.2194   25278897.7624   25278894.226
        34.2004         32.6004
  -6335958.25546  -4912639.01046  23510465.1914   23510469.0934   23510463.941
        38.9004         36.6004
 -21499869.92047 -16742913.68847  20808689.0534   20808687.4194   20808690.176
        47.4004         44.4004
  -8938438.09946  -6926799.77745  23235210.7184   23235212.9994   23235211.461
        37.8004         35.5004
  -1134586.04046   -712328.58645  24272748.4554   24272749.3174   24272746.849
        36.3004         34.5004
 -12212990.24346  -9507736.51946  22710810.3984   22710812.5704   22710811.607
        41.1004         38.6004
 -19177771.74047 -14886843.68547  20727851.0914   20727850.7894   20727851.561
        47.5004         44.7004
  -9830920.24646  -7646483.87546  22543555.9614   22543557.9374   22543556.382
        40.4004         37.9004
 14 10 27  2  5  0.0000000  0 11G11G19G31G24G01G22G18G25G32G14G04
  -8960727.28546  -6100209.66146  22707164.5114   22707165.3354   22707164.708
        39.9004         37.3004
    680670.76745    560863.96145  25027098.5514   25027102.3024   25027100.922
        35.7004         33.8004
 -16043295.03147 -12488369.43147  21444507.6974   21444507.6474   21444507.666
        46.0004         43.0004
   2278927.35645   1791596.08445  25298775.2204   25298780.3634   25298774.342
        34.3004         32.9004
  -6417323.69546  -4976040.52146  23494980.6084   23494984.1964   23494979.768
        38.7004         36.4004
 -21464601.43347 -16715431.74647  20815400.4084   20815398.7614   20815401.361
        47.4004         44.4004
  -8862347.91246  -6867508.76445  23249691.0844   23249691.0824   23249690.605
        37.8004         35.7004
  -1197609.13546   -761437.43245  24260753.8294   24260757.1774   24260753.229
        36.4004         34.6004
 -12288049.24346  -9566223.94646  22696528.1564   22696528.7334   22696528.250
        41.3004         38.8004
 -19146337.70047 -14862349.61147  20733832.8894   20733832.7344   20733833.123
        47.5004         44.7004
  -9894472.26046  -7696004.84746  22531463.2774   22531464.6564   22531462.811
        40.6004         38.1004
 14 10 27  2  5 30.0000000  0 11G11G19G31G24G01G22G18G25G32G14G04
  -8979926.78046  -6115170.26346  22703511.3954   22703511.8494   22703511.559
        39.9004         37.4004
    759037.37245    621928.80845  25042010.5484   25042014.1184   25042012.776
        35.7004         34.0004
 -16127791.17347 -12554210.54347  21428428.7314   21428427.5504   21428428.401
        46.0004         43.0004
   2383544.58845   1873116.07545  25318682.2284   25318685.8904   25318682.603
        33.8004         32.6004
  -6498320.57346  -5039154.83646  23479566.0884   23479572.2424   23479566.008
        38.5004         36.2004
 -21428995.48047 -16687686.83647  20822176.0884   20822174.2254   20822176.946
        47.4004         44.4004
  -8786038.72046  -6808047.09045  23264210.5934   23264214.2424   23264212.501
        37.8004         35.5004
  -1260324.87646   -810306.77145  24248819.2274   24248824.0974   24248818.489
        36.8004         35.0004
 -12362990.57746  -9624619.67546  22682266.4144   22682268.5484   22682267.285
        41.5004         38.6004
 -19114644.91347 -14837653.91947  20739863.8194   20739863.3394   20739864.064
        47.5004         44.5004
  -9957536.71446  -7745145.91446  22519462.0704   22519464.1104   22519462.542
        40.6004         38.1004
 14 10 27  2  6  0.0000000  0 12G11G12G19G31G24G01G22G18G25G32G14G04
  -8998546.32646  -6129678.95346  22699967.8364   22699968.7984   22699967.969
        39.9004         37.3004
     -6608.92444     -1542.27643      -139.940        -143.433    24627340.248
        26.4004         23.4004
    837501.27545    683069.51745  25056943.4014   25056944.7684   25056943.881
        35.7004         34.0004
 -16211872.19247 -12619728.18047  21412427.9934   21412428.2534   21412428.255
        46.0004         43.2004
   2488304.95345   1954747.54545  25338618.9094   25338621.8494   25338617.003
        33.7004         32.2004
  -6578946.39846  -5101980.03246  23464224.2074   23464227.8174   23464224.015
        38.5004         36.2004
 -21393051.66547 -16659678.66647  20829015.6854   20829014.2514   20829016.638
        47.4004         44.4004
  -8709511.20946  -6748415.29945  23278774.4174   23278775.5344   23278774.951
        37.8004         35.7004
  -1322730.21146   -858934.25245  24236943.6974   24236948.8674   24236943.699
        37.5004         35.3004
 -12437813.17746  -9682922.90046  22668028.2844   22668030.0934   22668029.114
        41.5004         38.8004
 -19082694.58747 -14812757.54347  20745943.6524   20745943.5924   20745943.978
        47.5004         44.5004
 -10020111.69546  -7793905.56446  22507554.9234   22507556.7754   22507554.665
        40.6004         37.9004
 14 10 27  2  6 30.0000000  0 12G11G12G19G31G24G01G22G18G25G32G14G04
  -9016585.52246  -6143735.41446  22696534.9514   22696534.9384   22696535.183
        39.9004         37.4004
    -22830.59944    -14182.49145      -139.940        -143.433    24624253.966
        26.4004         32.4004
    916059.76645    744283.90445  25071892.5404   25071895.8324   25071893.663
        35.9004         34.1004
 -16295535.75847 -12684920.52947  21396507.6724   21396507.8614   21396507.707
        46.2004         43.3004
   2593205.74645   2036488.52345  25358578.5824   25358583.0894   25358578.178
        33.7004         32.7004
  -6659198.62346  -5164514.10946  23448952.8914   23448956.8914   23448952.115
        38.5004         36.2004
 -21356769.87547 -16631407.13247  20835919.7204   20835918.4294   20835920.930
        47.4004         44.4004
  -8632766.32146  -6688614.12245  23293378.7394   23293379.6824   23293379.071
        37.6004         35.5004
  -1384822.13946   -907317.50545  24225127.7564   24225133.5694   24225128.307
        37.8004         35.9004
 -12512515.94346  -9741132.76746  22653812.8024   22653815.4544   22653813.402
        41.5004         38.8004
 -19050488.06347 -14787661.53147  20752072.2134   20752072.0144   20752072.576
        47.5004         44.5004
 -10082194.95646  -7842282.06346  22495740.8004   22495742.0644   22495740.741
        40.8004         38.1004
 14 10 27  2  7  0.0000000  0 11G11G12G19G31G01G22G18G25G32G14G04
  -9034044.05446  -6157339.42546  22693211.5384   22693213.2384   22693212.469
        39.9004         37.4004
    -38533.54244    -26418.62945      -139.940        -143.433    24621264.164
        26.4004         34.5004
    994709.50845    805569.35945  25086857.8324   25086864.2404   25086860.363
        35.7004         33.8004
 -16378779.36847 -12749785.63747  21380666.8664   21380666.7624   21380666.992
        46.3004         43.3004
  -6739074.77846  -5226755.14346  23433751.6274   23433756.8044   23433752.182
        38.7004         36.2004
 -21320149.61947 -16602871.86447  20842888.6124   20842887.0924   20842889.539
        47.4004         44.4004
  -8555804.01446  -6628643.52645  23308023.4714   23308025.3614   23308024.886
        37.6004         35.5004
  -1446597.66346   -955454.21545  24213373.5024   24213377.7164   24213373.182
        38.2004         35.9004
 -12587097.78546  -9799248.38446  22639619.8844   22639621.7304   22639620.786
        41.5004         38.8004
 -19018026.49247 -14762366.78847  20758249.4894   20758249.3314   20758249.890
        47.5004         44.7004
 -10143784.54746  -7890273.86746  22484020.6264   22484021.8374   22484020.315
        40.8004         38.1004
 14 10 27  2  7 30.0000000  0 11G11G12G19G31G01G22G18G25G32G14G04
  -9050921.73746  -6170490.81446  22689999.3524   22690001.5114   22690000.770
        39.7004         37.3004
    -53714.88446    -38248.30045      -139.940    24618376.3004   24618374.624
        36.3004         35.3004
   1073447.65045    866923.74845  25101842.7814   25101846.5794   25101843.770
        35.4004         33.6004
 -16461600.10947 -12814321.23647  21364907.0224   21364906.3624   21364906.629
        46.3004         43.3004
  -6818572.32946  -5288701.16446  23418624.7224   23418629.3104   23418624.326
        38.7004         36.6004
 -21283190.57647 -16574072.60947  20849921.5864   20849920.1164   20849922.672
        47.4004         44.4004
  -8478624.70446  -6568503.83845  23322711.9494   23322711.7664   23322711.728
        37.8004         35.7004
  -1508053.81646  -1003342.05846  24201677.4804   24201682.4584   24201678.259
        38.3004         36.2004
 -12661557.67146  -9857268.97446  22625450.4584   22625451.9264   22625451.567
        41.6004         39.0004
 -18985311.24047 -14736874.37247  20764474.9814   20764474.8174   20764475.224
        47.5004         44.5004
 -10204878.07746  -7937879.14446  22472394.8644   22472396.4554   22472394.205
        40.6004         38.1004
 14 10 27  2  8  0.0000000  0 11G11G12G19G31G01G22G18G25G32G14G04
  -9067218.57646  -6183189.60146  22686899.2044   22686900.2074   22686899.332
        39.9004         37.1004
    -68374.10946    -49671.03445  24615586.7214   24615587.2814   24615586.597
        37.0004         35.0004
   1152271.35945    928344.77945  25116846.8384   25116846.4204   25116843.512
        35.0004         33.4004
 -16543996.17047 -12878525.91347  21349227.1684   21349226.7944   21349226.977
        46.3004         43.3004
  -6897688.78246  -5350350.22646  23403568.6294   23403573.1744   23403568.763
        38.7004         36.4004
 -21245892.77547 -16545009.38447  20857019.4304   20857017.7954   20857020.320
        47.4004         44.4004
  -8401229.28346  -6508195.74145  23337439.5624   23337438.1214   23337439.378
        37.8004         35.7004
  -1569187.59046  -1050978.69246  24190044.3894   24190048.1524   24190044.309
        38.5004         36.2004
 -12735894.41846  -9915193.61346  22611304.5404   22611306.5844   22611305.123
        41.6004         38.8004
 -18952343.43947 -14711185.15747  20770748.4564   20770748.5904   20770748.924
        47.5004         44.7004
 -10265473.62746  -7985096.38146  22460863.1784   22460864.5154   22460863.059
        40.8004         38.3004
 14 10 27  2  8 30.0000000  0 11G11G12G19G31G01G22G18G25G32G14G04
  -9082933.84146  -6195435.20446  22683907.9504   22683909.4464   22683909.181
        40.1004         37.8004
    -82509.74446    -60685.79645  24612896.1704   24612897.1444   24612896.785
        36.8004         34.6004
   1231177.47045    989830.05945  25131857.7854   25131861.1644   25131858.809
        35.0004         33.3004
 -16625965.05347 -12942397.72147  21333629.0174   21333629.0384   21333628.883
        46.3004         43.3004
  -6976421.67446  -5411700.41846  23388586.9684   23388590.3334   23388586.005
        38.7004         36.4004
 -21208255.93547 -16515681.97247  20864181.1984   20864179.5574   20864182.209
        47.4004         44.4004
  -8323617.47846  -6447719.04445  23352208.6934   23352208.9954   23352208.849
        37.8004         35.9004
  -1629996.00346  -1098361.78846  24178473.1604   24178477.2414   24178472.855
        38.5004         36.2004
 -12810106.96146  -9973021.47346  22597183.3024   22597184.6394   22597182.897
        41.6004         39.0004
 -18919124.34847 -14685300.13347  20777069.8744   20777069.9294   20777070.340
        47.5004         44.5004
 -10325569.20546  -8031924.02546  22449426.9524   22449428.5344   22449427.203
        40.6004         38.1004
 14 10 27  2  9  0.0000000  0 11G11G12G19G31G01G22G18G25G32G14G04
  -9098068.28546  -6207228.23646  22681028.6174   22681029.5274   22681029.738
        40.3004         37.8004
    -96120.55146    -71291.59145  24610304.9634   24610308.0894   24610305.889
        36.6004         34.6004
   1310163.05345   1051377.27445  25146887.2264   25146891.4364   25146889.073
        35.4004         33.6004
 -16707504.19247 -13005934.67147  21318112.7094   21318112.0234   21318112.709
        46.5004         43.5004
  -7054768.53546  -5472749.81046  23373677.2904   23373681.9654   23373677.173
        38.7004         36.4004
 -21170279.68247 -16486090.08647  20871408.1784   20871406.7064   20871408.821
        47.4004         44.4004
  -8245790.24646  -6387074.45845  23367018.9594   23367018.6284   23367018.707
        37.8004         35.7004
  -1690476.09046  -1145489.04346  24166963.7724   24166969.7794   24166963.599
        38.7004         36.2004
 -12884194.06846 -10030751.59446  22583084.7514   22583085.2854   22583084.498
        41.6004         39.2004
 -18885655.75747 -14659220.70147  20783438.7974   20783438.6064   20783439.080
        47.5004         44.5004
 -10385162.85246  -8078360.56946  22438087.2394   22438088.2584   22438086.712
        40.6004         38.1004
 14 10 27  2  9 30.0000000  0 11G11G12G19G31G01G22G18G25G32G14G04
  -9112621.45446  -6218568.32046  22678260.2344   22678260.1814   22678260.229
        40.4004         37.8004
   -109205.88146    -81487.93245  24607815.7874   24607817.1424   24607815.082
        36.6004         34.6004
   1389225.02645   1112983.98845  25161933.4524   25161937.5464   25161933.858
        35.9004         34.1004
 -16788611.31847 -13069134.98547  21302678.7374   21302678.0514   21302678.518
        46.5004         43.5004
  -7132726.90546  -5533496.48746  23358843.0374   23358846.7314   23358842.344
        38.7004         36.2004
 -21131963.76447 -16456233.52447  20878699.1314   20878697.7864   20878699.969
        47.4004         44.2004
  -8167748.25546  -6326262.56245  23381868.5114   23381869.7414   23381869.375
        37.8004         35.3004
  -1750624.89546  -1192358.15646  24155517.0824   24155522.6984   24155517.399
        38.7004         36.2004
 -12958154.79946 -10088383.24546  22569009.2494   22569011.5734   22569009.863
        41.8004         39.2004
 -18851938.55847 -14632947.54047  20789855.0974   20789854.8644   20789855.122
        47.5004         44.7004
 -10444252.13946  -8124404.09546  22426843.4934   22426843.6844   22426842.290
        40.8004         38.3004
