     2.10           OBSERVATION DATA    M (MIXED)           RINEX VERSION / TYPE
LoggerServer.exe    NIST                20-Mar-14 00:00     PGM / RUN BY / DATE
The reference is antenna ARP only, mounted on a forced      COMMENT
centering threaded rod that is bolted to a metal tower.     COMMENT
The tower sits on the roof of NIST Building 1.              COMMENT
Signal Strengh values S1,S2 are in dBHz                     COMMENT
NIST                                                        MARKER NAME
49507M002                                                   MARKER NUMBER
NIST                NIST                                    OBSERVER / AGENCY
SWU04029169         NOV OEM4-G2         2.200-L1L2W         REC # / TYPE / VERS
04230007            NOV702          NONE                    ANT # / TYPE
 -1288349.1490 -4721661.0480  4078676.0170                  APPROX POSITION XYZ
        0.0000        0.0000        0.0000                  ANTENNA: DELTA H/E/N
     1     1                                                WAVELENGTH FACT L1/2
     8    C1    L1    D1    S1    P2    L2    D2    S2      # / TYPES OF OBSERV
  2014     3    20     0     0   30.0000000     GPS         TIME OF FIRST OBS
                                                            END OF HEADER
 14  3 20  0  0 30.0000000  0 11G 3G 7G 8G 9G10G13G16G19G23G27G28
  20825213.12349 109437432.81849        -4.35549        48.312    20825216.78345
  85275980.65945        -3.39845        41.028
  20875883.73649 109703646.34949      1407.31249        48.890    20875886.35846
  85483411.90946      1096.60546        43.332
  22955146.50847 120630233.83947      2393.12947        45.267    22955151.20343
  93997676.37443      1864.77343        36.290
  23065984.77247 121212644.89947      3035.25047        43.746    23065991.74243
  94451484.58543      2365.12543        35.177
  23499238.96046 123489384.24446     -1833.10246        43.328    23499245.92643
  96225540.75443     -1428.39543        36.177
  20264671.60649 106491690.92149     -1184.86749        49.387    20264673.30847
  82980662.19147      -923.27747        43.934
  23445776.73046 123208592.66846     -3317.01246        43.071    23445781.85243
  96006781.70843     -2584.69143        34.766
  21640223.88848 113720317.02648      1683.46548        46.835    21640225.12546
  88613290.07546      1311.78946        41.869
  21947639.63348 115335755.41648     -3084.39148        47.137    21947642.59745
  89872061.95445     -2403.42645        39.319
  22135238.11348 116321641.57248      -889.18848        46.558    22135244.16546
  90640331.84846      -692.87546        42.415
  23778194.86145 124955334.58045      2803.70345        40.530    23778203.66043
  97367801.40143      2184.70743        34.794
 14  3 20  0  1  0.0000000  0 11G 3G 7G 8G 9G10G13G16G19G23G27G28
  20825301.40649 109437897.03849       -26.63349        48.449    20825305.24645
  85276342.41845       -20.75845        40.832
  20867869.06849 109661529.62449      1400.46949        48.783    20867871.70247
  85450593.71447      1091.27047        43.645
  22941489.13947 120558465.25647      2391.37547        45.281    22941493.68744
  93941752.90744      1863.40644        36.924
  23048663.61246 121121621.12946      3032.92646        42.968    23048670.09942
  94380557.13242      2363.32042        34.070
  23509742.19046 123544578.78046     -1846.60246        42.302    23509749.37043
  96268549.40543     -1438.91443        36.041
  20271489.28249 106527518.05549     -1203.58649        49.445    20271491.00347
  83008579.42347      -937.86347        43.782
  23464721.53746 123308147.52546     -3319.86346        43.032    23464726.30442
  96084356.84442     -2586.91042        33.531
  21630665.49448 113670088.55048      1665.01648        47.163    21630666.98446
  88574151.11746      1297.41446        41.574
  21965281.68048 115428464.69848     -3096.17248        46.946    21965284.70045
  89944302.88145     -2412.60545        39.212
  22140369.43148 116348607.62048      -908.64848        46.411    22140375.50046
  90661344.35746      -708.03946        42.201
  23762208.92146 124871329.59446      2796.38346        41.954    23762217.97543
  97302343.26143      2179.00043        35.762
 14  3 20  0  1 30.0000000  0 11G 3G 7G 8G 9G10G13G16G19G23G27G28
  20825516.58449 109439028.14049       -48.77049        48.307    20825520.47346
  85277223.82846       -38.00446        41.632
  20859893.13649 109619616.51449      1393.58249        48.795    20859895.87847
  85417934.17947      1085.90647        43.715
  22927841.57547 120486748.69147      2389.58247        45.063    22927846.52243
  93885869.99043      1862.00843        36.333
  23031354.80647 121030665.05347      3030.65647        43.936    23031360.99342
  94309682.42542      2361.55142        33.873
  23520320.40047 123600167.05947     -1859.42247        43.795    23520327.55341
  96311864.86641     -1448.90241        32.124
  20278413.93349 106563907.60549     -1222.40649        49.561    20278415.85047
  83036934.89947      -952.52747        43.936
  23483681.43146 123407782.54046     -3322.64546        42.368    23483686.44943
  96161994.45243     -2589.07843        36.452
  21621213.64848 113620420.13748      1646.01648        46.771    21621215.34046
  88535448.54946      1282.60546        41.844
  21982990.28248 115521523.09948     -3107.66448        47.294    21982992.90744
  90016815.83344     -2421.55944        38.132
  22145611.82048 116376157.56048      -928.00448        46.632    22145617.80446
  90682811.84646      -723.12546        41.247
  23746264.48846 124787542.20946      2789.21546        41.678    23746273.41041
  97237054.68241      2173.41441        32.188
 14  3 20  0  2  0.0000000  0 11G 3G 7G 8G 9G10G13G16G19G23G27G28
  20825858.69949 109440826.04949       -71.03949        48.649    20825862.34345
  85278624.81945       -55.35945        40.834
  20851956.26249 109577907.69049      1386.89549        48.970    20851959.01847
  85385433.83347      1080.69547        43.360
  22914204.17747 120415085.04147      2387.71947        45.052    22914209.32144
  93830028.28444      1860.55944        37.174
  23014059.00847 120939777.31647      3028.39847        43.428    23014065.27142
  94238860.94342      2359.79342        32.987
  23530973.33947 123656146.76747     -1872.49647        44.122    23530980.10043
  96355485.34043     -1459.09443        35.603
  20285445.40949 106600858.91349     -1241.18849        49.213    20285447.58947
  83065728.10447      -967.16447        43.798
  23502656.23246 123507495.63146     -3325.03946        42.740    23502661.55042
  96239692.88242     -2590.94542        34.292
  21611868.82848 113571313.82148      1627.50048        46.848    21611870.56546
  88497183.98246      1268.18046        41.495
  22000764.75248 115614928.48248     -3119.23848        46.911    22000767.24845
  90089599.16245     -2430.57845        38.993
  22150965.43248 116404290.49648      -947.50848        46.682    22150971.45046
  90704733.62746      -738.32046        41.706
  23730361.56146 124703973.34346      2781.95346        41.968    23730370.09442
  97171936.34642      2167.75842        33.359
 14  3 20  0  2 30.0000000  0 11G 3G 7G 8G 9G10G13G16G19G23G27G28
  20826327.69249 109443291.02849       -93.24649        48.297    20826331.32546
  85280545.60746       -72.66446        41.288
  20844058.44649 109536403.77149      1380.00849        48.676    20844061.13247
  85353093.14647      1075.32847        44.034
  22900576.94547 120343474.70347      2386.19947        44.930    22900582.32044
  93774228.14244      1859.37144        37.758
  22996776.80447 120848958.95247      3026.39147        43.581    22996782.37143
  94168093.49243      2358.22343        35.204
  23541700.24747 123712515.28847     -1885.18447        43.911    23541706.97844
  96399408.78844     -1468.98044        37.363
  20292583.69749 106638371.37449     -1259.77049        49.338    20292586.03247
  83094958.58647      -981.64147        43.987
  23521645.53546 123607284.82346     -3327.74246        42.690    23521651.16643
  96317450.61843     -2593.05143        35.170
  21602631.48548 113522772.22348      1608.68048        46.736    21602633.17746
  88459359.44646      1253.51246        41.982
  22018604.82548 115708678.78848     -3130.74248        47.260    22018607.35844
  90162651.26644     -2439.54344        38.772
  22156429.74448 116433005.48348      -966.93048        46.455    22156435.93446
  90727108.95146      -753.45346        42.119
  23714500.52345 124620623.62145      2774.82845        40.653    23714508.59843
  97106988.77843      2162.20743        35.260
 14  3 20  0  3  0.0000000  0 11G 3G 7G 8G 9G10G13G16G19G23G27G28
  20826923.59149 109446422.90249      -115.56249        48.132    20826927.45546
  85282986.05946       -90.05146        41.753
  20836199.70649 109495106.11549      1373.13349        48.700    20836202.50947
  85320913.19447      1069.96947        43.413
  22886960.07048 120271918.09048      2384.28548        45.876    22886965.63044
  93718469.87044      1857.88344        38.050
  22979508.07146 120758211.04146      3023.79346        42.937    22979513.82843
  94097380.97843      2356.20343        36.088
  23552500.78047 123769270.03847     -1898.11347        44.034    23552507.08144
  96443633.22944     -1479.05144        36.747
  20299828.74249 106676444.65349     -1278.42249        49.338    20299831.18947
  83124626.06647      -996.17647        43.642
  23540649.15846 123707148.12946     -3329.93446        42.742    23540654.63943
  96395266.10543     -2594.75843        34.637
  21593502.07148 113474797.10448      1589.67648        47.023    21593503.88746
  88421976.33346      1238.70746        42.547
  22036510.41948 115802771.85448     -3142.05548        47.446    22036512.89644
  90235970.45844     -2448.35944        37.989
  22162004.64348 116462301.58848      -986.19548        46.632    22162010.93746
  90749937.08146      -768.46946        41.859
  23698680.96045 124537494.20445      2767.26645        40.553    23698689.15943
  97042212.89343      2156.32043        36.298
 14  3 20  0  3 30.0000000  0 11G 3G 7G 8G 9G10G13G16G19G23G27G28
  20827646.37749 109450221.65449      -137.65649        48.101    20827650.39045
  85285946.16045      -107.27045        41.005
  20828380.32949 109454015.62749      1366.16449        48.681    20828383.14347
  85288894.66547      1064.53947        43.397
  22873353.84748 120200415.59948      2382.42648        46.522    22873358.99844
  93662753.74744      1856.43444        38.218
  22962252.80947 120667534.52547      3021.34847        44.125    22962258.99144
  94026724.10344      2354.29744        38.068
  23563373.92047 123826408.09847     -1910.87547        44.867    23563379.89142
  96488156.31042     -1488.99642        33.273
  20307180.41549 106715078.13749     -1297.10249        49.270    20307182.92047
  83154730.07947     -1010.73047        43.629
  23559666.30246 123807083.32146     -3332.05146        42.333    23559671.50043
  96473137.60543     -2596.40643        35.397
  21584480.94548 113427390.74948      1570.64148        47.125    21584483.17046
  88385036.40546      1223.87146        42.416
  22054480.40248 115897205.54948     -3153.59848        47.109    22054483.07544
  90309555.05444     -2457.35244        37.796
  22167690.03148 116492177.81548     -1005.45748        46.857    22167696.07446
  90773217.27146      -783.47746        42.042
  23682903.72846 124454585.56446      2759.89146        42.538    23682911.75442
  96977608.97142      2150.57042        33.070
 14  3 20  0  4  0.0000000  0 11G 3G 7G 8G 9G10G13G16G19G23G27G28
  20828496.06649 109454687.28049      -160.00849        48.268    20828500.12946
  85289425.88046      -124.68446        41.887
  20820600.52849 109413133.04449      1359.19549        48.785    20820603.27546
  85257038.14346      1059.10946        43.070
  22859758.08048 120128967.79048      2380.63748        46.294    22859762.70744
  93607080.21844      1855.03944        37.040
  22945011.59947 120576930.37447      3018.87147        44.081    22945017.66243
  93956123.58143      2352.36343        36.571
  23574319.15547 123883926.87347     -1923.54747        44.529    23574325.49343
  96532976.06343     -1498.87543        35.179
  20314638.55949 106754271.38949     -1315.78149        49.220    20314641.19047
  83185270.26547     -1025.28947        43.897
  23578696.68146 123907088.90646     -3334.53546        42.786    23578701.88742
  96551063.94042     -2598.34442        34.026
  21575568.38048 113380555.43648      1551.73848        46.938    21575570.76346
  88348541.45146      1209.14846        41.528
  22072515.18348 115991977.68348     -3164.66048        47.741    22072517.72744
  90383403.37944     -2465.97344        37.560
  22173485.35248 116522633.17248     -1024.85248        46.046    22173491.62646
  90796948.72446      -798.59046        41.932
  23667168.78946 124371898.64646      2752.59046        41.361    23667176.66642
  96913177.86642      2144.87942        32.643
 14  3 20  0  4 30.0000000  0 11G 3G 7G 8G 9G10G13G16G19G23G27G28
  20829472.64549 109459819.26949      -182.28549        48.350    20829476.59046
  85293424.87146      -142.04346        41.782
  20812860.48149 109372459.20049      1352.21549        48.933    20812863.17846
  85225344.26546      1053.67246        43.287
  22846172.51747 120057575.08947      2378.90247        45.397    22846177.18544
  93551449.63944      1853.69144        37.571
  22927784.30447 120486399.60447      3016.40247        44.187    22927790.31544
  93885580.27644      2350.44544        37.287
  23585336.37347 123941823.26847     -1936.19547        43.346    23585342.81942
  96578090.11742     -1508.71942        32.670
  20322203.19749 106794023.81549     -1334.27349        49.334    20322205.78247
  83216246.16747     -1039.69547        43.718
  23597739.95346 124007162.84446     -3336.89846        41.836    23597745.30443
  96629043.55043     -2600.18443        35.839
  21566764.87948 113334293.30248      1532.48848        47.011    21566766.90346
  88312493.10946      1194.14546        41.428
  22090613.80348 116087085.88348     -3175.84048        47.173    22090616.32044
  90457513.56844     -2474.68844        38.156
  22179390.67948 116553666.63348     -1044.08248        46.542    22179397.03946
  90821130.64946      -813.57446        41.426
  23651476.49047 124289434.51047      2745.23847        43.757    23651484.10242
  96848920.33242      2139.15642        33.844
 14  3 20  0  5  0.0000000  0 11G 3G 7G 8G 9G10G13G16G19G23G27G28
  20830576.11849 109465617.99349      -204.45349        48.351    20830579.87246
  85297943.36846      -159.31646        41.714
  20805160.41949 109331995.22749      1345.30949        48.867    20805163.04147
  85193813.92847      1048.28947        43.625
  22832597.29147 119986237.90847      2376.90247        44.852    22832602.20944
  93495862.33544      1852.12944        37.648
  22910570.88547 120395942.98247      3014.16447        43.575    22910576.81243
  93815094.73643      2348.69943        36.087
  23596424.69046 124000094.94246     -1948.59046        43.280    23596431.40441
  96623496.51141     -1518.38741        32.112
  20329874.17049 106834334.50449     -1353.06249        49.260    20329876.57747
  83247657.07947     -1054.33647        43.817
  23616795.94346 124107303.04346     -3338.72346        42.350    23616801.35443
  96707074.77543     -2601.60543        35.363
  21558070.92048 113288606.37448      1513.32448        47.302    21558072.82746
  88276892.98846      1179.21146        41.507
  22108775.83448 116182527.96348     -3187.00448        47.016    22108778.67544
  90531883.92844     -2483.38744        37.784
  22185405.78348 116585277.14548     -1063.22748        45.883    22185411.98246
  90845762.22946      -828.49246        41.548
  23635826.60746 124207193.77246      2737.71546        41.923    23635834.03842
  96784836.86642      2133.28542        33.669
 14  3 20  0  5 30.0000000  0 11G 3G 7G 8G 9G10G13G16G19G23G27G28
  20831806.44749 109472083.03449      -226.64149        48.085    20831810.12346
  85302981.09346      -176.60546        41.644
  20797500.52949 109291742.07249      1338.24649        48.810    20797503.14646
  85162447.85646      1042.78546        43.331
  22819032.51047 119914956.79547      2375.10547        45.256    22819037.68044
  93440318.72644      1850.73044        37.720
  22893371.49447 120305561.59547      3011.44947        43.843    22893377.45343
  93744667.82143      2346.58243        35.492
  23607583.72546 124058739.35846     -1960.94146        42.002    23607591.13643
  96669193.37643     -1528.00843        36.370
  20337651.14249 106875202.61949     -1371.58649        49.282    20337653.59947
  83279502.34147     -1068.77047        43.541
  23635864.37446 124207507.60246     -3341.09446        42.630    23635869.46142
  96785156.15442     -2603.45342        33.822
  21549487.02548 113243496.71348      1494.01248        47.636    21549488.83946
  88241742.67946      1164.16046        42.000
  22127000.77948 116278301.95348     -3198.02348        46.926    22127003.72844
  90606512.90544     -2491.96944        38.351
  22191530.65648 116617463.65848     -1082.34448        46.761    22191536.72245
  90870842.61845      -843.38745        41.075
  23620218.96245 124125177.23145      2730.15245        39.897    23620226.49042
  96720928.10142      2127.39542        32.716
 14  3 20  0  6  0.0000000  0 11G 3G 7G 8G 9G10G13G16G19G23G27G28
  20833163.55149 109479214.17949      -248.78949        48.654    20833166.99645
  85308537.86045      -193.86345        41.003
  20789880.85149 109251700.52549      1331.14549        48.745    20789883.56046
  85131246.68446      1037.25446        43.264
  22805478.75448 119843732.07448      2373.09448        45.746    22805484.01444
  93384819.03944      1849.16444        37.078
  22876186.65546 120215256.39246      3008.92646        43.096    22876192.50342
  93674300.25742      2344.61742        34.250
  23618813.92846 124117753.54046     -1973.28546        42.314    23618821.51943
  96715178.36943     -1537.62943        34.629
  20345534.06049 106916627.83049     -1390.10249        49.400    20345536.58247
  83311781.71147     -1083.19947        43.607
  23654944.98946 124307774.51946     -3343.10246        43.253    23654949.65943
  96863286.15743     -2605.01643        34.829
  21541013.21648 113198966.44148      1474.68448        47.214    21541015.38246
  88207043.84746      1149.10246        42.750
  22145288.82148 116374405.42848     -3209.04748        46.958    22145291.65944
  90681398.64744     -2500.55944        38.249
  22197765.26448 116650225.04948     -1101.74248        46.863    22197771.15146
  90896370.98846      -858.50446        41.779
  23604654.02746 124043385.55246      2722.75046        42.407    23604661.95742
  96657194.57542      2121.62942        34.394
 14  3 20  0  6 30.0000000  0 11G 3G 7G 8G 9G10G13G16G19G23G27G28
  20834647.32849 109487011.39749      -271.14849        48.414    20834650.62245
  85314613.63145      -211.28945        40.931
  20782301.68049 109211871.51949      1324.14849        48.890    20782304.25547
  85100211.11347      1031.80147        43.602
  22791935.97748 119772564.30548      2371.23448        45.739    22791941.12944
  93329363.72244      1847.71544        37.995
  22859016.71047 120125028.51447      3006.44947        43.747    22859022.14642
  93603992.94542      2342.68442        34.067
  23630113.89946 124177134.66246     -1985.29346        41.263    23630120.86443
  96761449.30243     -1546.98843        35.279
  20353522.94049 106958609.19349     -1408.64849        49.562    20353525.42547
  83344494.45047     -1097.65247        43.551
  23674036.94646 124408102.11146     -3345.33246        42.879    23674041.37843
  96941463.41943     -2606.75443        34.557
  21532650.05348 113155017.64548      1455.23448        47.327    21532652.57546
  88172798.10746      1133.94546        42.560
  22163639.03248 116470836.29048     -3219.91848        46.284    22163642.07145
  90756539.48745     -2509.03145        39.197
  22204108.93248 116683560.19348     -1120.60948        46.768    22204114.49046
  90922346.43246      -873.20746        41.512
  23589132.46446 123961819.52546      2715.28946        42.441    23589140.63042
  96593636.84442      2115.81242        33.108
 14  3 20  0  7  0.0000000  0 11G 3G 7G 8G 9G10G13G16G19G23G27G28
  20836257.61649 109495474.56249      -293.23449        48.021    20836261.05746
  85321208.32646      -228.49646        41.172
  20774763.21049 109172256.19749      1316.80949        48.855    20774765.56647
  85069342.06147      1026.08247        43.665
  22778404.38548 119701454.27948      2369.23448        45.761    22778408.98844
  93273953.38844      1846.15244        37.517
  22841861.45746 120034878.90746      3004.03146        43.329    22841867.00643
  93533746.61643      2340.80143        34.755
  23641483.24747 124236880.25847     -1997.68447        43.765    23641490.26942
  96808004.20842     -1556.64542        32.264
  20361617.48849 107001146.08849     -1427.16049        49.446    20361619.89446
  83377640.06346     -1112.07446        43.301
  23693140.06347 124508488.44147     -3347.15247        43.514    23693144.38343
  97019686.45543     -2608.17643        34.504
  21524397.87248 113111652.12648      1435.80548        47.684    21524400.48346
  88139006.87946      1118.80546        42.822
  22182051.02548 116567592.23648     -3230.66448        46.660    22182054.23844
  90831933.62044     -2517.40244        38.630
  22210561.56948 116717468.00548     -1139.85948        46.933    22210566.69345
  90948768.11645      -888.20745        40.938
  23573654.28846 123880480.44446      2707.47746        42.982    23573662.23343
  96530255.96543      2109.72343        35.525
 14  3 20  0  7 30.0000000  0 11G 3G 7G 8G 9G10G13G16G19G23G27G28
  20837994.53149 109504602.83649      -315.37549        48.254    20837998.20846
  85328321.27846      -245.75046        41.340
  20767265.48449 109132855.36549      1309.78949        48.842    20767267.70247
  85038640.14047      1020.61347        43.607
  22764883.74348 119630402.08348      2367.69948        45.851    22764888.12344
  93218588.14444      1844.95744        38.267
  22824721.47547 119944808.78147      3000.99247        43.913    22824727.63843
  93463562.25843      2338.43843        35.272
  23652921.82547 124296987.13747     -2009.44947        44.305    23652928.26942
  96854840.68742     -1565.81242        32.792
  20369817.63249 107044237.95649     -1445.66449        49.353    20369819.98747
  83411218.12347     -1126.49647        43.440
  23712253.91646 124608931.54246     -3349.12946        42.789    23712257.99242
  97097953.75042     -2609.71542        33.292
  21516257.01548 113068871.95848      1416.27348        47.506    21516259.41446
  88105671.74746      1103.58646        43.008
  22200524.61948 116664671.00248     -3241.32048        47.010    22200527.82044
  90907579.29744     -2525.70744        38.044
  22217122.71948 116751947.30548     -1158.84848        46.609    22217127.90646
  90975635.09246      -903.00046        41.834
  23558219.38146 123799368.53146      2700.13746        43.256    23558226.48441
  96467052.05641      2104.00841        31.188
 14  3 20  0  8  0.0000000  0 11G 3G 7G 8G 9G10G13G16G19G23G27G28
  20839858.10249 109514395.97049      -337.57449        48.262    20839861.98846
  85335952.29646      -263.04746        41.416
  20759808.72849 109093669.87249      1302.59449        49.122    20759811.01747
  85008106.02547      1015.00447        43.416
  22751373.82648 119559408.31548      2365.52348        45.764    22751378.35144
  93163268.41844      1843.26244        37.223
  22807597.19848 119854819.12248      2998.37548        45.583    22807603.27843
  93393440.56943      2336.39543        36.053
  23664428.23947 124357452.84747     -2021.40247        43.854    23664434.64742
  96901956.74942     -1575.12142        33.842
  20378123.19349 107087883.59949     -1464.08249        49.426    20378125.53347
  83445227.69347     -1140.84847        43.404
  23731378.04546 124709429.45246     -3350.95746        41.640    23731382.26043
  97176263.71143     -2611.14143        34.517
  21508227.84348 113026679.24148      1396.55948        47.540    21508230.12846
  88072794.37746      1088.22346        42.392
  22219059.32548 116762070.46448     -3251.89148        47.589    22219062.69444
  90983474.88444     -2533.94544        37.754
  22223792.47748 116786996.90448     -1177.80148        46.787    22223797.56545
  91002946.47845      -917.77045        41.103
  23542827.62846 123718484.88346      2692.30946        42.426    23542834.82341
  96404026.08441      2097.90641        31.376
 14  3 20  0  8 30.0000000  0 11G 3G 7G 8G 9G10G13G16G19G23G27G28
  20841848.28349 109524853.89249      -359.57449        48.129    20841852.27546
  85344101.35446      -280.19146        41.631
  20752393.15149 109054700.90549      1295.41449        48.976    20752395.60747
  84977740.63547      1009.41047        44.010
  22737875.16848 119488473.84348      2363.51648        45.895    22737879.89544
  93107994.89644      1841.69944        38.407
  22790488.57147 119764910.99647      2995.59847        44.615    22790494.21544
  93323382.39844      2334.23044        37.503
  23676002.27846 124418274.47346     -2033.12146        43.164    23676008.23942
  96949350.15342     -1584.25842        34.232
  20386534.00549 107132082.48649     -1482.50449        49.431    20386536.29647
  83479668.37247     -1155.19947        43.656
  23750512.33346 124809980.31446     -3352.79746        42.295    23750516.59443
  97254614.96743     -2612.57043        35.386
  21500310.80948 112985075.78748      1376.92248        47.626    21500313.09846
  88040376.18246      1072.92246        42.401
  22237654.59048 116859788.02748     -3262.47748        46.360    22237657.79744
  91059618.35044     -2542.19144        37.912
  22230570.55548 116822615.58548     -1196.79348        46.704    22230575.75146
  91030701.27946      -932.57046        41.324
  23527479.15346 123637830.02446      2684.57846        41.869    23527485.93941
  96341178.34941      2091.87941        31.160
 14  3 20  0  9  0.0000000  0 11G 3G 7G 8G 9G10G13G16G19G23G27G28
  20843964.91949 109535976.19649      -381.83649        48.495    20843968.71646
  85352768.10246      -297.53946        41.200
  20745019.00149 109015949.44749      1288.06649        48.985    20745021.69347
  84947544.73047      1003.68447        43.961
  22724388.09248 119417598.93448      2361.39148        46.107    22724392.77344
  93052767.77544      1840.04344        37.561
  22773395.29347 119675085.22047      2992.80147        44.858    22773400.84343
  93253388.43643      2332.05543        36.665
  23687643.25346 124479449.44346     -2045.02746        42.227    23687649.77043
  96997018.89543     -1593.53543        34.911
  20395050.00849 107176833.73549     -1500.98049        49.452    20395052.11747
  83514539.45547     -1169.59847        43.404
  23769656.12646 124910582.76446     -3354.20746        41.965    23769661.07242
  97333006.39742     -2613.67642        32.787
  21492506.51048 112944063.52448      1357.13348        47.722    21492508.50246
  88008418.62946      1057.50446        42.710
  22256309.66248 116957821.90748     -3273.02348        46.688    22256313.10744
  91136008.26144     -2550.41444        37.523
  22237456.57748 116858802.12848     -1215.69548        46.756    22237461.96246
  91058898.59146      -947.29746        41.577
  23512174.17146 123557404.84646      2677.04346        42.940    23512181.31442
  96278509.68742      2086.01642        34.305
 14  3 20  0  9 30.0000000  0 11G 3G 7G 8G 9G10G13G16G19G23G27G28
  20846207.76349 109547762.22449      -403.94549        48.454    20846211.38845
  85361952.03045      -314.76645        40.872
  20737686.38649 108977416.62349      1280.87149        48.988    20737689.20147
  84917519.18847       998.07847        43.819
  22710912.62348 119346784.21648      2359.54748        46.720    22710917.16144
  92997587.57444      1838.60544        37.120
  22756317.84747 119585342.95847      2989.77047        43.823    22756323.57444
  93183459.54144      2329.69144        37.059
  23699350.73446 124540974.87846     -2056.68046        41.762    23699358.16842
  97044960.68542     -1602.60942        32.991
  20403670.93149 107222136.73749     -1519.32849        49.585    20403672.92346
  83549840.49046     -1183.89546        43.197
  23788809.38846 125011234.51746     -3356.10246        42.329    23788814.48242
  97411436.23542     -2615.14842        34.178
  21484815.14749 112903644.47349      1337.37549        47.856    21484817.09146
  87976923.33146      1042.10546        42.809
  22275024.77648 117056169.39948     -3283.57048        46.587    22275028.05344
  91212642.56644     -2558.63344        38.012
  22244450.40848 116895555.28948     -1234.58648        46.242    22244455.82045
  91087537.42245      -962.02045        41.048
  23496913.47846 123477209.95746      2669.38346        41.607    23496920.78643
  96216020.40943      2080.03943        34.714
 14  3 20  0 10  0.0000000  0 11G 3G 7G 8G 9G10G13G16G19G23G27G28
  20848576.85749 109560211.72049      -426.07449        48.267    20848580.46345
  85371652.94945      -332.00845        41.034
  20730395.45549 108939102.91049      1273.48849        48.899    20730398.30147
  84887664.38647       992.32447        43.698
  22697448.62548 119276030.19448      2357.42248        46.299    22697452.95044
  92942454.65544      1836.94944        38.203
  22739256.12247 119495685.13347      2987.27347        44.084    22739262.05343
  93113596.43643      2327.74643        35.789
  23711124.58346 124602847.74546     -2068.09046        42.952    23711132.39242
  97093173.22342     -1611.50042        32.951
  20412396.43849 107267990.30249     -1537.64149        49.344    20412398.37746
  83585570.52846     -1198.16446        43.016
  23807971.84046 125111933.57346     -3357.56246        41.748    23807976.89343
  97489902.94743     -2616.28943        35.869
  21477236.92948 112863820.41248      1317.51248        47.527    21477238.81646
  87945891.66546      1026.62946        42.630
  22293798.98648 117154828.24148     -3293.90248        46.461    22293802.12844
  91289519.50644     -2566.68044        37.810
  22251551.56048 116932873.79548     -1253.33648        46.281    22251557.10746
  91116616.76246      -976.62946        41.228
  23481696.29546 123397246.16946      2661.48446        42.615    23481704.21442
  96153711.27742      2073.88742        33.225
 14  3 20  0 10 30.0000000  0 11G 3G 7G 8G 9G10G13G16G19G23G27G28
  20851072.07949 109573324.05349      -448.23449        48.668    20851075.66345
  85381870.37445      -349.27745        40.336
  20723146.45349 108901009.51149      1266.13749        48.820    20723149.26947
  84857981.25647       986.59847        43.916
  22683996.17648 119205337.42648      2355.49248        45.984    22684000.46744
  92887369.48044      1835.44944        38.359
  22722210.66147 119406113.06747      2984.09447        44.050    22722216.80643
  93043800.16943      2325.27043        35.345
  23722964.13646 124665065.47346     -2079.96946        42.760    23722971.79241
  97141654.47441     -1620.76241        31.246
  20421226.59749 107314393.70949     -1555.91449        49.559    20421228.59646
  83621729.00646     -1212.40246        43.032
  23827142.91746 125212678.30746     -3358.94546        41.811    23827148.05142
  97568405.27742     -2617.36342        33.533
  21469772.16348 112824593.06148      1297.57448        47.320    21469773.70146
  87915324.96446      1011.09446        42.839
  22312632.25948 117253796.48448     -3303.94148        46.644    22312635.07444
  91366637.53344     -2574.50444        37.330
  22258760.23248 116970756.32448     -1272.10248        46.355    22258765.70645
  91146135.62445      -991.25045        40.943
  23466523.56046 123317514.17746      2653.62146        42.757    23466531.33242
  96091582.71642      2067.76242        33.320
 14  3 20  0 11  0.0000000  0 11G 3G 7G 8G 9G10G13G16G19G23G27G28
  20853693.22749 109587098.96949      -470.16849        48.452    20853696.93245
  85392604.09145      -366.36745        40.798
  20715939.63549 108863137.40849      1258.66849        49.107    20715942.44447
  84828470.56447       980.77747        43.949
  22670555.24348 119134706.48048      2353.25848        45.948    22670559.72844
  92832332.49344      1833.70744        37.738
  22705182.01747 119316627.53847      2981.48047        44.580    22705188.04043
  92974071.31443      2323.22743        36.402
  23734868.78046 124727625.17446     -2090.91046        42.097    23734876.43743
  97190402.21243     -1629.28943        35.510
  20430161.15749 107361345.84449     -1574.22349        49.189    20430163.34047
  83658315.06247     -1226.67247        43.390
  23846322.25446 125313466.86546     -3360.33646        41.551    23846327.44442
  97646941.72242     -2618.44542        32.767
  21462421.34649 112785964.21349      1277.66049        47.881    21462422.54446
  87885224.63746       995.57446        42.394
  22331523.69648 117353071.62148     -3314.19948        46.392    22331526.83244
  91443994.66944     -2582.49644        37.666
  22266076.07648 117009201.64048     -1290.80148        46.418    22266081.64345
  91176093.00945     -1005.82045        40.874
  23451395.04546 123238014.19646      2646.12546        41.155    23451402.99243
  96029634.95943      2061.92243        35.708
 14  3 20  0 11 30.0000000  0 11G 3G 7G 8G 9G10G13G16G19G23G27G28
  20856440.35849 109601535.83449      -492.35249        48.154    20856444.14845
  85403853.60945      -383.65245        40.508
  20708775.16049 108825487.45249      1251.16849        49.109    20708777.86147
  84799132.97047       974.93447        43.450
  22657126.31548 119064138.12348      2351.18848        46.070    22657130.79144
  92777344.25244      1832.09044        37.760
  22688170.34947 119227229.85347      2978.47747        45.137    22688175.79243
  92904410.91243      2320.89143        35.489
  23746838.54747 124790524.19047     -2102.33247        43.512    23746845.84542
  97239414.34042     -1638.18842        33.781
  20439200.19949 107408846.07149     -1592.53949        49.591    20439202.41346
  83695328.20546     -1240.94146        43.104
  23865509.52246 125414297.56846     -3361.65646        42.455    23865514.89141
  97725511.01141     -2619.47741        30.841
  21455184.81949 112747935.94249      1257.58249        47.917    21455185.80546
  87855592.28546       979.93046        42.662
  22350472.91948 117452651.13948     -3324.35948        46.051    22350476.24344
  91521588.98044     -2590.41844        37.205
  22273499.00848 117048208.32948     -1309.46948        46.665    22273504.51346
  91206487.82646     -1020.36746        41.946
  23436311.13747 123158747.48747      2638.37547        43.741    23436318.39342
  95967868.90942      2055.88342        34.371
 14  3 20  0 12  0.0000000  0 11G 3G 7G 8G 9G10G13G16G19G23G27G28
  20859313.42949 109616634.34849      -514.43849        48.375    20859317.32445
  85415618.70645      -400.86345        40.780
  20701653.22049 108788061.10549      1243.77049        49.155    20701655.83647
  84769969.62147       969.16847        44.069
  22643709.43048 118993632.87948      2349.31248        45.913    22643713.88844
  92722405.19944      1830.63344        38.544
  22671175.65347 119137921.16847      2975.33247        45.383    22671181.03143
  92834819.85443      2318.44143        36.264
  23758872.18046 124853759.46446     -2113.36346        43.051    23758879.19042
  97288688.50142     -1646.78542        33.703
  20448343.35549 107456893.42249     -1610.77349        49.050    20448345.39746
  83732767.67646     -1255.15246        42.911
  23884704.66046 125515168.73846     -3362.74646        41.799    23884710.00641
  97804111.84441     -2620.32441        32.013
  21448062.64548 112710509.80348      1237.42248        47.565    21448063.74846
  87826429.13146       964.22346        42.639
  22369479.78848 117552532.91848     -3334.42648        46.333    22369482.79844
  91599418.85944     -2598.25844        37.120
  22281028.65748 117087775.04348     -1328.12948        46.534    22281034.04445
  91237319.04145     -1034.91045        41.062
  23421271.80646 123079714.78746      2630.49646        43.096    23421278.92641
  95906285.25241      2049.74241        31.261
 14  3 20  0 12 30.0000000  0 11G 3G 7G 8G 9G10G13G16G19G23G27G28
  20862312.19249 109632393.45849      -536.31649        48.558    20862316.34945
  85427898.54045      -417.91045        40.980
  20694573.98749 108750858.98449      1236.35549        49.252    20694576.29247
  84740980.98647       963.39147        43.818
  22630304.76648 118923191.11248      2347.06648        46.222    22630309.45344
  92667515.59444      1828.87944        38.728
  22654198.09247 119048702.50447      2972.52047        44.622    22654203.58344
  92765298.91344      2316.24644        36.989
  23770969.06047 124917328.22747     -2124.48447        43.975    23770976.31342
  97338222.51842     -1655.44542        33.022
  20457590.49949 107505486.81949     -1628.87549        49.738    20457592.34246
  83770632.65246     -1269.25846        42.114
  23903907.04245 125616078.14345     -3364.18445        41.059    23903912.30543
  97882742.46743     -2621.44543        35.534
  21441055.37548 112673687.43948      1217.19948        47.631    21441056.85746
  87797736.45046       948.46546        42.607
  22388544.06748 117652714.86548     -3344.37548        46.744    22388546.90144
  91677482.59844     -2606.00844        38.667
  22288664.28248 117127900.43048     -1346.81648        46.232    22288669.84546
  91268585.57546     -1049.46946        41.907
  23406276.98746 123000916.55146      2622.85946        42.265    23406283.48443
  95844884.25543      2043.79343        35.166
 14  3 20  0 13  0.0000000  0 11G 3G 7G 8G 9G10G13G16G19G23G27G28
  20865436.63149 109648812.62749      -558.28149        48.245    20865440.87846
  85440692.70546      -435.02746        41.117
  20687537.55449 108713882.18249      1228.80549        49.156    20687539.51747
  84712167.91347       957.50847        43.953
  22616912.46448 118852813.52448      2344.87148        45.918    22616917.17045
  92612676.01245      1827.16845        39.550
  22637237.63647 118959574.84647      2969.38347        44.105    22637243.10344
  92695848.91044      2313.80544        36.845
  23783128.97345 124981227.69445     -2135.60245        40.554    23783136.14143
  97388014.24443     -1664.11343        35.787
  20466941.42249 107554625.11749     -1647.04749        49.641    20466943.16646
  83808922.21046     -1283.41846        42.618
  23923116.44545 125717024.38445     -3365.14845        41.039    23923121.65441
  97961401.77241     -2622.19541        30.287
  21434163.48548 112637471.12548      1197.23448        47.517    21434165.15046
  87769516.02546       932.90646        42.549
  22407664.84848 117753194.35448     -3354.23848        46.443    22407667.55143
  91755778.20143     -2613.69943        36.615
  22296405.95748 117168583.07148     -1365.44948        46.312    22296411.73646
  91300286.31146     -1063.98846        42.475
  23391326.59047 122922353.48547      2615.12147        43.618    23391333.33741
  95783666.54941      2037.75841        32.093
 14  3 20  0 13 30.0000000  0 11G 3G 7G 8G 9G10G13G16G19G23G27G28
  20868686.60749 109665891.34149      -580.20749        48.088    20868690.69846
  85454000.82146      -452.11346        41.617
  20680544.15449 108677131.63349      1221.23049        49.066    20680545.84047
  84683531.14547       951.60547        43.343
  22603532.40548 118782500.72948      2342.73448        46.278    22603537.17544
  92557886.92844      1825.50844        38.382
  22620294.28247 118870539.51247      2966.08247        43.896    22620300.44243
  92626470.86443      2311.23443        36.397
  23795351.15847 125045454.65147     -2146.33647        43.725    23795358.35641
  97438061.06641     -1672.48041        31.576
  20476395.77949 107604307.38149     -1665.22349        49.586    20476397.44646
  83847635.64246     -1297.57846        42.834
  23942332.65345 125818005.58145     -3366.80545        41.040    23942337.73842
  98040088.36242     -2623.48842        32.358
  21427387.11148 112601861.93648      1176.79748        47.759    21427388.56346
  87741768.67446       916.98046        41.739
  22426841.45848 117853969.11048     -3363.92648        46.369    22426844.69943
  91834303.85243     -2621.24643        35.825
  22304253.21548 117209821.55648     -1383.87148        46.531    22304259.20146
  91332420.18146     -1078.34446        41.265
  23376421.26646 122844026.38546      2607.00046        42.207    23376428.05843
  95722632.64943      2031.43043        34.713
 14  3 20  0 14  0.0000000  0 11G 3G 7G 8G 9G10G13G16G19G23G27G28
  20872061.93149 109683628.80349      -602.28549        47.950    20872065.92745
  85467822.24145      -469.31645        41.017
  20673593.83549 108640608.35649      1213.68049        48.934    20673595.51446
  84655071.47746       945.72346        43.287
  22590164.74048 118712253.26548      2340.50048        46.331    22590169.69244
  92503148.74044      1823.76244        38.022
  22603368.74547 118781597.45147      2963.15247        44.110    22603375.48944
  92557165.52944      2308.94944        37.984
  23807634.85046 125110006.47646     -2156.92646        42.267    23807641.41442
  97488361.14342     -1680.72342        32.832
  20485953.24549 107654532.70249     -1683.16849        49.749    20485955.04246
  83886772.23246     -1311.56246        42.890
  23961555.25246 125919019.95346     -3367.77046        41.549    23961560.21643
  98118800.76243     -2624.23843        34.727
  21420726.68648 112566861.63248      1156.48448        47.759    21420727.90446
  87714495.78546       901.15246        41.898
  22446074.25048 117955036.67548     -3373.59848        46.143    22446077.42843
  91913057.70443     -2628.78543        36.362
  22312206.20348 117251614.46248     -1402.27748        46.343    22312212.00746
  91364986.06746     -1092.68846        42.143
  23361560.80846 122765935.80946      2598.93046        42.104    23361567.64043
  95661783.09543      2025.14143        34.986
 14  3 20  0 14 30.0000000  0 11G 3G 7G 8G 9G10G13G16G19G23G27G28
  20875562.48949 109702024.28449      -624.16849        48.330    20875566.26945
  85482156.41145      -486.36745        40.446
  20666687.00349 108604313.53649      1206.01649        48.914    20666688.75947
  84626789.82447       939.75047        43.359
  22576809.37648 118642071.91348      2338.21948        46.318    22576814.55144
  92448462.06744      1821.98444        38.533
  22586461.63147 118692750.15747      2959.92647        44.618    22586468.46144
  92487934.00444      2306.43444        38.029
  23819979.99546 125174880.53046     -2167.73846        41.643    23819986.89543
  97538912.23543     -1689.15243        34.548
  20495613.79249 107705299.99949     -1701.32049        48.585    20495615.88047
  83926331.13447     -1325.70747        43.947
  23980783.98746 126020065.71446     -3368.66046        41.593    23980788.81442
  98197537.63042     -2624.93842        33.513
  21414182.50548 112532471.85548      1136.18448        47.599    21414183.49346
  87687698.61646       885.33646        42.251
  22465361.99548 118056394.88248     -3383.49248        46.004    22465365.13344
  91992038.00944     -2636.49644        37.057
  22320264.36648 117293960.27548     -1420.74248        46.597    22320269.98945
  91397982.80645     -1107.07445        40.996
  23346745.52847 122688082.16947      2591.00047        43.575    23346752.38041
  95601118.11541      2018.96141        30.266
 14  3 20  0 15  0.0000000  0 11G 3G 7G 8G 9G10G13G16G19G23G27G28
  20879188.09949 109721077.37649      -646.03949        47.976    20879191.76046
  85497002.98746      -503.41046        41.145
  20659823.85649 108568248.14249      1198.48449        48.954    20659825.72246
  84598686.93346       933.87946        43.255
  22563466.90948 118571957.24048      2335.89848        46.430    22563472.03544
  92393827.34044      1820.17644        38.150
  22569572.62347 118603998.33947      2956.71147        45.235    22569579.06944
  92418776.89744      2303.93044        37.693
  23832385.69246 125240073.75946     -2178.45746        41.659    23832392.55542
  97589712.05842     -1697.50442        33.756
  20505377.32549 107756608.11349     -1719.20749        49.962    20505379.65046
  83966311.46946     -1339.64546        42.411
  24000018.10745 126121141.21445     -3369.85245        41.044    24000023.16043
  98276297.66243     -2625.86743        36.357
  21407754.84949 112498694.37149      1115.69549        47.891    21407755.87646
  87661378.55846       869.37146        41.916
  22484704.88148 118158041.31848     -3392.85948        46.422    22484707.93644
  92071242.92344     -2643.78944        38.228
  22328427.46148 117336857.52048     -1439.12548        46.323    22328432.89146
  91431409.23346     -1121.39846        41.197
  23331975.70547 122610466.34047      2583.28147        43.432    23331982.20942
  95540638.41342      2012.94942        33.838
 14  3 20  0 15 30.0000000  0 11G 3G 7G 8G 9G10G13G16G19G23G27G28
  20882938.66349 109740787.04949      -667.86749        47.895    20882942.57946
  85512361.19146      -520.41846        41.279
  20653004.56249 108532412.96649      1190.57449        48.838    20653006.43046
  84570763.44946       927.71946        43.071
  22550137.32248 118501909.67148      2333.89148        45.895    22550142.40145
  92339244.91245      1818.61345        39.544
  22552702.20647 118515343.20147      2953.71147        45.388    22552708.28244
  92349695.10844      2301.59044        38.195
  23844851.57245 125305583.37745     -2189.12545        40.021    23844858.53841
  97640758.43041     -1705.81641        32.006
  20515243.58149 107808455.93549     -1737.26649        48.973    20515246.13047
  84006712.34547     -1353.71547        43.342
  24019257.66446 126222244.89546     -3370.60946        41.224    24019262.94841
  98355079.69441     -2626.45341        31.695
  21401443.95748 112465530.64848      1095.19148        47.347    21401445.51046
  87635536.77446       853.39546        43.079
  22504102.17648 118259973.59048     -3402.54348        46.305    22504105.53244
  92150670.55544     -2651.33644        37.225
  22336695.07248 117380304.72948     -1457.46148        46.468    22336700.55245
  91465264.18845     -1135.68845        40.938
  23317251.17546 122533088.94546      2575.42246        42.739    23317257.49242
  95480344.52342      2006.82442        32.498
 14  3 20  0 16  0.0000000  0 11G 3G 7G 8G 9G10G13G16G19G23G27G28
  20886814.08349 109761152.60149      -689.91849        48.107    20886818.07145
  85528230.45645      -537.60245        41.055
  20646229.42449 108496809.36749      1182.98849        49.111    20646231.28447
  84543020.40747       921.80547        43.617
  22536820.73048 118431930.30448      2331.57448        46.410    22536825.47945
  92284715.61945      1816.80945        39.308
  22535850.31847 118426785.97047      2950.21547        45.314    22535855.95044
  92280689.59244      2298.86744        37.897
  23857377.35246 125371406.38246     -2199.31646        42.267    23857384.62542
  97692048.93942     -1713.76242        33.189
  20525212.46149 107860842.41449     -1755.18049        49.682    20525215.06746
  84047532.96046     -1367.67646        42.958
  24038502.03446 126323374.75146     -3371.19146        41.211    24038507.18142
  98433882.10242     -2626.90642        33.960
  21395250.08548 112432982.26448      1074.58248        47.421    21395252.02346
  87610174.46446       837.33246        42.726
  22523553.40548 118362189.10048     -3411.78948        46.744    22523556.67443
  92230318.89343     -2658.54343        36.631
  22345067.02848 117424300.39148     -1475.71948        45.770    22345072.68146
  91499546.50746     -1149.91446        41.628
  23302572.20947 122455950.44147      2567.35947        43.620    23302578.46842
  95420236.78342      2000.54342        34.218
 14  3 20  0 16 30.0000000  0 11G 3G 7G 8G 9G10G13G16G19G23G27G28
  20890814.19449 109782173.19249      -711.59049        48.118    20890818.11746
  85544610.14546      -554.48846        41.126
  20639498.63049 108461438.26649      1175.13749        49.147    20639500.48247
  84515458.53147       915.68847        43.757
  22523517.00348 118362019.38448      2329.15248        46.171    22523521.68844
  92230239.66244      1814.92644        38.231
  22519017.18147 118338327.90647      2946.89547        44.348    22519022.56644
  92211761.36844      2296.28144        37.373
  23869962.43946 125437539.98646     -2209.54746        42.439    23869969.58442
  97743581.55042     -1721.73042        33.278
  20535283.63149 107913766.50649     -1773.14849        49.738    20535286.19746
  84088772.48546     -1381.67646        42.534
  24057751.21046 126424529.33946     -3372.35546        42.290    24057756.32143
  98512703.74243     -2627.81243        35.001
  21389173.85149 112401050.89749      1054.01249        47.780    21389175.66046
  87585292.94546       821.30546        42.753
  22543057.79748 118464685.89848     -3421.25048        46.394    22543061.28743
  92310186.38443     -2665.91443        35.961
  22353543.12148 117468842.93948     -1493.87948        46.067    22353548.98545
  91534254.96745     -1164.06645        41.026
  23287938.76846 122379051.69946      2559.29346        42.745    23287945.15343
  95360315.87343      1994.25443        35.264
 14  3 20  0 17  0.0000000  0 11G 3G 7G 8G 9G10G13G16G19G23G27G28
  20894938.85449 109803847.89149      -733.29749        48.395    20894942.50345
  85561499.52745      -571.40245        40.820
  20632812.23649 108426300.56949      1167.40249        49.017    20632814.23347
  84488078.54047       909.66047        44.102
  22510226.26648 118292177.28248      2326.98448        46.364    22510231.06644
  92175817.33244      1813.23044        37.139
  22502203.10047 118249970.17347      2943.63347        44.738    22502208.38344
  92142911.33544      2293.74244        37.869
  23882605.82747 125503981.02547     -2219.74247        43.357    23882613.10942
  97795353.66542     -1729.67642        34.233
  20545456.84449 107967227.03749     -1790.91449        49.183    20545459.38446
  84130430.00846     -1395.52046        43.278
  24077004.76646 126525706.74546     -3372.98846        41.815    24077009.68242
  98591543.18242     -2628.30942        33.508
  21383215.19849 112369737.78949      1033.41049        47.797    21383216.68246
  87560893.18746       805.25046        42.443
  22562615.63248 118567461.16848     -3430.40248        46.553    22562618.98244
  92390270.89944     -2673.04744        38.170
  22362123.05548 117513930.77748     -1512.02748        46.409    22362128.82945
  91569388.34445     -1178.20745        41.072
  23273351.01246 122302393.23646      2551.28146        42.632    23273357.39742
  95300582.21242      1988.01242        33.863
 14  3 20  0 17 30.0000000  0 11G 3G 7G 8G 9G10G13G16G19G23G27G28
  20899187.69749 109826175.80649      -755.18049        48.372    20899191.18645
  85578897.91145      -588.45345        40.394
  20626170.37249 108391397.44349      1159.41449        48.850    20626172.59247
  84460881.32747       903.43847        44.102
  22496948.87348 118222405.24548      2324.42648        46.088    22496953.63145
  92121449.57145      1811.23845        39.088
  22485408.51647 118161713.75947      2940.02347        45.253    22485413.22744
  92074140.23444      2290.93044        37.544
  23895307.45446 125570726.75146     -2229.91446        43.307    23895314.64442
  97847363.26342     -1737.59842        34.130
  20555732.00649 108021222.56949     -1808.75049        49.453    20555734.56446
  84172504.43346     -1409.41846        43.333
  24096262.26546 126626905.38146     -3373.48046        42.048    24096267.01541
  98670399.18241     -2628.68841        30.578
  21377374.42748 112339044.76848      1012.73848        47.267    21377375.70446
  87536976.60446       789.14546        42.538
  22582225.88148 118670512.97448     -3439.66448        46.145    22582229.21444
  92470570.89544     -2680.26644        37.888
  22370806.53548 117559562.35348     -1530.14148        46.384    22370812.26846
  91604945.41146     -1192.32046        41.583
  23258809.02447 122225975.26947      2543.47747        43.847    23258815.28642
  95241035.96342      1981.93042        33.805
 14  3 20  0 18  0.0000000  0 11G 3G 7G 8G 9G10G13G16G19G23G27G28
  20903560.64749 109849156.21849      -776.87149        47.909    20903564.04845
  85596804.73345      -605.35545        40.674
  20619573.26349 108356729.86649      1151.65249        49.206    20619575.70747
  84433867.66147       897.38747        44.120
  22483684.94348 118152703.85748      2322.16448        46.358    22483689.93644
  92067136.89744      1809.48044        38.549
  22468633.53548 118073560.30148      2936.56248        45.646    22468638.02444
  92005449.35544      2288.23044        37.136
  23908066.64046 125637774.33546     -2239.91446        42.833    23908073.33743
  97899608.05443     -1745.39143        35.400
  20566108.58849 108075751.98349     -1826.57449        49.610    20566111.24146
  84214994.85446     -1423.30946        42.891
  24115523.36046 126728123.57846     -3374.10246        41.522    24115528.62543
  98749270.40843     -2629.18043        34.516
  21371651.67748 112308972.95648       992.07448        47.045    21371653.06646
  87513544.08046       773.04346        43.055
  22601887.89247 118773838.65547     -3448.81247        45.390    22601891.65044
  92551084.27344     -2687.39544        37.176
  22379593.08348 117605736.05748     -1548.05548        45.563    22379598.77046
  91640924.92246     -1206.28146        41.151
  23244312.99647 122149798.63347      2535.14147        43.839    23244318.80743
  95181677.72643      1975.43443        34.954
 14  3 20  0 18 30.0000000  0 11G 3G 7G 8G 9G10G13G16G19G23G27G28
  20908057.54449 109872788.14649      -798.53549        48.053    20908060.88845
  85615219.22945      -622.23845        40.434
  20613021.24649 108322298.91149      1143.62549        48.987    20613023.85647
  84407038.38147       891.13347        44.276
  22470434.85748 118083073.74248      2319.77348        46.626    22470439.71044
  92012879.73844      1807.61344        38.854
  22451878.05147 117985510.64047      2933.10547        44.970    22451882.87344
  91936839.35044      2285.53544        37.643
  23920882.43746 125705121.02546     -2249.84446        41.516    23920889.31643
  97952085.88843     -1753.12943        35.387
  20576586.53549 108130814.28049     -1844.28549        49.232    20576589.28946
  84257900.51146     -1437.10946        42.641
  24134788.13646 126829359.83846     -3374.91846        41.609    24134793.10942
  98828155.75042     -2629.80942        34.208
  21366047.53049 112279523.76849       971.23049        47.895    21366049.17346
  87490596.73046       756.80146        42.870
  22621602.10148 118877435.83148     -3457.68848        45.687    22621605.49944
  92631809.24644     -2694.30944        36.833
  22388482.41848 117652450.28848     -1566.12548        45.783    22388488.09245
  91677325.61545     -1220.35945        40.865
  23229863.27347 122073864.04647      2527.18447        43.938    23229868.72842
  95122508.12042      1969.23442        33.962
 14  3 20  0 19  0.0000000  0 11G 3G 7G 8G 9G10G13G16G19G23G27G28
  20912678.40249 109897070.62949      -820.11749        48.159    20912681.60245
  85634140.63545      -639.05545        40.926
  20606514.52249 108288105.75449      1135.79749        49.197    20606517.14547
  84380394.38747       885.03547        44.299
  22457198.41048 118013515.50648      2317.38348        47.035    22457202.99645
  91958678.59345      1805.75045        39.410
  22435142.42347 117897565.94947      2929.78147        44.793    22435147.92544
  91868311.16544      2282.94544        37.193
  23933754.21346 125772763.43146     -2259.63346        43.083    23933761.30642
  98004794.13742     -1760.76242        33.925
  20587165.56549 108186408.00549     -1861.91449        49.239    20587168.46046
  84301220.27446     -1450.84446        42.987
  24154055.94945 126930612.48045     -3375.32445        41.011    24154060.98142
  98907053.81242     -2630.12942        34.374
  21360562.37149 112250698.59749       950.42649        48.127    21360564.06046
  87468135.60646       740.59046        42.912
  22641367.39348 118981302.22348     -3466.66848        46.133    22641370.48644
  92712743.98844     -2701.30544        37.327
  22397474.35548 117699703.36048     -1584.02748        46.380    22397480.36245
  91714146.19445     -1234.30945        41.067
  23215459.39446 121998171.91046      2519.18046        42.761    23215464.13743
  95063527.38743      1962.99643        34.525
 14  3 20  0 19 30.0000000  0 11G 3G 7G 8G 9G10G13G16G19G23G27G28
  20917422.93149 109922002.80849      -841.94549        47.983    20917426.16845
  85653568.31345      -656.06645        40.726
  20600053.17649 108254151.29749      1127.65249        48.944    20600055.87547
  84353936.39747       878.68847        44.757
  22443975.72148 117944029.82948      2315.05548        47.174    22443980.16944
  91904533.98444      1803.93444        38.712
  22418427.07847 117809727.46847      2926.16847        44.712    22418432.72944
  91799865.72844      2280.12944        37.125
  23946682.03646 125840698.86146     -2269.30946        42.008    23946688.94042
  98057730.74342     -1768.30142        32.548
  20597845.66449 108242531.96949     -1879.43849        49.838    20597848.44046
  84344953.19946     -1464.50046        42.204
  24173326.49946 127031879.54946     -3375.82446        41.531    24173331.94842
  98985963.13742     -2630.52042        32.396
  21355196.35549 112222498.94849       929.44549        47.827    21355197.80546
  87446161.90846       724.23846        43.215
  22661182.71848 119085435.11948     -3475.38748        45.637    22661186.42144
  92793886.33544     -2708.10244        37.052
  22406568.63348 117747493.66248     -1601.96548        46.640    22406574.58145
  91751385.38045     -1248.28945        40.738
  23201101.59547 121922722.98747      2510.64847        43.337    23201106.72343
  95004736.23143      1956.35243        36.610
 14  3 20  0 20  0.0000000  0 11G 3G 7G 8G 9G10G13G16G19G23G27G28
  20922290.86649 109947583.24049      -863.37549        48.356    20922294.04445
  85673501.12545      -672.76245        40.784
  20593637.48849 108220436.65849      1119.80949        49.103    20593640.36447
  84327665.27947       872.57447        44.629
  22430767.12848 117874617.44948      2312.48848        47.178    22430771.33844
  91850446.48244      1801.93844        38.027
  22401731.96347 117721996.45247      2922.72347        44.721    22401738.06344
  91731504.04144      2277.44544        37.948
  23959664.97246 125908924.10646     -2278.88746        41.949    23959672.09743
  98110893.16743     -1775.75843        34.863
  20608626.52849 108299184.98649     -1897.27349        49.534    20608629.00246
  84389098.38446     -1478.39846        42.818
  24192599.83145 127133160.07945     -3376.07045        41.071    24192605.18842
  99064882.96542     -2630.70742        33.888
  21349949.39749 112194926.09549       908.60249        47.897    21349951.02246
  87424676.62746       707.99646        43.241
  22681049.07148 119189832.24148     -3484.35948        45.654    22681052.56744
  92875234.62744     -2715.09444        36.916
  22415764.94548 117795819.47948     -1619.68848        46.575    22415770.67845
  91789041.85845     -1262.09845        40.656
  23186790.57546 121847517.63846      2503.00446        43.264    23186795.17742
  94946134.81042      1950.39142        33.234
 14  3 20  0 20 30.0000000  0 11G 3G 7G 8G 9G10G13G16G19G23G27G28
  20927282.07449 109973811.19349      -884.87149        48.426    20927284.87045
  85693938.49345      -689.51245        40.184
  20587267.62449 108186963.19649      1111.75849        48.948    20587270.56347
  84301582.09547       866.30147        44.796
  22417572.43548 117805279.14948      2310.15248        46.993    22417576.44044
  91796416.71144      1800.11744        38.194
  22385057.86047 117634374.11747      2919.15647        45.548    22385064.07644
  91663227.01944      2274.66444        37.835
  23972702.04946 125977436.27746     -2288.40646        41.115    23972709.69844
  98164279.15644     -1783.17644        37.127
  20619507.72949 108356365.86949     -1914.83649        49.271    20619510.27846
  84433654.88846     -1492.08246        42.763
  24211875.04246 127234451.73846     -3376.71946        41.128    24211880.22142
  99143811.44242     -2631.21142        34.075
  21344821.85948 112167981.32348       887.65648        47.569    21344823.63946
  87403680.75646       691.67646        43.287
  22700965.15247 119294491.38247     -3492.99647        45.348    22700968.18843
  92956787.10543     -2721.81643        35.287
  22425062.98748 117844679.11848     -1637.46948        46.688    22425068.47045
  91827114.29645     -1275.95345        40.941
  23172525.71947 121772556.36847      2494.63747        43.758    23172530.52442
  94887723.64842      1943.87942        34.280
 14  3 20  0 21  0.0000000  0 11G 3G 7G 8G 9G10G13G16G19G23G27G28
  20932396.22049 110000685.67449      -906.76649        48.484    20932398.87645
  85714879.65745      -706.57445        40.685
  20580943.78249 108153731.94549      1103.68049        48.842    20580946.59147
  84275687.64147       860.00847        44.676
  22404391.86948 117736015.41648      2307.52748        46.746    22404395.79144
  91742445.04144      1798.07444        38.228
  22368405.05248 117546861.80248      2915.23848        46.194    22368410.78044
  91595035.71244      2271.60944        37.398
  23985793.56945 126046232.55445     -2298.09445        40.938    23985801.30542
  98217886.54642     -1790.72742        33.374
  20630489.07149 108414072.84749     -1932.29349        49.781    20630491.56346
  84478621.33846     -1505.68846        42.581
  24231151.95145 127335753.12545     -3377.01245        39.920    24231157.52043
  99222747.49843     -2631.44543        35.168
  21339814.08149 112141666.05549       866.60549        47.801    21339815.73246
  87383175.41246       675.27346        42.592
  22720930.11847 119399409.92947     -3501.57047        45.111    22720934.28644
  93038541.65344     -2728.50444        38.281
  22434461.91848 117894070.87248     -1655.09048        46.137    22434467.16445
  91865601.37645     -1289.68445        40.395
  23158307.66947 121697839.65647      2486.36347        44.229    23158312.23042
  94829503.00942      1937.42642        33.581
 14  3 20  0 21 30.0000000  0 11G 3G 7G 8G 9G10G13G16G19G23G27G28
  20937633.02749 110028205.37949      -928.02749        48.227    20937635.81546
  85736323.57246      -723.14146        41.170
  20574666.20349 108120743.32149      1095.48849        49.066    20574668.82347
  84249982.23947       853.62547        44.087
  22391225.37348 117666827.08948      2304.85248        46.464    22391229.71444
  91688532.13244      1795.98444        38.403
  22351773.55648 117459460.83248      2911.32048        46.555    22351778.38144
  91526931.16144      2268.55944        37.401
  23998938.48546 126115310.20046     -2307.34046        42.458    23998946.60342
  98271713.17142     -1797.93442        32.318
  20641570.49049 108472304.72149     -1949.88749        49.830    20641572.70146
  84523996.79246     -1519.39546        42.757
  24250430.90346 127437062.71246     -3377.21946        41.881    24250436.17443
  99301689.95843     -2631.60543        34.757
  21334926.34249 112115981.35349       845.74249        47.815    21334927.75546
  87363161.40546       659.01646        42.252
  22740944.89748 119504585.28048     -3510.27348        45.760    22740948.83544
  93120496.34444     -2735.28544        36.907
  22443961.75748 117943993.03448     -1672.93848        46.332    22443966.95145
  91904501.76145     -1303.59045        41.058
  23144136.02247 121623368.04347      2478.23047        44.293    23144140.39342
  94771473.38142      1931.09042        32.960
 14  3 20  0 22  0.0000000  0 11G 3G 7G 8G 9G10G13G16G19G23G27G28
  20942992.13349 110056369.06949      -949.50849        47.909    20942995.34345
  85758269.31445      -739.87945        40.692
  20568435.14749 108087998.72449      1087.44549        48.907    20568437.66647
  84224466.99847       847.35547        44.531
  22378073.59448 117597714.92648      2302.44548        46.992    22378078.38244
  91634678.56144      1794.10944        38.104
  22335163.26748 117372172.31648      2907.67248        45.584    22335167.52744
  91458914.23944      2265.71544        37.884
  24012136.71046 126184665.89946     -2316.55946        42.132    24012144.64043
  98325756.46843     -1805.11743        34.905
  20652751.49449 108531060.23949     -1967.30549        49.617    20652753.56646
  84569780.28746     -1532.96946        42.784
  24269710.86145 127538378.89445     -3377.24245        40.855    24269716.30641
  99380637.54041     -2631.62141        32.103
  21330159.00049 112090928.57349       824.56249        48.128    21330160.09746
  87343639.81146       642.51246        42.664
  22761007.64948 119610015.12648     -3518.59048        45.708    22761011.65343
  93202649.32443     -2741.76243        35.718
  22453562.10548 117994443.78548     -1690.41448        46.049    22453567.41345
  91943814.02545     -1317.20745        40.505
  23130010.84447 121549142.21847      2469.98847        44.046    23130015.14142
  94713635.24042      1924.66842        33.973
 14  3 20  0 22 30.0000000  0 11G 3G 7G 8G 9G10G13G16G19G23G27G28
  20948473.71949 110085175.59649      -971.03549        48.091    20948477.08745
  85780715.95745      -756.65245        40.151
  20562250.70449 108055499.36749      1079.16049        49.059    20562253.25047
  84199142.84847       840.90247        44.717
  22364936.76548 117528679.55448      2299.91048        47.296    22364941.43244
  91580884.83044      1792.13344        38.875
  22318574.21047 117284997.44847      2903.88347        45.082    22318578.39444
  91390985.89044      2262.76644        38.393
  24025387.28246 126254297.01346     -2325.66046        41.852    24025394.96143
  98380014.36343     -1812.21143        36.645
  20664031.60449 108590338.26349     -1984.71949        49.413    20664034.06046
  84615970.92746     -1546.53946        43.052
  24288991.82446 127639700.06246     -3377.48446        41.192    24288996.81042
  99459589.03642     -2631.80942        34.273
  21325512.21349 112066508.68949       803.45349        47.941    21325513.11146
  87324611.38946       626.06246        42.885
  22781117.95247 119715697.00847     -3527.04747        45.085    22781121.52743
  93284998.71043     -2748.35243        36.000
  22463262.65048 118045421.40348     -1708.01648        46.213    22463268.27745
  91983536.82345     -1330.92645        41.104
  23115932.66047 121475162.42847      2461.87547        43.986    23115937.30543
  94655988.84043      1918.34443        36.233
 14  3 20  0 23  0.0000000  0 11G 3G 7G 8G 9G10G13G16G19G23G27G28
  20954077.53949 110114624.30149      -992.18449        47.922    20954081.00945
  85803663.00145      -773.13345        40.796
  20556113.08349 108023246.32249      1071.04349        48.896    20556115.56547
  84174010.63247       834.57447        44.378
  22351814.74648 117459722.00148      2297.46148        47.022    22351819.08845
  91527151.74145      1790.22745        39.197
  22302006.89347 117197937.66147      2900.07847        44.980    22302011.50744
  91323147.20844      2259.79744        38.488
  24038689.73446 126324200.41246     -2334.68846        42.202    24038697.18342
  98434484.44742     -1819.23842        33.881
  20675410.86949 108650137.27949     -2001.98849        49.601    20675413.36746
  84662567.53246     -1559.99246        42.797
  24308273.37545 127741024.87645     -3377.35945        41.102    24308278.38342
  99538543.36742     -2631.71142        34.162
  21320986.08549 112042723.14649       782.23849        48.075    21320987.04146
  87306077.25646       609.53146        42.699
  22801276.59448 119821628.37348     -3535.32848        45.691    22801280.35944
  93367542.51144     -2754.80544        37.072
  22473063.14548 118096924.05948     -1725.55148        45.897    22473068.96245
  92023668.74645     -1344.59045        40.436
  23101901.47247 121401429.49547      2453.55547        43.800    23101906.74843
  94598534.81543      1911.86343        35.545
 14  3 20  0 23 30.0000000  0 11G 3G 7G 8G 9G10G13G16G19G23G27G28
  20959803.32049 110144713.53749     -1013.78949        48.283    20959806.98145
  85827109.15445      -789.96945        39.944
  20550022.50149 107991240.65349      1062.85249        48.751    20550024.96347
  84149071.18447       828.19147        44.190
  22338707.51748 117390842.66948      2294.68448        46.956    22338711.42444
  91473479.59044      1788.06244        37.867
  22285461.73047 117110994.07847      2896.17247        44.609    22285466.77144
  91255399.09844      2256.75844        38.691
  24052043.20446 126394372.88046     -2343.59046        42.878    24052050.94042
  98489164.17342     -1826.18042        33.730
  20686889.07349 108710455.51749     -2019.14149        49.838    20686891.50146
  84709568.72246     -1573.35946        42.249
  24327555.24146 127842351.38146     -3377.67246        41.265    24327560.04042
  99617499.01442     -2631.96142        33.014
  21316580.78649 112019572.90249       761.03949        47.922    21316581.76546
  87288038.14946       593.01646        43.016
  22821481.93448 119927807.14748     -3543.28948        46.102    22821485.55443
  93450279.07643     -2761.00843        35.707
  22482963.36048 118148949.96848     -1742.86348        45.990    22482969.24345
  92064208.39345     -1358.07845        41.008
  23087917.37647 121327943.54747      2445.37147        44.245    23087922.94342
  94541273.21742      1905.48442        33.892
 14  3 20  0 24  0.0000000  0 11G 3G 7G 8G 9G10G13G16G19G23G27G28
  20965650.97449 110175441.99649     -1035.01649        48.417    20965654.60845
  85851053.40445      -806.50845        40.792
  20543979.26949 107959483.49449      1054.43449        48.889    20543981.53147
  84124325.36947       821.63347        44.265
  22325615.21848 117322042.37748      2291.91848        46.967    22325619.01045
  91419869.02645      1785.90645        39.318
  22268939.07147 117024167.98547      2892.27747        45.345    22268944.54644
  91187742.50944      2253.72344        37.510
  24065447.43946 126464811.59146     -2352.32446        41.915    24065455.16144
  98544051.36544     -1832.98844        37.380
  20698465.71349 108771291.56049     -2036.59049        49.392    20698468.23146
  84756973.39646     -1586.95746        42.746
  24346837.22645 127943678.39145     -3377.63345        40.052    24346842.35742
  99696455.07242     -2631.92642        34.164
  21312296.44249 111997059.14449       739.91849        47.795    21312297.54446
  87270495.02346       576.55546        42.983
  22841733.01747 120034230.79347     -3551.55547        44.358    22841737.68543
  93533206.39643     -2767.45743        36.207
  22492962.88248 118201497.34148     -1760.31248        46.120    22492968.60745
  92105154.38045     -1371.67645        40.765
  23073980.75347 121254705.30447      2437.19147        44.823    23073985.87742
  94484204.64442      1899.10942        33.220
 14  3 20  0 24 30.0000000  0 11G 3G 7G 8G 9G10G13G16G19G23G27G28
  20971620.01249 110206808.45449     -1056.14149        48.319    20971623.38345
  85875494.79545      -822.96945        40.432
  20537983.60349 107927975.78749      1046.14149        49.116    20537985.60947
  84099773.93347       815.17247        44.132
  22312537.96948 117253322.05848      2289.28148        47.038    22312542.37745
  91366320.79745      1783.85545        39.852
  22252439.34448 116937460.71148      2888.35248        45.925    22252444.65444
  91120178.49144      2250.66044        37.254
  24078901.55846 126535513.76046     -2361.07046        42.588    24078909.29242
  98599143.88942     -1839.79742        33.919
  20710140.71649 108832644.18849     -2053.73849        49.395    20710143.34046
  84804780.60446     -1600.32046        42.469
  24366118.68045 128045004.20845     -3377.68445        40.370    24366123.85243
  99775410.19743     -2631.96543        35.363
  21308133.27148 111975182.88748       718.55148        47.749    21308134.60046
  87253448.64146       559.90646        42.757
  22862031.60348 120140896.18548     -3559.59448        45.997    22862034.96843
  93616322.23343     -2773.71143        35.935
  22503061.13748 118254564.30048     -1777.57048        46.138    22503066.81945
  92146505.24645     -1385.12145        40.448
  23060091.18747 121181714.86047      2428.93047        44.037    23060096.00543
  94427329.14643      1892.67243        35.064
 14  3 20  0 25  0.0000000  0 11G 3G 7G 8G 9G10G13G16G19G23G27G28
  20977710.06649 110238811.82849     -1077.44549        47.857    20977713.51245
  85900432.49445      -839.57045        40.759
  20532035.60049 107896718.58849      1037.63749        48.952    20532037.59447
  84075417.69647       808.54347        44.108
  22299476.28048 117184682.60648      2286.64548        47.217    22299480.78845
  91312835.56445      1781.79745        39.799
  22235962.22847 116850873.45247      2884.19547        45.073    22235967.44544
  91052707.99344      2247.42244        37.213
  24092405.43246 126606476.18346     -2369.66846        42.223    24092413.36142
  98654439.16742     -1846.49642        33.262
  20721913.75349 108894511.89749     -2070.82849        49.414    20721916.35346
  84852989.18146     -1613.63746        42.400
  24385399.80445 128146327.37145     -3377.50445        40.704    24385405.13742
  99854363.22742     -2631.82442        33.520
  21304091.75048 111953945.25148       697.27748        47.652    21304093.23446
  87236899.88246       543.32846        42.774
  22882374.96947 120247801.45147     -3567.44947        45.302    22882379.30044
  93699624.86144     -2779.83644        37.581
  22513257.90848 118308149.01248     -1794.80148        45.741    22513263.84346
  92188259.54046     -1398.55146        41.272
  23046248.71947 121108972.97047      2420.62147        43.879    23046253.39643
  94370647.31743      1886.19943        35.177
 14  3 20  0 25 30.0000000  0 11G 3G 7G 8G 9G10G13G16G19G23G27G28
  20983920.91649 110271450.74049     -1098.48049        48.012    20983924.33645
  85925865.41845      -855.96145        40.509
  20526135.47949 107865713.30049      1029.28149        49.020    20526137.56047
  84051257.76047       802.03547        44.173
  22286430.11248 117116124.63548      2283.77748        47.067    22286434.75545
  91259413.83745      1779.56245        40.026
  22219508.02347 116764407.56847      2880.05947        44.379    22219513.27945
  90985332.09745      2244.19945        38.902
  24105957.73745 126677695.86045     -2378.10245        41.093    24105965.58542
  98709934.91242     -1853.07042        33.666
  20733784.55949 108956893.36649     -2087.99649        49.692    20733787.30546
  84901598.08646     -1627.01246        42.544
  24404679.84144 128247646.54144     -3377.23444        38.837    24404685.58843
  99933313.14143     -2631.61743        35.930
  21300172.01949 111933347.19149       675.90649        47.977    21300173.46246
  87220849.49546       526.67646        42.339
  22902763.23046 120354943.85646     -3575.21146        43.123    22902767.47743
  93783112.30943     -2785.88743        35.618
  22523552.77148 118362249.57448     -1812.07048        45.564    22523558.87745
  92230415.80145     -1412.00845        40.216
  23032453.50047 121036480.07047      2412.37547        43.572    23032458.48843
  94314159.51343      1879.77043        35.536
 14  3 20  0 26  0.0000000  0 11G 3G 7G 8G 9G10G13G16G19G23G27G28
  20990252.43248 110304724.05548     -1119.78948        47.739    20990255.76845
  85951792.67545      -872.56645        40.294
  20520283.54049 107834961.01249      1020.84049        49.120    20520285.54547
  84027294.97147       795.45747        43.962
  22273399.60848 117047648.66548      2281.17648        47.027    22273404.29745
  91206055.99045      1777.53545        39.911
  22203077.10347 116678064.45247      2876.25047        45.380    22203082.47344
  90918051.86944      2241.23444        36.808
  24119558.96746 126749169.96646     -2386.60946        41.189    24119567.13642
  98765628.92942     -1859.69942        33.797
  20745752.76149 109019786.81549     -2105.01249        49.299    20745755.55446
  84950605.93246     -1640.27346        42.320
  24423958.84545 128348959.96945     -3377.28545        40.142    24423964.72641
 100012258.61041     -2631.65241        31.345
  21296374.28349 111913389.89849       654.62149        47.838    21296375.61346
  87205298.39646       510.09046        42.398
  22923196.55047 120462321.22547     -3583.30947        45.256    22923200.89844
  93866782.82244     -2792.19544        36.853
  22533945.47847 118416864.10747     -1829.08647        45.017    22533951.81645
  92272972.55945     -1425.26645        40.769
  23018705.76847 120964236.40347      2404.02747        45.102    23018710.91742
  94257865.97242      1873.27342        34.300
 14  3 20  0 26 30.0000000  0 11G 3G 7G 8G 9G10G13G16G19G23G27G28
  20996704.55649 110338630.26549     -1140.73849        47.902    20996707.64945
  85978213.10245      -888.89145        40.398
  20514479.82449 107804462.44249      1012.44149        48.937    20514481.77847
  84003529.88347       788.91447        44.299
  22260384.79848 116979255.90348      2278.29348        46.955    22260389.46645
  91152762.99645      1775.28945        39.969
  22186670.24048 116591845.41748      2871.98848        46.003    22186675.18644
  90850868.29144      2237.91444        37.263
  24133207.91946 126820895.41446     -2395.12946        42.073    24133216.40242
  98821518.78742     -1866.33642        34.361
  20757817.96149 109083190.75949     -2121.96549        49.262    20757820.77746
  85000011.56646     -1653.48046        42.228
  24443236.73244 128450266.17744     -3376.62544        38.598    24443242.56843
 100091198.46443     -2631.14543        36.526
  21292698.58849 111894073.91649       633.19949        48.280    21292699.76846
  87190247.02146       493.39846        42.536
  22943674.09347 120569930.93147     -3590.96147        44.679    22943677.50542
  93950634.44042     -2798.15642        34.291
  22544435.73147 118471990.68247     -1845.98447        45.492    22544442.34245
  92315928.29845     -1438.43445        40.754
  23005005.73847 120892242.39547      2395.71547        44.247    23005010.64343
  94201766.88443      1866.79343        35.101
 14  3 20  0 27  0.0000000  0 11G 3G 7G 8G 9G10G13G16G19G23G27G28
  21003276.99649 110373168.19449     -1161.72349        48.333    21003280.04345
  86005125.78245      -905.24245        40.406
  20508724.62649 107774219.04349      1003.90649        48.869    20508726.66347
  83979963.62447       782.26247        44.730
  22247386.09248 116910947.14448      2275.55948        47.013    22247390.54245
  91099535.44145      1773.16045        39.556
  22170287.34348 116505751.76848      2867.69548        46.338    22170292.06344
  90783782.41344      2234.56644        37.738
  24146904.00846 126892869.22746     -2403.30546        41.906    24146912.42342
  98877602.13142     -1872.71142        33.947
  20769980.12449 109147103.57149     -2138.79349        49.020    20769983.03346
  85049813.72446     -1666.59446        42.355
  24462512.91344 128551563.76944     -3376.60244        38.581    24462519.63243
 100170131.60343     -2631.12143        36.422
  21289145.14749 111875400.17149       611.85949        48.245    21289146.15746
  87175696.09946       476.77046        42.584
  22964195.30847 120677770.16947     -3598.39847        43.342    22964199.67744
  94034664.86644     -2803.95344        36.920
  22555022.92147 118527627.41947     -1862.98047        45.221    22555029.48945
  92359281.58945     -1451.67645        40.446
  22991353.27247 120820498.62747      2387.22347        44.557    22991357.91543
  94145862.81343      1860.17243        34.714
 14  3 20  0 27 30.0000000  0 11G 3G 7G 8G 9G10G13G16G19G23G27G28
  21009969.31749 110408336.00749     -1182.71949        47.993    21009972.45546
  86032529.27846      -921.60246        41.289
  20503018.09749 107744231.67949       995.25449        48.932    20503020.32847
  83956596.88847       775.52047        44.853
  22234403.45148 116842723.10748      2272.69148        46.738    22234407.58445
  91046373.91045      1770.92645        40.599
  22153928.67248 116419784.97448      2863.49248        46.362    22153933.20644
  90716795.40344      2231.28944        37.661
  24160647.21646 126965088.48746     -2411.35246        42.983    24160655.35942
  98933876.77942     -1878.98042        33.989
  20782238.92549 109211523.77049     -2155.85549        49.106    20782241.75346
  85100011.24646     -1679.89146        41.824
  24481787.31745 128652851.35245     -3376.33645        39.458    24481793.86243
 100249056.93543     -2630.91443        36.388
  21285714.15449 111857370.23949       590.25849        47.797    21285715.24746
  87161646.82846       459.93846        43.174
  22984759.64047 120785836.72547     -3606.08647        45.051    22984764.40843
  94118872.39143     -2809.94143        35.595
  22565707.04748 118583772.34548     -1879.93848        45.640    22565713.47645
  92403030.87345     -1464.89145        40.568
  22977748.47947 120749005.53547      2378.99247        44.848    22977753.08742
  94090154.08042      1853.76642        34.170
 14  3 20  0 28  0.0000000  0 11G 3G 7G 8G 9G10G13G16G19G23G27G28
  21016781.23349 110444132.68649     -1203.71149        47.941    21016784.50846
  86060422.80846      -937.96146        41.310
  20497360.60249 107714501.72349       986.64149        49.024    20497362.93447
  83933430.71347       768.80947        44.333
  22221437.01948 116774584.66948      2269.94148        47.376    22221441.09845
  90993279.08345      1768.78145        38.980
  22137594.16048 116333946.26148      2859.15648        45.872    22137598.51544
  90649908.17744      2227.91044        37.521
  24174436.65546 127037550.06246     -2419.23846        43.009    24174444.57441
  98990340.26241     -1885.12541        31.557
  20794593.95449 109276449.93949     -2172.62549        49.107    20794596.69146
  85150603.03346     -1692.95746        42.035
  24501059.47044 128754127.23844     -3375.66844        38.060    24501065.84242
 100327973.17342     -2630.39542        32.887
  21282405.57048 111839984.59148       568.73048        47.642    21282406.90846
  87148099.61546       443.16446        42.256
  23005367.27047 120894128.06947     -3613.33647        44.773    23005371.94643
  94203255.09643     -2815.59443        35.621
  22576487.59747 118640423.49947     -1896.82447        45.396    22576494.01546
  92447174.60946     -1478.04746        41.212
  22964191.48347 120677763.37947      2370.55947        44.622    22964195.98443
  94034640.88143      1847.18843        36.404
 14  3 20  0 28 30.0000000  0 11G 3G 7G 8G 9G10G13G16G19G23G27G28
  21023712.40949 110480556.55249     -1224.57049        48.220    21023715.75845
  86088805.05545      -954.21545        41.002
  20491752.43849 107685030.49949       978.03149        49.073    20491754.71347
  83910466.16047       762.09847        44.532
  22208487.05748 116706532.55548      2267.00048        47.297    22208491.06445
  90940251.51645      1766.49245        39.302
  22121283.92347 116248236.97747      2855.02347        45.457    22121288.54544
  90583121.81544      2224.69144        38.132
  24188271.49346 127110251.13946     -2427.56246        41.903    24188279.19343
  99046990.34543     -1891.60943        35.635
  20807044.88249 109341880.21549     -2189.37949        49.065    20807047.66646
  85201587.62246     -1706.01246        41.941
  24520329.15345 128855390.11045     -3375.02045        39.123    24520335.59642
 100406879.24142     -2629.88742        33.767
  21279219.77348 111823244.34148       547.28548        47.571    21279221.53546
  87135055.30746       426.45346        43.171
  23026016.83147 121002642.07247     -3620.83647        44.008    23026020.89542
  94287811.36442     -2821.43442        34.232
  22587364.04748 118697578.91248     -1913.59848        45.700    22587370.17845
  92491711.27845     -1491.11745        41.016
  22950682.20447 120606773.00047      2362.30547        44.647    22950686.71742
  93979323.85942      1840.75842        34.085
 14  3 20  0 29  0.0000000  0 11G 3G 7G 8G 9G10G13G16G19G23G27G28
  21030762.60949 110517605.83249     -1245.37949        48.314    21030766.12545
  86117674.62945      -970.43045        40.928
  20486193.69149 107655818.66049       969.36349        48.924    20486195.82447
  83887703.71647       755.34447        44.309
  22195553.56848 116638567.52548      2264.12948        46.866    22195557.73245
  90887291.82245      1764.25445        40.015
  22104998.52647 116162658.43847      2850.34447        45.136    22105003.54244
  90516437.33344      2221.04744        37.328
  24202150.91946 127183188.69646     -2435.25046        41.805    24202159.14642
  99103824.67942     -1897.60242        34.023
  20819591.58449 109407813.09449     -2206.09049        49.258    20819594.31446
  85252963.85346     -1719.03546        41.640
  24539596.42045 128956638.51945     -3374.52045        39.719    24539602.48742
 100485774.05242     -2629.50442        33.104
  21276157.04149 111807149.55249       525.71149        47.835    21276158.94246
  87122513.95846       409.64146        43.021
  23046708.01047 121111375.81447     -3628.02047        44.362    23046712.51743
  94372538.79143     -2827.03543        36.399
  22598336.17848 118755236.62548     -1930.32048        45.661    22598341.97446
  92536639.35146     -1504.14846        41.354
  22937220.54647 120536034.06747      2353.59047        44.103    22937225.38042
  93924202.78142      1833.96942        33.379
 14  3 20  0 29 30.0000000  0 11G 3G 7G 8G 9G10G13G16G19G23G27G28
  21037931.57449 110555279.24349     -1266.12549        48.159    21037935.11745
  86147030.54245      -986.59445        40.840
  20480684.48749 107626867.32449       960.69149        49.329    20480686.51747
  83865144.25947       748.58647        44.403
  22182636.95248 116570690.46448      2261.08648        47.555    22182640.92444
  90834400.67644      1761.88344        38.635
  22088738.67748 116077212.03648      2846.00048        45.905    22088743.63744
  90449855.81144      2217.66044        38.173
  24216075.11146 127256359.30646     -2443.16446        42.048    24216083.14742
  99160840.63042     -1903.77042        34.236
  20832233.70949 109474247.01649     -2222.91449        49.339    20832236.38146
  85304730.50746     -1732.14546        41.881
  24558860.37644 129057871.09844     -3374.05544        38.743    24558865.95442
 100564656.56842     -2629.13742        33.787
  21273217.30448 111791701.66948       504.07048        47.593    21273219.15046
  87110476.69146       392.77746        43.161
  23067441.26147 121220326.95847     -3635.42247        44.816    23067445.93543
  94457435.64343     -2832.80143        36.202
  22609403.29448 118813394.59748     -1946.96548        45.565    22609409.25346
  92581957.23246     -1517.11746        41.773
  22923807.18747 120465547.37347      2345.38347        44.567    22923811.83343
  93869278.22543      1827.56643        34.992
 14  3 20  0 30  0.0000000  0 11G 3G 7G 8G 9G10G13G16G19G23G27G28
  21045218.99349 110593575.36349     -1286.89549        47.976    21045222.52945
  86176871.67745     -1002.77745        40.554
  20475225.20349 107598178.12149       951.87949        49.364    20475227.17947
  83842789.06147       741.71947        44.407
  22169737.38648 116502902.26748      2258.14548        47.599    22169740.89245
  90781578.75345      1759.59045        39.598
  22072504.36448 115991899.39048      2841.48448        45.894    22072508.74644
  90383378.49644      2214.14144        37.929
  24230042.87645 127329760.25245     -2450.35545        40.905    24230051.25745
  99218036.02145     -1909.37145        38.934
  20844970.70849 109541180.04149     -2239.44949        49.236    20844973.33446
  85356886.07246     -1745.02746        41.336
  24578120.93544 129159086.42644     -3373.36344        38.780    24578126.74441
 100643525.60841     -2628.59841        28.755
  21270400.99749 111776901.46949       482.44949        47.843    21270402.48946
  87098944.10346       375.93046        43.189
  23088214.77147 121329492.80947     -3642.39847        43.382    23088219.66143
  94542499.74743     -2838.23843        36.272
  22620565.33348 118872050.81048     -1963.47748        45.761    22620571.10746
  92627663.35346     -1529.98446        41.426
  22910442.07047 120395313.52747      2336.92647        44.442    22910446.86943
  93814550.71243      1820.98043        36.233
 14  3 20  0 30 30.0000000  0 11G 3G 7G 8G 9G10G13G16G19G23G27G28
  21052624.64649 110632492.73049     -1307.51649        47.891    21052628.15445
  86207196.89345     -1018.84845        40.811
  20469815.99349 107569751.84249       943.20749        49.268    20469817.98247
  83820638.73847       734.96547        44.927
  22156854.92649 116435203.82849      2255.14849        47.831    22156858.41845
  90728826.78345      1757.25445        38.976
  22056295.54948 115906721.86948      2837.00048        45.782    22056299.86444
  90317006.48444      2210.64544        37.740
  24244053.83045 127403388.44345     -2457.85945        41.037    24244062.37643
  99275408.47643     -1915.22743        34.510
  20857802.39549 109608610.61949     -2255.94149        49.192    20857804.88446
  85409429.35046     -1757.87946        41.398
  24597378.14745 129260282.99945     -3372.98045        39.442    24597383.73743
 100722380.04443     -2628.30143        34.593
  21267708.20049 111762749.55049       460.95349        47.978    21267709.18646
  87087916.66646       359.18046        42.864
  23109029.15147 121438871.07247     -3649.40247        44.794    23109032.98943
  94627729.48243     -2843.69543        35.510
  22631821.77248 118931203.23148     -1979.91848        46.205    22631827.31945
  92673756.13345     -1542.79745        40.544
  22897125.03947 120325332.36447      2328.29347        43.976    22897129.84443
  93760020.09443      1814.25443        36.538
 14  3 20  0 31  0.0000000  0 11G 3G 7G 8G 9G10G13G16G19G23G27G28
  21060148.29849 110672029.62849     -1328.22349        48.339    21060151.77445
  86238004.87345     -1034.98045        40.101
  20464456.88149 107541589.54549       934.32449        49.009    20464459.04648
  83798694.11348       728.04348        45.593
  22143989.63148 116367596.09948      2252.03548        47.334    22143993.11245
  90676145.49445      1754.82845        39.580
  22040112.73548 115821680.91648      2832.28948        45.804    22040116.96844
  90250740.90344      2206.98044        37.035
  24258107.52146 127477240.93846     -2465.56646        41.768    24258115.94743
  99332955.75343     -1921.22743        35.402
  20870728.32849 109676537.17349     -2272.43449        49.166    20870730.88446
  85462359.09946     -1770.73046        41.613
  24616631.17645 129361459.38445     -3372.37945        39.321    24616636.51442
 100801218.73642     -2627.83242        33.554
  21265138.84549 111749246.27149       439.20749        48.234    21265139.60446
  87077394.67246       342.23446        42.604
  23129883.59147 121548458.85747     -3656.34447        45.473    23129887.49143
  94713122.40443     -2849.10243        35.927
  22643172.48748 118990849.82048     -1996.50448        46.676    22643177.54745
  92720233.98445     -1555.71945        39.930
  22883856.22647 120255604.36347      2319.99247        44.120    22883861.12044
  93705686.73944      1807.78144        37.099
 14  3 20  0 31 30.0000000  0 11G 3G 7G 8G 9G10G13G16G19G23G27G28
  21067789.52449 110712184.25949     -1348.77349        47.939    21067792.86245
  86269294.19445     -1050.99645        40.805
  20459148.12649 107513692.42849       925.52349        49.080    20459150.44047
  83776956.12847       721.18447        45.216
  22131141.57148 116300080.02948      2249.02748        47.537    22131145.08145
  90623535.63045      1752.48445        39.941
  22023956.12148 115736777.95248      2827.90648        45.915    22023960.56944
  90184582.82044      2203.55944        38.548
  24272203.52746 127551314.67346     -2472.69146        43.272    24272211.67842
  99390675.41942     -1926.78142        33.998
  20883748.35749 109744957.78449     -2288.94949        49.441    20883750.95746
  85515673.82946     -1783.60246        41.394
  24635880.41645 129462614.34145     -3371.64545        39.647    24635885.91641
 100880040.74441     -2627.26241        28.298
  21262692.93649 111736392.66249       417.53949        48.072    21262693.48646
  87067378.90646       325.35246        42.863
  23150776.58046 121658253.86646     -3663.27746        42.298    23150780.74844
  94798676.80644     -2854.50844        36.823
  22654616.69248 119050988.49248     -2012.70748        46.138    22654621.50745
  92767095.28945     -1568.34845        40.323
  22870635.60947 120186129.85347      2311.70747        43.520    22870640.51143
  93651550.87343      1801.33243        35.256
 14  3 20  0 32  0.0000000  0 11G 3G 7G 8G 9G10G13G16G19G23G27G28
  21075547.90248 110752954.99348     -1369.21948        47.647    21075551.26545
  86301063.60545     -1066.92645        41.088
  20453890.20249 107486061.97949       916.55949        49.298    20453892.50747
  83755425.92247       714.19947        44.939
  22118311.14348 116232656.45048      2245.79748        47.603    22118314.60344
  90570997.84044      1749.96944        38.502
  22007826.14848 115652014.17848      2822.97748        45.999    22007830.59445
  90118533.21145      2199.71945        39.358
  24286340.81746 127625606.56446     -2480.12546        42.261    24286349.17741
  99448565.08641     -1932.57041        32.033
  20896862.08649 109813870.97949     -2305.33249        49.101    20896864.71846
  85569372.38946     -1796.36746        41.341
  24655125.51945 129563746.30145     -3370.65645        40.820    24655130.41841
 100958844.90241     -2626.48841        26.330
  21260370.56249 111724189.06649       395.79349        47.967    21260370.90046
  87057869.64546       308.40646        42.537
  23171708.80047 121768253.71147     -3670.22747        44.595    23171713.71242
  94884390.78442     -2859.92242        34.327
  22666153.96248 119111617.18448     -2028.99248        45.954    22666159.03845
  92814338.39945     -1581.03545        40.709
  22857463.20147 120116908.95847      2303.10547        44.639    22857467.80443
  93597612.65843      1794.62943        34.524
 14  3 20  0 32 30.0000000  0 11G 3G 7G 8G 9G10G13G16G19G23G27G28
  21083423.14549 110794340.36149     -1389.75049        47.779    21083426.81445
  86333311.94045     -1082.92645        40.252
  20448683.12249 107458698.73549       907.65249        49.346    20448685.34047
  83734103.94147       707.25847        44.912
  22105498.46448 116165326.18048      2242.80548        47.205    22105502.23645
  90518532.75545      1747.63745        39.937
  21991722.83948 115567391.12548      2818.39148        46.011    21991727.04044
  90052593.24144      2196.14544        37.769
  24300519.17046 127700113.42346     -2487.30546        41.829    24300527.31641
  99506622.32141     -1938.16441        30.993
  20910069.09449 109883274.96249     -2321.64149        48.919    20910072.02146
  85623453.37346     -1809.07446        41.859
  24674365.88444 129664854.19844     -3370.14844        38.712    24674371.07042
 101037630.24042     -2626.09042        33.547
  21258171.82448 111712636.35848       374.31648        47.409    21258172.36247
  87048867.57647       291.67247        43.448
  23192679.75247 121878455.66747     -3676.75047        45.019    23192683.43743
  94970262.31543     -2865.00443        35.525
  22677783.80047 119172733.80847     -2045.34047        45.434    22677789.26945
  92861961.71445     -1593.77345        40.051
  22844339.28347 120047942.23847      2294.52747        45.044    22844343.43043
  93543872.47243      1787.94543        34.697
 14  3 20  0 33  0.0000000  0 11G 3G 7G 8G 9G10G13G16G19G23G27G28
  21091415.15649 110836338.60749     -1410.12549        47.983    21091418.77845
  86366037.84945     -1098.80145        40.267
  20443527.14949 107431604.08749       898.61349        49.158    20443529.35747
  83712991.26047       700.21547        45.076
  22092703.75548 116098090.08648      2239.64148        47.536    22092707.78645
  90466141.06645      1745.17245        39.676
  21975646.48948 115482910.17948      2813.41448        45.923    21975650.78044
  89986764.01944      2192.26644        38.482
  24314738.06146 127774832.44146     -2494.06646        42.954    24314745.95041
  99564844.80141     -1943.43041        30.810
  20923369.21649 109953167.73449     -2337.89149        48.703    20923372.48946
  85677915.23646     -1821.73446        41.671
  24693601.14345 129765936.44445     -3368.78145        39.352    24693606.79841
 101116395.52741     -2625.03141        29.901
  21256097.19149 111701735.05149       352.50049        47.824    21256098.12446
  87040373.09146       274.67246        42.926
  23213688.97547 121988857.14647     -3683.35547        43.431    23213692.42543
  95056289.32743     -2870.15243        36.341
  22689506.17848 119234336.22448     -2061.18048        45.588    22689511.80645
  92909963.58645     -1606.11745        40.341
  22831263.69247 119979230.04547      2286.23447        45.472    22831268.09143
  93490330.66443      1781.48043        35.810
 14  3 20  0 33 30.0000000  0 11G 3G 7G 8G 9G10G13G16G19G23G27G28
  21099523.51149 110878948.15449     -1430.47749        47.900    21099527.16345
  86399240.09645     -1114.66045        40.152
  20438422.55849 107404779.31649       889.62949        49.405    20438424.85347
  83692088.87247       693.21547        45.036
  22079927.18648 116030949.18948      2236.61348        47.413    22079931.13545
  90413823.54445      1742.81245        39.850
  21959597.63248 115398572.82848      2808.81648        46.459    21959602.07244
  89921046.69444      2188.68444        38.761
  24328996.61146 127849760.64446     -2501.19546        41.975    24329004.31041
  99623230.32041     -1948.98841        31.731
  20936762.06149 110023547.63049     -2354.05149        48.861    20936765.33546
  85732756.68046     -1834.32846        41.890
  24712831.54445 129866991.68545     -3367.85945        39.912    24712836.88942
 101195139.92942     -2624.30942        32.343
  21254146.79549 111691485.67449       330.77049        47.900    21254148.01346
  87032386.59946       257.73846        43.108
  23234734.99047 122099455.76147     -3689.73447        43.975    23234739.25343
  95142469.85943     -2875.12543        34.532
  22701320.48247 119296422.36147     -2077.28547        45.220    22701326.43445
  92958342.36345     -1618.66845        39.713
  22818236.56547 119910772.69847      2277.62147        44.401    22818241.04043
  93436987.41443      1774.76643        36.037
 14  3 20  0 34  0.0000000  0 11G 3G 7G 8G 9G10G13G16G19G23G27G28
  21107747.90449 110922167.30149     -1450.87149        47.786    21107751.65445
  86432917.34445     -1130.55145        40.707
  20433369.53749 107378225.39649       880.55149        49.245    20433371.83547
  83671397.52947       686.14147        45.289
  22067168.93348 115963904.29448      2233.20748        47.645    22067172.66545
  90361580.83045      1740.16045        39.260
  21943576.35148 115314380.49248      2804.00848        46.366    21943580.72044
  89855442.36544      2184.93844        38.637
  24343294.19246 127924894.81846     -2508.18046        41.122    24343301.75742
  99681776.30442     -1954.43042        33.711
  20950247.33949 110094412.98249     -2370.21949        48.891    20950250.58045
  85787976.39945     -1846.92645        41.040
  24732056.35245 129968018.72345     -3367.11745        40.295    24732061.29541
 101273862.29841     -2623.73041        28.389
  21252320.55849 111681888.87849       308.94549        48.062    21252322.01046
  87024908.61846       240.73446        42.986
  23255818.44047 122210248.96547     -3696.35547        44.641    23255822.76642
  95228802.04442     -2880.28942        34.394
  22713226.50547 119358990.07347     -2093.52347        45.065    22713232.76745
  93007096.39645     -1631.32045        40.964
  22805257.92047 119842570.48847      2269.03947        45.137    22805262.51843
  93383843.00243      1768.08243        36.197
 14  3 20  0 34 30.0000000  0 11G 3G 7G 8G 9G10G13G16G19G23G27G28
  21116087.89248 110965994.29848     -1471.04748        47.662    21116091.60245
  86467068.25045     -1146.27345        40.719
  20428368.29249 107351943.60849       871.48849        49.206    20428370.49947
  83650918.23647       679.07847        44.708
  22054429.20548 115896956.48048      2229.95748        47.537    22054432.84545
  90309413.75845      1737.62545        40.228
  21927583.00248 115230334.56648      2798.95748        46.094    21927587.27345
  89789952.13145      2181.00845        39.417
  24357630.27245 128000232.00945     -2514.62945        40.770    24357638.20343
  99740480.40743     -1959.46143        36.306
  20963824.62149 110165761.79549     -2386.28949        49.036    20963827.91145
  85843572.83145     -1859.44945        41.097
  24751275.39445 130069016.08645     -3365.89545        39.550    24751280.67941
 101352561.48841     -2622.77741        18.156
  21250618.64249 111672945.00049       287.16849        48.098    21250619.96146
  87017939.40446       223.76646        42.821
  23276938.93148 122321234.34248     -3702.55148        45.572    23276942.23242
  95315284.06642     -2885.11342        33.618
  22725223.91047 119422037.19047     -2109.43447        45.333    22725230.00245
  93056223.99645     -1643.71945        40.104
  22792327.91747 119774623.50147      2260.51647        45.013    22792332.66943
  93330897.43643      1761.44143        36.658
 14  3 20  0 35  0.0000000  0 11G 3G 7G 8G 9G10G13G16G19G23G27G28
  21124543.19249 111010427.20749     -1491.13349        47.961    21124546.70445
  86501691.28845     -1161.92645        40.542
  20423418.90949 107325934.96349       862.33249        49.256    20423420.95647
  83630651.78547       671.94547        44.861
  22041708.08748 115830106.48248      2226.60948        47.379    22041711.72045
  90257322.91245      1735.01645        40.105
  21911617.58748 115146436.51148      2794.12948        46.065    21911621.92044
  89724577.09244      2177.23844        38.536
  24372004.54445 128075769.31245     -2521.29345        40.670    24372013.21743
  99799340.54743     -1964.64843        35.674
  20977493.61549 110237592.20749     -2402.39849        49.201    20977496.99246
  85899544.53446     -1872.00446        41.330
  24770488.72745 130169982.62845     -3365.14145        39.099    24770494.10042
 101431236.68342     -2622.19542        34.409
  21249041.12049 111664654.40349       265.37549        48.063    21249042.14846
  87011479.24446       206.78146        42.947
  23298094.77147 122432409.16547     -3709.00847        43.949    23298098.97742
  95401913.60342     -2890.14842        32.831
  22737312.06248 119485561.51848     -2125.27048        45.665    22737318.13845
  93105723.46145     -1656.05945        39.400
  22779446.42047 119706931.91047      2252.20747        44.873    22779451.24644
  93278150.86944      1754.96944        36.967
 14  3 20  0 35 30.0000000  0 11G 3G 7G 8G 9G10G13G16G19G23G27G28
  21133113.48549 111055464.37249     -1511.31649        47.871    21133116.87645
  86536785.17645     -1177.65245        41.104
  20418521.71149 107300200.67449       853.15249        49.218    20418523.76447
  83610599.12247       664.78947        44.829
  22029005.73749 115763355.28649      2223.32849        47.939    22029009.42045
  90205309.04945      1732.46145        40.153
  21895680.46048 115062687.84448      2789.09848        45.797    21895685.16245
  89659318.49845      2173.32445        39.073
  24386416.13345 128151503.57345     -2527.87145        39.434    24386425.19643
  99858354.08243     -1969.77743        36.280
  20991253.86349 110309902.49449     -2418.31649        49.003    20991256.89545
  85955890.17645     -1884.40645        40.712
  24789696.17945 130270916.94345     -3363.79745        40.051    24789701.49341
 101509886.81441     -2621.14541        28.627
  21247587.99449 111657017.67749       243.57049        48.255    21247588.66946
  87005528.60046       189.79346        42.758
  23319286.38547 122543770.74347     -3715.04747        44.442    23319290.48643
  95488688.70743     -2894.84843        35.343
  22749490.84947 119549560.94247     -2141.28947        45.253    22749496.96545
  93155593.11045     -1668.53945        40.223
  22766613.66447 119639496.46247      2243.52047        44.357    22766618.58144
  93225603.92244      1748.19944        37.064
 14  3 20  0 36  0.0000000  0 11G 3G 7G 8G 9G10G13G16G19G23G27G28
  21141798.50849 111101103.59949     -1531.24649        48.129    21141801.81445
  86572348.20645     -1193.18445        40.627
  20413677.05849 107274742.11849       843.99649        49.251    20413679.11147
  83590761.31747       657.65647        44.542
  22016322.37548 115696703.89748      2220.12948        47.752    22016326.07745
  90153372.96745      1729.96945        39.704
  21879772.04948 114979089.91148      2784.00448        45.993    21879776.75544
  89594177.35044      2169.35544        38.220
  24400864.72746 128227431.82246     -2534.34446        41.342    24400873.72542
  99917518.82442     -1974.81642        34.243
  21005105.13949 110382690.85449     -2434.23049        49.222    21005107.88245
  86012608.33545     -1896.80545        41.015
  24808896.91245 130371817.72545     -3362.68845        38.968    24808902.59341
 101588510.77841     -2620.27741        30.798
  21246259.22349 111650035.22049       221.73849        47.946    21246260.02946
  87000087.76546       172.78146        43.082
  23340513.12347 122655316.72147     -3721.28547        44.024    23340517.16043
  95575607.50543     -2899.71143        35.283
  22761759.82148 119614033.23448     -2156.97348        45.600    22761765.45145
  93205831.23945     -1680.76245        39.913
  22753829.75047 119572317.23247      2235.11747        44.663    22753834.73943
  93173256.61543      1741.65243        36.540
 14  3 20  0 36 30.0000000  0 11G 3G 7G 8G 9G10G13G16G19G23G27G28
  21150597.75349 111147343.31749     -1551.32049        48.381    21150601.02945
  86608379.14345     -1208.82445        40.008
  20408885.06249 107249560.21349       834.78149        49.243    20408887.14447
  83571139.08347       650.47747        44.847
  22003658.20849 115630153.44849      2216.66049        47.819    22003661.71145
  90101515.53145      1727.26645        39.747
  21863892.68648 114895644.10948      2779.03148        45.877    21863897.39144
  89529154.71744      2165.48044        38.804
  24415349.79646 128303550.82146     -2540.39846        41.553    24415358.73243
  99976832.18843     -1979.53943        34.664
  21019047.05449 110455955.21549     -2450.19949        48.976    21019049.77045
  86069697.40745     -1909.25045        40.845
  24828091.34145 130472683.75545     -3361.61745        40.598    24828097.21241
 101667107.68341     -2619.44141        30.184
  21245054.93849 111643707.39049       199.85249        48.282    21245055.95046
  86995157.03446       155.72746        42.780
  23361773.62246 122767044.65246     -3727.09446        43.137    23361777.82842
  95662668.06842     -2904.23442        33.261
  22774118.23047 119678976.17747     -2172.60247        45.355    22774123.70845
  93256436.11745     -1692.94145        39.878
  22741094.65347 119505394.37047      2226.44947        45.245    22741099.59843
  93121109.08243      1734.89543        35.377
 14  3 20  0 37  0.0000000  0 11G 3G 7G 8G 9G10G13G16G19G23G27G28
  21159510.81849 111194181.85249     -1571.19149        47.853    21159514.24245
  86644876.70245     -1224.30945        40.410
  20404145.93749 107224656.21049       825.53949        49.153    20404147.95247
  83551733.39447       643.27347        44.647
  21991013.39749 115563704.89049      2213.19149        48.064    21991016.81245
  90049737.47845      1724.55545        39.681
  21848042.82148 114812352.25948      2773.86348        46.417    21848047.28845
  89464252.05345      2161.44945        39.025
  24429871.18546 128379857.83046     -2546.75846        42.439    24429879.66442
 100036292.02242     -1984.49642        33.741
  21033078.94649 110529693.84149     -2465.87149        48.778    21033081.83945
  86127156.02345     -1921.46145        40.978
  24847278.71345 130573513.71545     -3360.48845        40.445    24847284.35742
 101745676.47742     -2618.56242        34.337
  21243975.17148 111638034.58048       178.18048        47.690    21243976.10546
  86990736.70946       138.84046        42.872
  23383068.87647 122878951.82347     -3733.02347        43.948    23383073.83043
  95749868.27843     -2908.85543        35.892
  22786565.60347 119744387.58447     -2188.08647        44.974    22786571.17245
  93307406.01745     -1705.00445        39.004
  22728408.35247 119438728.08847      2217.95347        45.120    22728413.25343
  93069161.48543      1728.27743        34.514
 14  3 20  0 37 30.0000000  0 11G 3G 7G 8G 9G10G13G16G19G23G27G28
  21168537.37248 111241617.14448     -1591.20748        47.597    21168540.93045
  86681839.26445     -1239.90645        40.524
  20399459.96549 107200031.36149       816.15249        49.204    20399461.97447
  83532545.22947       635.96147        44.743
  21978388.30749 115497359.11949      2209.65649        47.825    21978391.75445
  89998039.53545      1721.80945        40.395
  21832222.59048 114729215.81948      2768.59448        46.042    21832227.11745
  89399470.49145      2157.34445        40.228
  24444427.47846 128456349.65146     -2552.64846        41.759    24444435.86841
 100095895.92541     -1989.07841        31.975
  21047201.01949 110603904.74949     -2481.62549        49.127    21047203.77846
  86184982.66246     -1933.73846        41.116
  24866458.59245 130674306.09845     -3359.34845        38.909    24866464.59742
 101824215.95342     -2617.68042        32.808
  21243019.99949 111633016.97149       156.14849        47.837    21243020.98246
  86986826.93846       121.67246        42.681
  23404397.99847 122991035.62647     -3739.10947        44.260    23404403.08843
  95837206.13543     -2913.59843        35.540
  22799101.61047 119810265.24647     -2203.56247        44.767    22799107.38445
  93358739.25045     -1717.06645        40.245
  22715770.85347 119372318.76147      2209.30547        44.727    22715775.79543
  93017414.10243      1721.53543        36.283
 14  3 20  0 38  0.0000000  0 11G 3G 7G 8G 9G10G13G16G19G23G27G28
  21177677.21348 111289647.35848     -1610.86748        47.663    21177680.87645
  86719265.40545     -1255.22345        40.335
  20394827.28449 107175686.65049       806.86349        49.121    20394829.24847
  83513575.35547       628.72347        44.510
  21965782.75649 115431116.93849      2206.25849        47.997    21965786.39145
  89946422.30345      1719.14545        39.262
  21816431.87048 114646236.09248      2763.35548        46.039    21816436.76045
  89334811.06345      2153.26645        39.947
  24459017.94245 128533023.17545     -2558.94145        41.010    24459025.97141
 100155641.42041     -1993.98841        28.744
  21061412.55049 110678585.87849     -2497.17649        49.024    21061415.16745
  86243175.71245     -1945.85545        40.537
  24885631.20645 130775060.09945     -3357.78145        39.463    24885637.52841
 101902725.58341     -2616.45741        31.574
  21242189.73148 111628654.78148       134.52348        47.670    21242190.88946
  86983427.87846       104.82046        42.548
  23425759.08246 123103293.85946     -3744.80546        41.782    23425765.02741
  95924679.84941     -2918.03941        30.789
  22811726.12547 119876606.90547     -2219.06647        45.080    22811731.99345
  93410434.03345     -1729.14545        40.254
  22703182.42047 119306166.50747      2200.78947        44.771    22703187.46444
  92965867.06944      1714.90244        37.116
 14  3 20  0 38 30.0000000  0 11G 3G 7G 8G 9G10G13G16G19G23G27G28
  21186929.87248 111338270.80348     -1630.66048        47.675    21186933.54145
  86757153.79145     -1270.64845        40.210
  20390248.10949 107151623.11649       797.36749        49.277    20390250.08647
  83494824.58247       621.32047        44.799
  21953197.07048 115364979.56648      2202.71548        47.698    21953200.90245
  89894886.75045      1716.44945        39.939
  21800671.43748 114563414.78248      2757.96548        46.581    21800676.31245
  89270275.06145      2149.05945        40.077
  24473642.50346 128609875.37646     -2564.85246        41.628    24473650.61141
 100215526.11141     -1998.59441        29.244
  21075712.93449 110753735.47749     -2512.78149        48.717    21075715.70645
  86301733.78445     -1958.01645        40.964
  24904796.70345 130875774.30845     -3356.37545        39.903    24904802.90942
 101981204.17542     -2615.35942        32.373
  21241484.33648 111624948.73348       112.57848        47.525    21241485.67646
  86980540.09546        87.71946        42.943
  23447154.74547 123215723.44947     -3750.44547        44.998    23447159.58943
  96012287.21243     -2922.43443        35.150
  22824438.61347 119943410.32347     -2234.41447        45.379    22824444.21845
  93462488.61645     -1741.10545        39.360
  22690642.93847 119240271.44947      2192.20347        44.986    22690647.94044
  92914520.40744      1708.21144        37.014
 14  3 20  0 39  0.0000000  0 11G 3G 7G 8G 9G10G13G16G19G23G27G28
  21196295.12249 111387485.05249     -1650.27749        47.872    21196298.68045
  86795502.54045     -1285.93445        40.850
  20385722.69549 107127842.19849       787.73049        49.273    20385724.64147
  83476294.02247       613.81247        44.778
  21940631.60249 115298948.05249      2199.26249        48.070    21940635.60145
  89843433.67045      1713.70745        40.144
  21784941.71948 114480753.64848      2752.82448        46.715    21784946.26545
  89205863.85945      2145.05545        39.013
  24488300.30746 128686903.35546     -2570.47346        41.177    24488308.35741
 100275547.77941     -2002.97341        31.213
  21090102.21349 110829351.36649     -2528.30949        49.079    21090105.07446
  86360655.20546     -1970.11346        41.113
  24923954.38544 130976447.54344     -3355.00844        37.539    24923960.01743
 102059650.86243     -2614.29743        34.579
  21240903.86849 111621898.39649        90.66449        48.082    21240905.07646
  86978163.24646        70.64546        42.540
  23468582.24647 123328322.16047     -3756.14547        44.088    23468586.74943
  96100026.34543     -2926.87143        34.610
  22837238.50148 120010673.15248     -2249.89148        45.984    22837243.99745
  93514901.20345     -1753.16445        39.258
  22678152.37847 119174633.94447      2183.59447        45.148    22678157.23643
  92863374.44643      1701.50443        35.848
 14  3 20  0 39 30.0000000  0 11G 3G 7G 8G 9G10G13G16G19G23G27G28
  21205772.64649 111437288.23349     -1669.97749        47.847    21205775.85446
  86834310.21746     -1301.28546        41.287
  20381251.37349 107104345.25849       778.46149        49.218    20381253.23547
  83457984.74347       606.59047        45.008
  21928086.39848 115233023.31648      2195.71948        47.620    21928090.55545
  89792063.80445      1710.94545        39.984
  21769242.61048 114398254.03248      2747.39148        46.944    21769246.79044
  89141578.52244      2140.82044        38.374
  24502991.06645 128764103.92045     -2576.22745        39.902    24502999.70143
 100335703.94743     -2007.45743        35.808
  21104579.83249 110905431.89749     -2543.71149        48.753    21104582.59445
  86419938.69845     -1982.11745        40.544
  24943103.61545 131077078.39245     -3353.69545        40.612    24943109.23341
 102138064.50941     -2613.27341        31.033
  21240448.48648 111619504.29448        68.91048        47.667    21240449.51746
  86976297.74946        53.69146        42.840
  23490039.78445 123441087.73245     -3761.69545        40.844    23490045.93744
  96187895.34644     -2931.20344        37.179
  22850125.20747 120078393.21647     -2265.05147        44.880    22850130.73745
  93567670.05545     -1764.97745        40.047
  22665710.98547 119109254.05247      2175.12947        45.408    22665715.95343
  92812429.24843      1694.91043        36.368
 14  3 20  0 40  0.0000000  0 11G 3G 7G 8G 9G10G13G16G19G23G27G28
  21215361.55449 111487678.51449     -1689.48449        47.783    21215364.86645
  86873575.37445     -1316.48445        40.211
  20376834.19349 107081132.85449       769.03549        49.105    20376835.96447
  83439897.18947       599.24647        44.774
  21915561.76449 115167206.19249      2192.02749        48.119    21915565.99345
  89740777.79445      1708.07045        40.290
  21753574.58948 114315917.53848      2741.87548        46.997    21753578.44845
  89077420.28645      2136.52345        39.532
  24517713.86345 128841474.06945     -2582.14145        40.280    24517722.68041
 100395992.21541     -2012.06241        31.487
  21119145.45049 110981975.07449     -2559.07849        48.967    21119148.49146
  86479582.66546     -1994.09046        41.151
  24962244.54945 131177665.68745     -3352.03545        40.986    24962250.55741
 102216444.17941     -2611.98041        30.085
  21240117.86549 111617766.58449        47.07049        47.811    21240118.97646
  86974943.73446        36.67646        42.875
  23511530.57347 123554017.09947     -3766.93847        45.127    23511535.28342
  96275892.12242     -2935.27742        33.630
  22863098.31247 120146568.20147     -2280.31647        44.921    22863103.88144
  93620793.38144     -1776.87544        38.190
  22653318.76848 119044131.94748      2166.23448        45.661    22653323.56343
  92761684.88743      1687.97743        35.470
 14  3 20  0 40 30.0000000  0 11G 3G 7G 8G 9G10G13G16G19G23G27G28
  21225061.61048 111538654.14148     -1708.85948        47.348    21225065.30845
  86913296.63345     -1331.58245        40.766
  20372471.39049 107058206.49249       759.50449        49.069    20372473.15247
  83422032.52047       591.81647        44.564
  21903057.91349 115101497.65449      2188.44549        48.030    21903062.07746
  89689576.38946      1705.35946        41.155
  21737937.71948 114233745.62448      2736.33248        46.347    21737941.71345
  89013390.30845      2132.20345        39.078
  24532468.62445 128919010.68345     -2586.87545        39.882    24532477.40142
 100456410.20842     -2015.75442        34.415
  21133798.94949 111058978.46049     -2574.43849        49.184    21133801.61645
  86539585.27645     -2006.05945        41.043
  24981376.88544 131278208.42844     -3350.65244        37.407    24981383.30543
 102294789.24543     -2610.90243        34.967
  21239912.25349 111616685.09949        25.08649        48.247    21239913.10046
  86974101.05746        19.54346        42.600
  23533051.80347 123667107.56947     -3772.25847        45.433    23533055.67943
  96364014.44943     -2939.42643        36.528
  22876157.57947 120215195.77347     -2295.41047        44.675    22876162.99544
  93674269.40144     -1788.63344        38.498
  22640975.47648 118979267.87348      2157.84848        45.734    22640979.97744
  92711141.59144      1681.44144        37.247
 14  3 20  0 41  0.0000000  0 11G 3G 7G 8G 9G10G13G16G19G23G27G28
  21234872.85548 111590213.04248     -1728.39848        47.666    21234876.53345
  86953472.39145     -1346.80945        40.946
  20368163.29149 107035567.53249       749.83649        49.123    20368165.04547
  83404391.80047       584.28547        44.824
  21890574.91449 115035898.85749      2184.77049        47.952    21890578.89445
  89638460.50645      1702.41445        40.901
  21722332.30648 114151739.85248      2730.71148        46.371    21722336.70845
  88949489.79545      2127.82445        39.572
  24547254.73245 128996710.85745     -2592.37545        41.105    24547263.76542
 100516955.64242     -2020.03942        34.128
  21148539.38249 111136440.23449     -2589.78149        48.760    21148541.92645
  86599945.04545     -2018.01645        40.394
  25000500.77944 131378705.00344     -3349.01644        37.906    25000506.10441
 102373098.23541     -2609.62541        32.057
  21239831.46448 111616260.14248         3.17248        47.729    21239832.01746
  86973769.95946         2.46946        42.971
  23554602.03345 123780357.01945     -3777.39145        39.365    23554606.06742
  96452260.60342     -2943.43042        32.830
  22889302.65047 120284273.63947     -2309.82447        44.991    22889307.96645
  93728096.27945     -1799.86745        39.671
  22628681.21447 118914662.07447      2149.21547        44.855    22628685.57644
  92660799.53544      1674.71544        37.736
 14  3 20  0 41 30.0000000  0 11G 3G 7G 8G 9G10G13G16G19G23G27G28
  21244794.79048 111642352.87348     -1747.66048        47.392    21244798.22745
  86994100.82945     -1361.81645        40.549
  20363910.15449 107013216.82449       740.10549        49.421    20363911.85547
  83386975.68847       576.70347        44.814
  21878112.86949 114970411.16749      2181.02749        48.334    21878116.79545
  89587431.18245      1699.50045        40.732
  21706758.91048 114069901.84548      2725.16448        46.936    21706763.36045
  88885720.00345      2123.50045        40.201
  24562071.17545 129074571.55545     -2598.01245        40.875    24562080.28443
 100577626.16443     -2024.43443        35.223
  21163366.66449 111214358.33549     -2604.95349        48.897    21163369.31345
  86660660.40645     -2029.83645        40.080
  25019615.70445 131479154.66645     -3347.60945        39.967    25019621.49141
 102451370.73441     -2608.53141        30.059
  21239875.46749 111616491.85849       -18.77049        48.048    21239875.77846
  86973950.55246       -14.62946        42.046
  23576182.26447 123893762.71147     -3782.82447        44.627    23576187.40743
  96540628.43043     -2947.66443        35.634
  22902533.08747 120353799.46047     -2324.92247        45.093    22902538.34345
  93782272.23045     -1811.62945        39.853
  22616435.94848 118850314.73148      2140.60248        45.734    22616440.45043
  92610658.87443      1668.00043        35.251
 14  3 20  0 42  0.0000000  0 11G 3G 7G 8G 9G10G13G16G19G23G27G28
  21254826.70948 111695071.61948     -1766.93848        47.245    21254830.22745
  87035180.37445     -1376.83645        40.728
  20359712.12349 106991155.51249       730.43849        49.415    20359713.70347
  83369785.07247       569.16847        44.763
  21865672.25348 114905035.58448      2177.34448        47.594    21865676.08645
  89536489.22545      1696.62945        40.630
  21691217.88848 113988232.95648      2719.59848        47.319    21691222.01345
  88822081.98045      2119.16445        39.666
  24576917.79545 129152589.60845     -2602.96945        40.365    24576926.86243
 100638419.32843     -2028.29343        35.911
  21178280.47949 111292730.77749     -2619.98449        48.911    21178283.10445
  86721729.80145     -2041.55145        40.309
  25038721.69645 131579556.01845     -3345.98445        40.316    25038726.82841
 102529605.55541     -2607.26641        31.058
  21240044.57649 111617380.57949       -40.56249        48.055    21240044.90846
  86974643.10046       -31.60946        42.731
  23597792.76847 124007322.08247     -3787.93447        45.144    23597796.98142
  96629116.11842     -2951.64542        32.683
  22915847.99047 120423770.97247     -2339.83247        44.086    22915853.67845
  93836795.44845     -1823.25045        40.852
  22604240.07747 118786225.69647      2132.04747        44.943    22604244.64244
  92560719.50744      1661.33244        37.382
 14  3 20  0 42 30.0000000  0 11G 3G 7G 8G 9G10G13G16G19G23G27G28
  21264968.40548 111748367.02048     -1786.09848        47.063    21264972.01445
  87076709.23945     -1391.77045        40.307
  20355569.41649 106969385.12749       720.82049        49.443    20355570.93747
  83352821.15847       561.67647        44.759
  21853253.06049 114839773.04849      2173.50849        48.012    21853257.11145
  89485635.37745      1693.64145        40.975
  21675709.30148 113906734.94648      2713.67648        47.402    21675713.29245
  88758577.11445      2114.55145        39.547
  24591793.55545 129230762.05745     -2608.84445        40.684    24591802.71742
 100699332.78342     -2032.86742        32.740
  21193280.40749 111371555.44449     -2635.00049        48.615    21193283.15545
  86783151.57745     -2053.25045        40.949
  25057818.05745 131679907.98645     -3344.18045        39.406    25057823.76341
 102607801.91641     -2605.85941        19.760
  21240338.73049 111618925.78349       -62.34849        47.841    21240339.17046
  86975847.17946       -48.58646        42.383
  23619430.79446 124121032.69646     -3792.42646        41.550    23619435.40543
  96717721.60743     -2955.14843        35.355
  22929247.48047 120494185.76147     -2354.46947        45.040    22929253.21245
  93891664.10345     -1834.65245        38.987
  22592093.48147 118722395.31947      2123.34047        44.867    22592097.82144
  92510981.68244      1654.55144        37.514
 14  3 20  0 43  0.0000000  0 11G 3G 7G 8G 9G10G13G16G19G23G27G28
  21275219.63248 111802237.30548     -1805.05948        47.391    21275223.22145
  87118686.08545     -1406.54345        40.280
  20351482.22049 106947906.74449       711.08649        49.243    20351483.84047
  83336084.77947       554.09047        44.825
  21840855.62049 114774624.51249      2169.81249        48.274    21840859.59145
  89434870.34345      1690.76245        40.875
  21660233.58349 113825409.48149      2707.95349        47.800    21660237.33645
  88695206.70545      2110.09045        39.126
  24606698.23545 129309085.96445     -2613.23845        41.083    24606706.58041
 100760364.18841     -2036.29741        29.704
  21208365.66449 111450830.38849     -2649.88349        48.120    21208368.81945
  86844924.20345     -2064.84845        40.426
  25076904.70144 131780209.55044     -3342.62944        38.022    25076910.52741
 102685959.03941     -2604.64841        14.426
  21240757.69949 111621127.52249       -84.37549        47.932    21240758.33346
  86977562.86046       -65.75046        42.691
  23641097.69647 124234891.67247     -3797.84847        44.011    23641102.24543
  96806442.71543     -2959.36743        35.643
  22942730.83347 120565041.50947     -2369.01647        44.261    22942736.57045
  93946876.34245     -1845.98845        40.031
  22579996.08847 118658823.75447      2114.89147        45.443    22580000.58944
  92461445.54144      1647.96944        36.715
 14  3 20  0 43 30.0000000  0 11G 3G 7G 8G 9G10G13G16G19G23G27G28
  21285579.90948 111856680.33748     -1824.16448        47.616    21285583.50445
  87161109.21945     -1421.43045        40.449
  20347450.73949 106926721.53549       701.27349        49.331    20347452.63147
  83319576.85147       546.44547        45.115
  21828480.14949 114709591.09649      2165.79349        48.087    21828484.08445
  89384195.01945      1687.62945        40.848
  21644790.85148 113744257.83048      2702.12548        47.116    21644794.65245
  88631971.71945      2105.54745        39.574
  24621631.27945 129387558.33045     -2618.34445        39.793    24621639.19041
 100821511.42841     -2040.27041        31.055
  21223536.33349 111530553.48549     -2664.79349        48.422    21223539.32945
  86907046.05745     -2076.46545        40.145
  25095981.69045 131880459.34445     -3340.75445        39.091    25095986.99641
 102764075.76841     -2603.18841        24.799
  21241301.57449 111623985.68849      -106.20349        47.995    21241302.35346
  86979790.02446       -82.75846        42.719
  23662792.51547 124348896.47447     -3802.58247        44.769    23662797.05343
  96895277.43343     -2963.05943        36.243
  22956297.45747 120636335.82147     -2383.58247        44.096    22956303.42645
  94002430.32145     -1857.34045        40.062
  22567948.11648 118595511.19048      2105.89848        45.853    22567952.69843
  92412111.19543      1640.96143        35.837
 14  3 20  0 44  0.0000000  0 11G 3G 7G 8G 9G10G13G16G19G23G27G28
  21296048.62048 111911693.82448     -1843.28948        47.146    21296052.23045
  87203976.86545     -1436.33245        40.036
  20343475.21049 106905830.43949       691.41449        49.199    20343477.28047
  83303298.10347       538.76247        45.116
  21816126.88749 114644673.99449      2161.98049        48.010    21816130.67745
  89333610.31745      1684.65645        40.526
  21629381.49748 113663281.86248      2696.30948        46.977    21629385.43245
  88568873.64845      2101.01645        39.622
  24636592.04245 129466175.99345     -2623.05545        41.024    24636600.08242
 100882771.76742     -2043.94542        32.329
  21238792.05849 111610722.64849     -2679.75849        48.759    21238795.21445
  86969515.48845     -2088.12545        40.161
  25115048.77145 131980656.39045     -3339.17645        40.144    25115053.80141
 102842151.49541     -2601.95741        30.350
  21241970.49349 111627500.62749      -128.13349        48.317    21241971.45246
  86982528.96646       -99.84846        42.848
  23684514.78846 124463045.01646     -3807.20746        43.272    23684519.12742
  96984224.22142     -2966.65642        33.579
  22969947.40547 120708066.33747     -2398.21147        44.696    22969953.33445
  94058324.21045     -1868.73845        39.463
  22555949.26447 118532457.78447      2097.50847        45.241    22555954.01744
  92362978.81644      1634.42244        37.696
 14  3 20  0 44 30.0000000  0 11G 3G 7G 8G 9G10G13G16G19G23G27G28
  21306625.50248 111967275.70748     -1862.16848        47.347    21306629.06845
  87247287.42345     -1451.04345        40.231
  20339556.01149 106885234.78749       681.68849        49.278    20339557.95747
  83287249.56047       531.18447        45.079
  21803795.83549 114579874.01749      2158.10949        48.049    21803799.63445
  89283116.89445      1681.64145        40.699
  21614006.01848 113582483.26148      2690.25848        47.050    21614010.15345
  88505913.78245      2096.30145        40.188
  24651579.74645 129544935.96045     -2627.43445        40.582    24651587.97541
 100944143.01841     -2047.35541        31.095
  21254132.24349 111691335.45149     -2694.47349        48.638    21254135.50445
  87032330.60345     -2099.59445        40.321
  25134105.43544 132080799.35044     -3336.82844        38.663    25134110.66942
 102920184.98442     -2600.12942        33.543
  21242764.24449 111631671.73749      -149.94949        47.998    21242765.55746
  86985779.20746      -116.84846        43.148
  23706262.83547 124577334.53747     -3812.07447        43.668    23706267.42242
  97073280.76942     -2970.45342        33.580
  22983679.75347 120780230.69547     -2412.75047        44.215    22983685.66844
  94114556.15944     -1880.06644        38.526
  22543999.83747 118469663.53447      2088.85947        45.133    22544004.46043
  92314048.35943      1627.68443        35.564
 14  3 20  0 45  0.0000000  0 11G 3G 7G 8G 9G10G13G16G19G23G27G28
  21317310.16548 112023423.60048     -1880.96148        47.405    21317313.60045
  87291039.01245     -1465.68845        40.058
  20335693.30949 106864935.79849       671.57049        49.406    20335695.08747
  83271432.18547       523.29747        44.978
  21791487.37249 114515192.56649      2154.11349        47.932    21791491.14645
  89232715.83645      1678.52745        40.964
  21598664.53148 113501863.59248      2684.18448        47.126    21598668.57245
  88443093.35045      2091.57445        40.401
  24666593.67744 129623835.30044     -2632.19944        37.721    24666602.08641
 101005622.91341     -2051.07041        31.249
  21269556.46649 111772389.94549     -2709.18049        48.599    21269559.69245
  87095489.89645     -2111.05145        39.908
  25153151.65245 132180887.30945     -3335.44945        38.896    25153156.10141
 102998175.66341     -2599.05141        27.066
  21243682.70849 111636499.08449      -171.78949        47.832    21243684.09646
  86989540.80946      -133.86346        43.259
  23728037.87146 124691761.81046     -3816.58246        42.640    23728042.75742
  97162444.67342     -2973.97342        34.141
  22997494.10847 120852826.47647     -2426.95347        44.116    22997500.27745
  94171124.23745     -1891.13745        39.736
  22532099.73748 118407128.47148      2080.16848        45.875    22532104.33843
  92265319.87343      1620.91043        36.226
 14  3 20  0 45 30.0000000  0 11G 3G 7G 8G 9G10G13G16G19G23G27G28
  21328102.27249 112080135.28149     -1899.78149        47.855    21328105.30545
  87335229.94145     -1480.35245        39.421
  20331887.23449 106844934.69049       661.74249        49.280    20331888.99447
  83255846.92547       515.64147        45.249
  21779201.52349 114450630.63349      2149.98849        48.246    21779205.33045
  89182407.91445      1675.31245        40.846
  21583357.58748 113421424.59948      2678.17248        47.414    21583361.35145
  88380413.69545      2086.88745        39.437
  24681633.93842 129702870.83142     -2636.80942        33.747    24681648.14041
 101067239.89741     -2054.66041        24.654
  21285064.46849 111853884.07349     -2723.74249        48.830    21285067.48445
  87158991.75345     -2122.39845        40.003
  25172187.01044 132280919.01844     -3334.60244        38.638    25172191.65041
 103076122.53541     -2598.39141        30.154
  21244726.06649 111641982.63949      -193.73449        48.222    21244727.15546
  86993813.72846      -150.96546        42.633
  23749838.47546 124806324.96846     -3821.00446        43.078    23749842.93341
  97251714.51741     -2977.41441        31.846
  23011390.53547 120925851.25647     -2441.39847        44.209    23011396.62745
  94228026.63445     -1902.39145        39.542
  22520249.17447 118344852.93647      2071.35247        45.268    22520253.67344
  92216793.59544      1614.03544        37.322
 14  3 20  0 46  0.0000000  0 10G 3G 7G 8G 9G13G16G19G23G27G28
  21339001.28449 112137408.89549     -1918.41049        47.860    21339004.29245
  87379858.72445     -1494.86745        40.418
  20328138.00149 106825232.51749       651.76649        49.170    20328139.90748
  83240494.61148       507.86748        45.620
  21766938.68049 114386189.29149      2146.01249        48.671    21766942.46145
  89132193.94645      1672.21545        40.826
  21568085.26348 113341167.68048      2672.06648        47.439    21568088.93145
  88317875.89945      2082.12545        39.664
  21300655.71649 111935815.46049     -2738.43449        48.650    21300658.70645
  87222834.35645     -2133.84845        39.928
  25191210.82144 132380701.41844     -3331.23444        37.722    25191215.47341
 103153839.68741     -2595.76641        32.032
  21245894.28249 111648122.10749      -215.50449        47.783    21245895.35247
  86998597.75547      -167.93047        43.544
  23771664.11246 124921021.30746     -3825.47346        42.699    23771668.86842
  97341088.04642     -2980.89842        33.783
  23025367.87847 120999302.63347     -2455.35547        44.924    23025373.83744
  94285261.45344     -1913.26644        38.691
  22508447.85148 118282836.75448      2062.83248        46.018    22508452.15243
  92168469.45143      1607.40243        36.574
 14  3 20  0 46 30.0000000  0 10G 3G 7G 8G 9G13G16G19G23G27G28
  21350006.61748 112195242.30848     -1937.12148        47.688    21350009.76645
  87424923.71545     -1509.44945        40.124
  20324445.86549 106805830.51749       641.75049        49.257    20324447.84148
  83225376.18548       500.06248        45.672
  21754699.27349 114321869.79849      2141.82449        48.678    21754702.61745
  89082074.91745      1668.94945        40.323
  21552847.78148 113261094.52948      2665.94148        47.373    21552851.44344
  88255481.32444      2077.35544        38.702
  21316329.49549 112018182.12549     -2752.79349        48.283    21316332.76145
  87287016.12145     -2145.03545        40.134
  25210224.72344 132480617.54244     -3329.31244        37.876    25210229.47042
 103231696.53442     -2594.27342        32.518
  21247187.25449 111654917.18849      -237.39549        47.782    21247188.46146
  87003892.65346      -184.98446        43.167
  23793515.56847 125035847.94547     -3829.80947        43.713    23793519.93241
  97430563.23141     -2984.27041        31.579
  23039426.22647 121073178.21547     -2469.61347        44.369    23039432.17245
  94342826.81745     -1924.37945        39.566
  22496695.69847 118221079.97147      2054.38347        45.479    22496699.91443
  92120347.40243      1600.81643        36.561
 14  3 20  0 47  0.0000000  0 10G 3G 7G 8G 9G13G16G19G23G27G28
  21361118.02248 112253633.24348     -1955.66448        47.583    21361121.18745
  87470423.13845     -1523.89845        39.820
  20320811.13149 106786730.16349       631.67249        49.253    20320813.03547
  83210492.81747       492.20747        45.440
  21742483.32049 114257673.25049      2137.84049        48.790    21742486.23845
  89032051.68245      1665.84845        40.171
  21537645.44348 113181206.69648      2659.79348        47.362    21537649.02345
  88193231.14645      2072.56245        39.561
  21332085.60349 112100981.77049     -2767.18849        48.029    21332089.06145
  87351535.26945     -2156.25445        39.983
  25229225.83345 132580474.19545     -3327.13345        40.378    25229231.58742
 103309506.92242     -2592.57442        32.229
  21248604.99849 111662367.78049      -259.25449        48.034    21248606.19246
  87009698.33646      -202.02046        42.895
  23815390.79346 125150802.59246     -3833.87146        42.087    23815395.84643
  97520138.05943     -2987.44143        36.003
  23053564.46947 121147475.55647     -2483.69947        44.231    23053570.68344
  94400720.83044     -1935.35244        38.714
  22484993.25848 118159582.98848      2045.55548        46.375    22484997.21744
  92072427.79444      1593.93844        36.800
 14  3 20  0 47 30.0000000  0  9G 3G 7G 8G 9G13G19G23G27G28
  21372334.78148 112312578.97548     -1973.96148        47.264    21372338.30845
  87516354.86845     -1538.15645        39.685
  20317233.87949 106767931.93049       621.59449        49.224    20317235.74947
  83195844.86447       484.35547        44.911
  21730290.67549 114193600.79749      2133.69149        48.325    21730293.71545
  88982125.15145      1662.61345        40.720
  21522478.73148 113101506.14548      2653.59448        47.337    21522482.19145
  88131126.89545      2067.73045        39.322
  21347923.98949 112184212.29449     -2781.39549        48.352    21347927.36645
  87416390.16745     -2167.32445        39.671
  21250147.41749 111670473.29749      -281.00449        48.250    21250148.29746
  87016014.35246      -218.96946        42.723
  23837290.18547 125265882.89847     -3838.02047        43.345    23837295.06942
  97609810.81442     -2990.67242        32.596
  23067782.36647 121222192.21847     -2497.44547        43.875    23067788.74344
  94458941.56844     -1946.06644        38.742
  22473340.23148 118098345.48348      2036.96148        46.525    22473344.00343
  92024710.40443      1587.24243        35.789
 14  3 20  0 48  0.0000000  0 10G 3G 7G 8G 9G13G16G19G23G27G28
  21383656.79748 112372076.96648     -1992.53948        47.554    21383660.30045
  87562716.91845     -1552.63345        39.718
  20313714.45249 106749437.59849       611.40649        49.292    20313716.44347
  83181433.71647       476.41847        45.151
  21718121.58949 114129653.49349      2129.48849        48.276    21718124.96446
  88932296.15246      1659.34046        41.124
  21507347.93848 113021994.36748      2647.30948        47.406    21507351.52345
  88069169.75045      2062.83645        40.204
  21363844.03649 112267871.39049     -2795.83249        48.630    21363847.18945
  87481579.03345     -2178.57445        39.210
  25267196.57745 132780011.07445     -3323.62945        40.271    25267201.84342
 103464983.71942     -2589.84442        32.500
  21251814.43549 111679233.46749      -302.98049        48.113    21251815.04646
  87022840.49446      -236.09446        42.443
  23859212.83547 125381085.94447     -3842.14147        43.573    23859217.43841
  97699579.26441     -2993.88341        31.470
  23082079.92447 121297325.74647     -2511.25447        44.356    23082086.36445
  94517487.13045     -1956.82445        39.788
  22461736.34148 118037367.59848      2028.15648        45.817    22461739.82443
  91977195.29943      1580.38343        35.898
 14  3 20  0 48 30.0000000  0 10G 3G 7G 8G 9G13G16G19G23G27G28
  21395083.67448 112432125.56748     -2010.69548        47.263    21395087.15545
  87609508.04045     -1566.77745        40.154
  20310253.06949 106731248.10149       601.31649        49.146    20310255.22247
  83167260.10047       468.55547        45.146
  21705976.65549 114065832.61449      2125.32849        48.474    21705980.40745
  88882565.66445      1656.09845        40.823
  21492253.71048 112942673.07148      2640.82848        47.641    21492257.37845
  88007361.02645      2057.78545        40.562
  21379844.82449 112351956.89249     -2809.88349        48.292    21379848.14945
  87547100.14645     -2189.52345        39.940
  25286160.83543 132879660.21143     -3321.52043        35.201    25286172.87241
 103542636.40241     -2588.18841        30.702
  21253606.03449 111688647.79749      -324.62949        48.046    21253606.59946
  87030176.36546      -252.96146        43.201
  23881158.28646 125496409.16346     -3846.07846        43.077    23881163.08441
  97789441.31541     -2996.94941        31.574
  23096456.44347 121372873.69447     -2525.14847        44.170    23096462.53144
  94576355.63644     -1967.65244        38.300
  22450181.84348 117976649.43848      2019.70348        45.960    22450185.37044
  91929882.55844      1573.79344        36.740
 14  3 20  0 49  0.0000000  0 10G 3G 7G 8G 9G13G16G19G23G27G28
  21406614.87948 112492722.51048     -2029.09848        47.254    21406618.46745
  87656726.41745     -1581.11745        40.170
  20306849.83149 106713364.72549       590.96949        49.004    20306852.25847
  83153325.02147       460.49247        45.492
  21693856.16249 114002139.30049      2120.84049        48.609    21693859.86845
  88832934.56345      1652.59845        40.637
  21477195.95148 112863543.94348      2634.32048        47.195    21477199.66345
  87945702.05345      2052.71545        40.416
  21395926.59349 112436466.24649     -2824.02349        48.617    21395929.74245
  87612951.53445     -2200.53945        39.834
  25305118.88645 132979268.46645     -3319.31245        40.172    25305123.22041
 103620253.33641     -2586.39841        24.376
  21255522.05349 111698716.03749      -346.35249        47.983    21255522.51346
  87038021.77246      -269.88746        43.277
  23903125.83246 125611850.00546     -3849.95346        42.266    23903130.81843
  97879395.00943     -2999.97343        34.481
  23110911.32347 121448833.60647     -2538.77347        44.652    23110917.09645
  94635545.15245     -1978.27045        39.433
  22438676.84748 117916191.15948      2010.75848        45.831    22438680.64143
  91882772.35543      1566.82443        36.657
 14  3 20  0 49 30.0000000  0  9G 3G 7G 8G 9G13G19G23G27G28
  21418249.98248 112553865.18448     -2047.27348        47.262    21418253.53345
  87704370.05145     -1595.28145        40.141
  20303505.04449 106695788.59549       580.74249        49.108    20303507.68547
  83139629.36447       452.52347        45.315
  21681760.27049 113938574.80949      2116.71949        48.796    21681763.88945
  88783403.84645      1649.38745        40.634
  21462175.01448 112784608.73648      2628.02048        47.161    21462178.67545
  87884194.17745      2047.80545        40.379
  21412088.72949 112521397.45349     -2838.09049        48.394    21412091.71945
  87679131.65045     -2211.50045        39.842
  21257562.31549 111709438.12049      -368.33249        48.072    21257562.90346
  87046376.66946      -287.01646        43.064
  23925115.55146 125727406.11846     -3853.67646        42.292    23925120.52442
  97969438.52542     -3002.87542        34.211
  23125444.02947 121525202.96347     -2552.55147        43.981    23125449.42844
  94695053.73544     -1989.00444        38.299
  22427221.20148 117855992.64748      2002.29748        45.944    22427225.44144
  91835864.59444      1560.23044        37.696
 14  3 20  0 50  0.0000000  0 10G 3G 7G 8G 9G13G16G19G23G27G28
  21429988.48348 112615550.95748     -2065.23048        47.339    21429992.02745
  87752436.87945     -1609.27345        40.642
  20300219.05949 106678520.82149       570.32449        49.048    20300221.76148
  83126173.98348       444.40648        45.593
  21669689.06249 113875140.28349      2112.26649        48.560    21669692.58445
  88733974.39045      1645.91845        40.785
  21447191.05648 112705869.06648      2621.44148        46.706    21447194.94045
  87822838.67945      2042.68045        40.379
  21428330.41749 112606748.27549     -2852.05149        48.074    21428333.49045
  87745638.73745     -2222.37945        39.028
  25342990.57345 133178292.38645     -3314.89845        40.931    25342994.98641
 103775338.44241     -2583.02741        32.033
  21259726.84648 111720813.56848      -390.07048        47.762    21259727.60546
  87055240.67846      -303.95346        42.996
  23947126.81746 125843074.72746     -3857.34046        42.701    23947132.09042
  98059569.71342     -3005.73042        33.723
  23140053.81047 121601979.31347     -2566.12947        43.835    23140059.28245
  94754879.44545     -1999.58645        39.574
  22415815.13448 117796054.09548      1993.50448        46.017    22415819.04043
  91789159.33543      1553.37543        36.345
 14  3 20  0 50 30.0000000  0 10G 3G 7G 8G 9G13G16G19G23G27G28
  21441829.90748 112677778.12248     -2083.32448        47.130    21441833.57945
  87800925.57145     -1623.37145        39.720
  20296992.09449 106661562.76549       560.19549        49.117    20296994.75748
  83112959.94448       436.51248        45.893
  21657642.60049 113811837.09049      2107.82849        48.440    21657646.17145
  88684647.28545      1642.46145        40.423
  21432244.61248 112627326.70448      2614.79748        47.374    21432248.79745
  87761636.92745      2037.50045        39.900
  21444651.37949 112692516.40449     -2865.94949        48.393    21444654.64345
  87812470.96545     -2233.21145        39.716
  25361908.33243 133277703.67043     -3312.51643        36.577    25361912.48443
 103852802.03543     -2581.18043        35.652
  21262015.59849 111732841.63349      -411.87149        48.010    21262016.46246
  87064613.22546      -320.94146        43.077
  23969158.73846 125958853.24446     -3861.13746        42.473    23969164.60342
  98149786.53742     -3008.68442        32.953
  23154740.84947 121679160.14847     -2579.32847        43.921    23154746.50144
  94815020.33644     -2009.87144        38.392
  22404458.50848 117736375.24648      1984.93048        46.082    22404462.11144
  91742656.44944      1546.69544        37.192
 14  3 20  0 51  0.0000000  0 10G 3G 7G 8G 9G13G16G19G23G27G28
  21453773.76848 112740543.98648     -2101.13348        46.804    21453777.49745
  87849834.01945     -1637.25045        40.444
  20293824.27849 106644915.53249       549.70749        49.176    20293826.86748
  83099988.10548       428.34048        45.729
  21645621.57549 113748666.23549      2103.59049        48.776    21645624.98946
  88635423.29946      1639.15646        41.182
  21417336.29848 112548983.31048      2608.10248        47.456    21417340.53945
  87700590.21145      2032.28545        39.829
  21461051.79949 112778699.66849     -2879.72349        48.757    21461054.44045
  87879626.71645     -2243.94145        39.259
  25380811.41245 133377047.66745     -3310.59045        39.540    25380816.95943
 103930212.87443     -2579.68043        35.567
  21264428.61949 111745521.98149      -433.55949        47.895    21264429.47246
  87074494.05046      -337.84046        42.697
  23991211.30847 126074739.09347     -3864.55147        43.360    23991217.10543
  98240086.98543     -3011.34443        34.791
  23169504.35647 121756742.98747     -2592.79747        43.347    23169510.41845
  94875474.46745     -2020.36345        39.660
  22393151.40247 117676956.32247      1976.41447        45.346    22393154.87744
  91696356.10244      1540.06244        37.881
 14  3 20  0 51 30.0000000  0 10G 3G 7G 8G 9G13G16G19G23G27G28
  21465819.69948 112803846.33748     -2119.02048        46.911    21465823.30445
  87899160.51345     -1651.18845        39.681
  20290715.82549 106628580.26549       539.26249        49.301    20290718.32448
  83087259.35548       420.19948        45.853
  21633626.13149 113685628.79749      2098.93049        48.666    21633629.44546
  88586303.27346      1635.52746        41.561
  21402466.26748 112470840.50048      2601.43848        47.653    21402470.03345
  87639699.77545      2027.09045        40.077
  21477530.80849 112865295.39949     -2893.42249        48.325    21477532.96145
  87947103.86045     -2254.61745        40.125
  25399703.24345 133476322.79645     -3307.87945        38.980    25399708.61541
 104007570.27541     -2577.56641        30.345
  21266965.70149 111758854.10749      -455.30549        48.061    21266966.48346
  87084882.74646      -354.78546        42.866
  24013283.92546 126190729.68546     -3867.94146        42.057    24013289.65242
  98330469.08642     -3013.98842        33.800
  23184344.09847 121834725.31047     -2606.13747        43.953    23184350.09244
  94936239.88644     -2030.75844        37.924
  22381893.74348 117617797.50148      1967.57848        46.068    22381897.14744
  91650258.44944      1533.17644        36.681
 14  3 20  0 52  0.0000000  0 10G 3G 7G 8G 9G13G16G19G23G27G28
  21477967.44848 112867682.32748     -2136.72748        47.259    21477970.87645
  87948902.83945     -1664.98445        39.987
  20287666.95749 106612558.06649       528.91049        49.286    20287669.36647
  83074774.55747       412.13347        45.381
  21621656.27649 113622726.09849      2094.48049        48.842    21621659.46045
  88537288.23445      1632.07045        40.817
  21387634.90748 112392900.17348      2594.80148        47.544    21387638.27945
  87578967.13045      2021.91845        40.390
  21494087.57649 112952301.50449     -2907.03949        48.257    21494089.80345
  88014900.76445     -2265.22745        39.346
  25418580.74943 133575528.50643     -3305.37543        34.630    25418586.25042
 104084873.49642     -2575.62142        34.021
  21269626.69549 111772837.32549      -476.94549        48.269    21269627.41646
  87095778.79346      -371.64846        42.100
  24035375.31645 126306822.42445     -3871.61745        40.310    24035381.00543
  98420930.70243     -3016.85543        34.851
  23199259.12147 121913104.62447     -2619.27347        43.633    23199265.12445
  94997314.65345     -2040.99645        39.184
  22370685.79048 117558898.99248      1959.05548        46.545    22370688.93543
  91604363.63843      1526.53543        36.417
 14  3 20  0 52 30.0000000  0 10G 3G 7G 8G 9G11G13G19G23G27G28
  21490216.24248 112932049.84848     -2154.31248        46.894    21490219.64145
  87999059.34545     -1678.68845        39.410
  20284677.93449 106596850.50949       518.31249        49.442    20284680.15948
  83062534.93348       403.87548        45.822
  21609712.15449 113559959.48449      2089.93449        48.479    21609715.30946
  88488379.22246      1628.51646        41.259
  21372842.29649 112315163.96649      2587.75049        47.805    21372845.67245
  87518393.53545      2016.42645        40.254
  23890245.72646 125544094.36246      2837.32046        41.949    23890251.52443
  97826577.22543      2210.89843        35.256
  21510721.94449 113039715.68149     -2920.55949        47.984    21510724.34745
  88083015.65345     -2275.76245        38.957
  21272411.36849 111787471.08049      -498.60949        47.845    21272412.01246
  87107181.74846      -388.53146        42.482
  24057486.03046 126423014.80346     -3874.83646        43.238    24057491.45641
  98511470.02441     -3019.35941        30.783
  23214249.29146 121991878.38346     -2632.29346        43.026    23214255.41745
  95058696.79545     -2051.14145        40.268
  22359527.21348 117500259.83448      1950.27348        46.588    22359530.07743
  91558670.90243      1519.69543        35.755
 14  3 20  0 53  0.0000000  0 10G 3G 7G 8G 9G11G13G19G23G27G28
  21502565.58448 112996946.50948     -2171.99648        47.114    21502569.08645
  88049628.14245     -1692.46945        39.687
  20281748.88049 106581458.20149       507.78149        49.317    20281750.95148
  83050540.95048       395.67248        45.880
  21597793.92749 113497330.09949      2085.34449        48.649    21597797.37446
  88439577.17146      1624.94146        41.510
  21358088.74748 112237633.63748      2580.82848        47.529    21358092.22845
  87457980.36345      2011.03145        40.137
  23874061.14946 125459043.26246      2832.70346        41.423    23874067.88142
  97760303.88042      2207.30542        33.102
  21527433.50149 113127535.63949     -2934.13349        48.655    21527436.25545
  88151446.72945     -2286.34045        39.210
  21275319.65048 111802754.75648      -520.27048        47.544    21275320.21846
  87119091.13946      -405.40646        42.471
  24079615.69946 126539304.29946     -3878.28546        42.851    24079620.37041
  98602085.06241     -3022.04741        31.017
  23229313.75447 122071044.10347     -2645.44147        43.353    23229320.16344
  95120384.33344     -2061.38744        38.307
  22348417.93648 117441880.43548      1941.60248        46.349    22348420.74143
  91513180.56943      1512.93443        35.673
 14  3 20  0 53 30.0000000  0 10G 3G 7G 8G 9G11G13G19G23G27G28
  21515015.30848 113062369.54848     -2189.53948        47.223    21515018.65645
  88100607.12045     -1706.13745        39.389
  20278880.04049 106566382.42449       497.19149        49.424    20278882.02548
  83038793.62648       387.41848        45.768
  21585902.20849 113434839.15549      2080.52349        48.706    21585905.71246
  88390882.97746      1621.18446        41.554
  21343374.66149 112160311.03349      2573.77749        47.791    21343377.94245
  87397729.06045      2005.53945        39.840
  23857905.51046 125374146.26846      2827.36746        41.584    23857912.04542
  97694150.62842      2203.14542        34.001
  21544221.91749 113215758.99249     -2947.60949        48.282    21544224.62445
  88220192.14545     -2296.84045        39.052
  21278351.39949 111818687.18549      -541.98049        47.882    21278351.89646
  87131506.05446      -422.32446        42.330
  24101763.03446 126655688.28346     -3881.17646        42.197    24101768.33642
  98692773.64342     -3024.30142        33.320
  23244452.24746 122150599.21346     -2658.10246        42.426    23244458.69844
  95182375.31044     -2071.25044        38.108
  22337358.09648 117383760.81248      1932.85948        46.183    22337360.92344
  91467892.67044      1506.12144        37.388
 14  3 20  0 54  0.0000000  0 10G 3G 7G 8G 9G11G13G19G23G27G28
  21527564.74448 113128316.60448     -2206.98048        47.110    21527568.13745
  88151994.42145     -1719.72745        39.671
  20276071.72749 106551624.73249       486.58649        49.363    20276073.69748
  83027294.15248       379.15648        45.567
  21574037.13749 113372487.98149      2076.02749        48.588    21574040.64546
  88342297.69746      1617.68046        41.532
  21328700.30548 112083197.88748      2566.94948        47.589    21328703.73745
  87337640.96645      2000.21945        39.959
  23841780.61646 125289406.67646      2822.03146        43.218    23841786.08541
  97628119.94541      2198.98441        32.086
  21561086.24049 113304383.15949     -2960.78549        48.160    21561089.38144
  88289249.88444     -2307.10944        38.277
  21281506.67249 111835268.58249      -563.59049        48.008    21281507.19246
  87144426.65046      -439.16446        42.887
  24123927.84846 126772164.30846     -3883.85946        42.733    24123933.32841
  98783533.97541     -3026.39141        31.852
  23259664.74747 122230541.18647     -2670.88747        43.512    23259671.28644
  95244667.74444     -2081.21544        37.621
  22326347.62248 117325900.67948      1924.27748        46.039    22326350.50644
  91422806.96944      1499.43844        38.391
 14  3 20  0 54 30.0000000  0 10G 3G 7G 8G 9G11G13G19G23G27G28
  21540213.32748 113194785.32648     -2224.33248        46.954    21540216.67245
  88203788.23245     -1733.25045        39.284
  20273324.06749 106537186.06449       475.93449        49.226    20273326.10547
  83016043.27847       370.85547        45.467
  21562198.90449 113310277.64849      2071.32049        48.640    21562202.40446
  88293822.17746      1614.01246        41.645
  21314066.22648 112006296.01848      2560.00048        47.537    21314069.72945
  87277717.50445      1994.80145        39.749
  23825685.80046 125204827.29446      2816.84046        42.935    23825690.55842
  97562214.12942      2194.94142        32.832
  21578026.53749 113393406.19249     -2974.04349        48.226    21578030.12645
  88358618.41745     -2317.43845        39.266
  21284785.21049 111852497.87349      -585.14149        47.845    21284785.92346
  87157852.09746      -455.95746        42.617
  24146109.50545 126888729.63845     -3887.15645        41.014    24146115.29142
  98874363.88642     -3028.96542        34.009
  23274950.54746 122310867.45546     -2683.83646        43.198    23274956.94645
  95307259.61345     -2091.30545        39.030
  22315386.44748 117268300.28548      1915.58648        46.375    22315389.51544
  91377923.64844      1492.66044        37.014
 14  3 20  0 55  0.0000000  0 10G 3G 7G 8G 9G11G13G19G23G27G28
  21552960.64748 113261773.32248     -2241.46948        47.279    21552963.99545
  88255986.64045     -1746.60245        39.305
  20270637.36549 106523067.42449       465.25449        49.343    20270639.42248
  83005041.76348       362.53148        45.649
  21550387.71549 113248209.56149      2066.55549        48.391    21550391.09146
  88245457.48546      1610.27746        41.806
  21299472.64748 111929607.02148      2552.79748        47.647    21299476.33745
  87217959.92945      1989.18845        40.760
  23809621.93346 125120411.39946      2811.10246        42.666    23809625.94342
  97496435.68342      2190.46942        32.785
  21595042.48249 113482825.06849     -2987.34049        47.955    21595046.08944
  88428295.41344     -2327.80144        38.808
  21288186.94849 111870374.11149      -606.79749        48.029    21288187.73146
  87171781.65246      -472.83246        42.453
  24168307.87046 127005381.84846     -3889.87146        42.230    24168313.85141
  98965261.51041     -3031.07441        31.876
  23290308.82046 122391575.52846     -2696.52046        43.324    23290315.44444
  95370148.99144     -2101.18844        37.889
  22304474.86048 117210959.54048      1906.99248        46.769    22304477.74843
  91333242.64143      1485.96543        35.937
 14  3 20  0 55 30.0000000  0 10G 3G 7G 8G 9G11G13G19G23G27G28
  21565806.41748 113329278.05748     -2258.73848        47.154    21565809.58345
  88308587.72145     -1760.05945        38.922
  20268011.87549 106509270.28149       454.50449        49.414    20268013.97247
  82994290.76247       354.15647        45.308
  21538603.81349 113186285.15149      2061.66449        48.795    21538607.17146
  88197204.75846      1606.48846        41.190
  21284919.90949 111853132.72549      2545.44949        48.037    21284923.60945
  87158369.64245      1983.46545        40.358
  23793589.35046 125036162.26046      2805.37546        42.627    23793593.51641
  97430787.21641      2186.00841        31.931
  21612133.26349 113572637.70749     -3000.39549        48.023    21612137.19045
  88498279.22145     -2337.97345        40.081
  21291711.72349 111888896.79349      -628.24649        47.946    21291712.24546
  87186214.93846      -489.54746        42.307
  24190522.22446 127122118.32546     -3892.34846        42.056    24190528.18043
  99056224.82443     -3033.00043        34.656
  23305739.31147 122472662.79347     -2709.19947        43.352    23305745.73244
  95433333.84244     -2111.06644        38.709
  22293612.87248 117153878.41548      1898.30948        46.870    22293615.41944
  91288763.92744      1479.19944        37.267
 14  3 20  0 56  0.0000000  0 10G 3G 7G 8G 9G11G13G19G23G27G28
  21578750.01648 113397296.73048     -2275.88748        47.154    21578753.07144
  88361589.27944     -1773.42244        38.639
  20265447.76349 106495795.61449       443.76249        49.358    20265449.81147
  82983791.03847       345.78547        45.449
  21526847.58549 113124505.47449      2056.87549        48.775    21526850.69846
  88149064.80246      1602.75846        41.142
  21270408.56548 111776874.96348      2538.22348        47.438    21270411.88645
  87098948.07445      1977.83245        40.875
  23777589.16346 124952082.73246      2799.81246        42.001    23777593.71542
  97365270.89842      2181.67642        32.261
  21629298.45048 113662841.97448     -3013.28548        47.745    21629302.50944
  88568568.19944     -2348.02044        38.848
  21295359.40749 111908065.10149      -649.68049        48.092    21295359.58346
  87201151.31746      -506.24646        42.587
  24212752.13746 127238936.39746     -3895.24246        41.769    24212758.70542
  99147251.64342     -3035.26242        32.538
  23321241.56246 122554126.71346     -2721.76646        43.093    23321247.95945
  95496812.18745     -2120.85945        40.325
  22282800.00948 117097056.69548      1889.59448        46.767    22282802.55944
  91244487.35744      1472.40644        37.588
 14  3 20  0 56 30.0000000  0 10G 3G 7G 8G 9G11G13G19G23G27G28
  21591790.70248 113465827.02048     -2292.71148        46.879    21591793.95945
  88414989.48045     -1786.53145        39.402
  20262945.24149 106482645.09349       432.91049        49.157    20262947.35948
  82973543.89648       337.32848        45.741
  21515119.10249 113062871.83949      2052.09849        48.836    21515122.07646
  88101038.64446      1599.03546        41.176
  21255938.75249 111700835.38649      2531.07849        47.818    21255942.03145
  87039696.52245      1972.26645        40.882
  23761621.95346 124868176.28946      2793.99646        42.424    23761626.90443
  97299889.46743      2177.14543        36.018
  21646537.80049 113753435.08349     -3026.19949        48.360    21646541.49244
  88639160.17744     -2358.08244        38.517
  21299129.78549 111927878.13949      -671.25049        47.829    21299129.64946
  87216590.08346      -523.05546        42.368
  24234997.36346 127355833.59946     -3897.67246        42.273    24235003.80843
  99238340.14643     -3037.15243        34.825
  23336814.97847 122635964.68947     -2734.06247        43.404    23336821.02044
  95560582.01144     -2130.44144        38.686
  22272036.43848 117040494.54348      1881.13348        46.586    22272038.95544
  91200413.03744      1465.81644        37.395
 14  3 20  0 57  0.0000000  0 10G 3G 7G 8G 9G11G13G19G23G27G28
  21604928.44048 113534866.39948     -2309.79748        46.729    21604931.72745
  88468786.38745     -1799.84445        39.210
  20260504.50149 106469819.46749       422.13349        49.281    20260506.79748
  82963549.92448       328.93048        45.941
  21503418.48049 113001385.72849      2047.19149        48.566    21503421.73546
  88053127.44646      1595.21146        41.227
  21241510.75749 111625015.88249      2523.69149        47.821    21241514.11945
  86980616.44945      1966.50845        39.967
  23745688.55746 124784445.91946      2787.87146        42.290    23745693.84443
  97234645.21143      2172.36743        34.665
  21663851.05149 113844414.89249     -3039.00449        48.121    21663854.30444
  88710053.50144     -2368.05944        38.889
  21303022.62449 111948335.26649      -692.56249        47.825    21303022.30546
  87232530.73446      -539.66446        41.745
  24257256.94446 127472807.21246     -3900.55946        42.844    24257263.12841
  99329488.23341     -3039.40241        30.441
  23352459.11046 122718174.13646     -2746.51646        43.279    23352464.90544
  95624641.31944     -2140.14544        38.363
  22261322.29948 116984191.75048      1872.38748        46.566    22261324.62344
  91156540.80444      1459.00044        37.652
 14  3 20  0 57 30.0000000  0 10G 3G 7G 8G 9G11G13G19G23G27G28
  21618162.62448 113604412.42348     -2326.72348        46.768    21618165.80945
  88522978.08345     -1813.03545        40.008
  20258125.80649 106457319.68349       411.20749        49.211    20258128.24148
  82953809.85348       320.41848        45.851
  21491746.18449 112940048.31849      2042.04349        48.854    21491749.74446
  88005332.13246      1591.27746        41.677
  21227124.88949 111549418.33349      2516.18049        47.818    21227128.37246
  86921709.34346      1960.65646        41.531
  23729788.94646 124700894.65446      2782.16446        42.221    23729794.07442
  97169540.50942      2167.92242        33.933
  21681237.21449 113935778.58649     -3051.77349        47.999    21681240.34144
  88781245.94544     -2378.00844        38.619
  21307037.68948 111969435.46048      -714.16448        47.293    21307037.61346
  87248972.46546      -556.49646        42.998
  24279530.34846 127589854.92746     -3903.07446        42.400    24279536.74143
  99420694.05443     -3041.36343        34.638
  23368173.27647 122800752.54047     -2758.67647        43.519    23368178.98844
  95688988.10344     -2149.62144        37.085
  22250657.27448 116928148.08248      1863.75048        46.290    22250659.87544
  91112870.52444      1452.27344        36.956
 14  3 20  0 58  0.0000000  0 10G 3G 7G 8G 9G11G13G19G23G27G28
  21631492.65248 113674462.34048     -2343.32848        46.655    21631495.87445
  88577562.41045     -1825.97345        39.024
  20255809.39849 106445147.12049       400.27349        49.270    20255811.87048
  82944324.76648       311.89848        45.955
  21480102.73749 112878860.89749      2037.03549        48.884    21480106.15646
  87957653.67146      1587.28146        41.652
  21212781.64249 111474044.49949      2508.70749        48.038    21212785.39345
  86862976.55345      1954.83245        40.682
  23713923.61046 124617525.84146      2775.91046        42.383    23713929.09342
  97104578.00442      2163.04742        33.718
  21698695.45848 114027524.01948     -3064.53148        47.590    21698698.67644
  88852735.81944     -2387.94944        38.069
  21311174.84448 111991177.77148      -735.38348        47.131    21311175.08446
  87265914.54446      -573.02746        43.073
  24301817.55446 127706974.00646     -3905.20346        41.792    24301824.07541
  99511955.45641     -3043.02341        31.560
  23383956.96846 122883697.30746     -2770.93446        42.852    23383962.74744
  95753620.35744     -2159.17244        37.552
  22240041.70248 116872363.69848      1855.24648        46.604    22240044.67844
  91069402.25644      1445.64544        37.145
 14  3 20  0 58 30.0000000  0 10G 3G 7G 8G 9G11G13G19G23G27G28
  21644918.11148 113745013.31248     -2359.88748        46.764    21644921.29845
  88632537.17445     -1838.87545        39.236
  20253555.48049 106433302.83349       389.36749        49.230    20253557.75147
  82935095.46947       303.39847        45.399
  21468488.00849 112817824.91049      2031.96549        48.947    21468491.23946
  87910093.21146      1583.34846        41.168
  21198481.37349 111398896.04049      2501.22749        48.237    21198485.07645
  86804419.39045      1949.00445        40.854
  23698093.88346 124534342.46846      2769.56246        41.943    23698099.94042
  97039759.99142      2158.10242        33.560
  21716226.44749 114119648.70349     -3077.18449        48.228    21716229.20744
  88924521.24844     -2397.80944        37.836
  21315434.24548 112013561.42148      -756.80148        47.453    21315434.70246
  87283356.38646      -589.71946        42.716
  24324117.62045 127824162.34245     -3907.20345        40.950    24324124.41741
  99603270.83941     -3044.58641        31.207
  23399810.16247 122967005.78347     -2782.85247        43.904    23399816.17744
  95818536.02444     -2168.45744        38.802
  22229475.64948 116816838.26948      1846.51248        46.928    22229478.67144
  91026135.76344      1438.83644        38.327
 14  3 20  0 59  0.0000000  0 10G 3G 7G 8G 9G11G13G19G23G27G28
  21658438.48748 113816062.99048     -2376.65648        46.229    21658441.70645
  88687900.56445     -1851.94145        39.938
  20251364.32749 106421788.04049       378.20349        49.186    20251366.22348
  82926122.92348       294.69948        45.564
  21456902.20549 112756941.50649      2026.89149        48.641    21456905.41246
  87862651.65546      1579.39146        41.264
  21184224.49549 111323975.06449      2493.57449        48.071    21184227.88845
  86746039.47045      1943.04345        40.687
  23682300.64246 124451347.75546      2763.15246        42.611    23682306.59942
  96975089.00842      2153.10542        33.587
  21733829.24249 114212150.04649     -3089.68449        47.870    21733831.71844
  88996600.18344     -2407.55144        38.697
  21319815.54048 112036585.25148      -778.11348        47.622    21319816.18946
  87301297.05546      -606.32446        42.591
  24346430.52446 127941416.84746     -3909.63746        42.063    24346437.04941
  99694637.79041     -3046.47341        27.904
  23415732.20247 123050675.39547     -2795.12947        44.053    23415738.14844
  95883733.10444     -2178.02744        37.261
  22218958.68648 116761571.97048      1837.78148        46.417    22218961.68644
  90983071.20344      1432.03544        37.683
 14  3 20  0 59 30.0000000  0 10G 3G 7G 8G 9G11G13G19G23G27G28
  21672053.10948 113887608.67948     -2392.98848        46.525    21672056.50644
  88743650.41744     -1864.66844        38.882
  20249236.07249 106410604.09149       367.32049        49.196    20249237.79447
  82917408.17547       286.21947        45.364
  21445345.71449 112696212.08149      2021.85549        48.757    21445348.90546
  87815330.08646      1575.46946        41.546
  21170011.19149 111249283.25249      2485.94149        48.012    21170014.32346
  86687838.11946      1937.09446        41.314
  23666543.77846 124368544.73346      2756.76646        42.708    23666549.46742
  96910567.36942      2148.12942        33.591
  21751502.85149 114305025.59549     -3102.10549        47.818    21751505.57344
  89068970.68244     -2417.22744        38.401
  21324318.45348 112060248.38448      -799.39848        47.610    21324319.27446
  87319735.88946      -622.91046        42.854
  24368755.48446 128058735.07346     -3911.71946        41.211    24368762.02541
  99786054.43641     -3048.10541        32.076
  23431722.38047 123134703.52947     -2806.86747        44.129    23431728.41144
  95949209.55244     -2187.17244        37.853
  22208490.99948 116706564.42548      1829.32048        46.736    22208494.13544
  90940208.28744      1425.44544        37.998
 14  3 20  1  0  0.0000000  0 10G 3G 7G 8G 9G11G13G19G23G27G28
  21685761.67548 113959647.73948     -2409.34048        46.366    21685765.08045
  88799784.73945     -1877.41045        39.112
  20247170.97449 106399752.09049       356.18449        49.209    20247172.61947
  82908952.08347       277.54347        44.956
  21433818.86949 112635638.04349      2016.46949        48.982    21433822.10046
  87768129.58246      1571.27046        41.804
  21155841.63049 111174822.36849      2478.07449        47.891    21155844.70745
  86629816.71745      1930.96545        40.727
  23650824.17446 124285936.58946      2750.30146        43.077    23650829.01742
  96846197.58142      2143.09842        34.319
  21769247.17149 114398272.78449     -3114.44549        47.906    21769250.08044
  89141630.77444     -2426.84444        38.835
  21328942.84948 112084549.91748      -820.74248        47.420    21328943.72946
  87338672.16446      -639.54346        43.089
  24391092.02646 128176114.36646     -3913.68846        41.296    24391098.74042
  99877518.60542     -3049.63742        34.161
  23447780.22847 123219087.61747     -2818.81247        44.057    23447786.01644
  96014963.37044     -2196.48044        37.651
  22198072.40048 116651815.32148      1820.55948        46.680    22198075.64344
  90897546.73344      1418.61344        38.099
 14  3 20  1  0 30.0000000  0 10G 3G 7G 8G 9G11G13G19G23G27G28
  21699563.76648 114032177.64748     -2425.63348        46.742    21699567.02044
  88856301.53944     -1890.10544        38.172
  20245169.21049 106389233.09049       345.03149        49.269    20245170.92347
  82900755.47547       268.85247        45.261
  21422321.90449 112575220.83349      2011.29349        48.864    21422325.01446
  87721051.29046      1567.23846        41.869
  21141716.23649 111100594.13749      2470.34049        47.959    21141719.37345
  86571976.59145      1924.93845        40.861
  23635142.16246 124203526.52846      2743.60946        43.077    23635146.72543
  96781982.14443      2137.87943        34.768
  21787062.03849 114491889.25749     -3126.87149        47.961    21787064.61944
  89214578.63744     -2436.52744        37.311
  21333688.42248 112109488.80148      -842.02348        47.289    21333689.39746
  87358105.08646      -656.12546        42.774
  24413440.03546 128293552.25246     -3915.63346        41.246    24413446.84142
  99969028.45642     -3051.14842        33.409
  23463905.11746 123303825.05246     -2830.43846        42.359    23463910.97345
  96080992.52145     -2205.53945        39.004
  22187703.06148 116597324.86948      1811.95348        46.363    22187706.49544
  90855086.72544      1411.91044        38.632
 14  3 20  1  1  0.0000000  0 10G 3G 7G 8G 9G11G13G19G23G27G28
  21713458.68348 114105195.86748     -2442.05548        46.843    21713461.89845
  88913198.83145     -1902.90245        38.924
  20243231.04249 106379048.16049       333.89849        49.269    20243232.86947
  82892819.19047       260.17647        45.433
  21410854.80249 112514961.65949      2006.00449        48.713    21410857.92146
  87674096.14046      1563.11746        41.639
  21127635.55649 111026600.55449      2462.56649        48.269    21127638.87145
  86514319.33045      1918.87945        40.053
  23619498.34646 124121317.37446      2737.08646        43.065    23619502.41642
  96717923.28342      2132.80142        32.305
  21804946.29249 114585872.40149     -3138.88749        47.983    21804948.80844
  89287812.19744     -2445.89144        37.830
  21338555.14148 112135063.85948      -863.26248        47.405    21338556.08646
  87378033.72346      -672.67646        41.880
  24435798.11945 128411046.46945     -3917.60545        39.858    24435805.47343
 100060582.19243     -3052.69143        36.528
  23480096.85947 123388913.19247     -2841.94947        43.592    23480102.61944
  96147294.94944     -2214.50844        37.907
  22177382.94748 116543092.88848      1803.57048        46.572    22177386.33044
  90812828.12444      1405.37544        37.538
 14  3 20  1  1 30.0000000  0 10G 3G 7G 8G 9G11G13G19G23G27G28
  21727446.03348 114178699.48548     -2458.23048        46.578    21727449.06345
  88970474.37245     -1915.50845        39.245
  20241356.75349 106369198.65549       322.67649        49.348    20241358.60347
  82885144.26547       251.43447        45.213
  21399418.07649 112454861.73549      2000.55949        48.883    21399421.19246
  87627265.07646      1558.87546        41.821
  21113600.02349 110952843.51649      2454.60549        48.241    21113603.28545
  86456846.36645      1912.67645        40.558
  23603893.54847 124039312.67347      2730.15247        44.318    23603897.12343
  96654023.67443      2127.39143        34.731
  21822899.95948 114680219.75648     -3151.02348        47.693    21822902.24344
  89361329.56244     -2455.34844        37.617
  21343542.81448 112161274.06548      -884.39148        47.338    21343543.56246
  87398457.28146      -689.14146        42.592
  24458166.54245 128528594.13745     -3919.03145        40.904    24458174.26242
 100152177.62942     -3053.79742        34.231
  23496355.01847 123474349.43147     -2853.76647        43.584    23496360.28644
  96213868.61844     -2223.71544        38.032
  22167111.98848 116489119.07448      1794.84448        46.542    22167115.33144
  90770770.69144      1398.57844        38.691
 14  3 20  1  2  0.0000000  0 10G 3G 7G 8G 9G11G13G19G23G27G28
  21741525.26748 114252686.30948     -2474.23448        46.545    21741528.09844
  89028126.43844     -1927.97744        38.357
  20239546.56749 106359685.52149       311.50449        49.560    20239548.29247
  82877731.45547       242.72747        45.092
  21388012.03449 112394922.68249      1995.32449        48.836    21388014.95746
  87580559.36246      1554.79346        41.492
  21099609.90849 110879324.81349      2446.73849        48.421    21099613.05945
  86399559.13045      1906.54745        40.763
  23588328.10746 123957515.50446      2722.94146        43.027    23588332.15942
  96590285.81542      2121.77742        34.168
  21840922.54249 114774928.88549     -3163.00849        48.086    21840924.73044
  89435128.84344     -2464.68444        37.122
  21348651.16748 112188118.22948      -905.29348        47.566    21348651.97046
  87419374.82046      -705.42646        42.831
  24480545.08946 128646192.78746     -3920.75046        42.071    24480552.29541
 100243812.77241     -3055.13341        28.484
  23512678.68347 123560131.14647     -2865.15247        43.947    23512684.02643
  96280711.50243     -2232.59043        36.049
  22156890.25948 116435403.53248      1786.13748        46.921    22156893.65544
  90728914.50844      1391.79344        37.784
 14  3 20  1  2 30.0000000  0 11G 3G 7G 8G 9G11G13G19G23G26G27G28
  21755695.80048 114327153.25048     -2490.15248        46.199    21755698.71145
  89086152.61245     -1940.38345        38.997
  20237800.58149 106350509.95549       300.19149        49.395    20237802.18047
  82870581.67847       233.91447        44.944
  21376636.80049 112335146.02849      1989.84449        48.913    21376639.82546
  87533980.19946      1550.52346        42.249
  21085665.66449 110806046.64649      2438.61349        48.767    21085668.58845
  86342459.31145      1900.21545        40.655
  23572801.80145 123875928.78845      2715.92245        40.834    23572806.96243
  96526711.96843      2116.30943        35.616
  21859013.26148 114869997.02548     -3174.92248        46.806    21859016.05144
  89509207.83744     -2473.96944        37.222
  21353880.03749 112215595.10649      -926.34049        47.932    21353880.66646
  87440785.40646      -721.82846        42.571
  24502932.90745 128763840.20545     -3922.46945        40.374    24502940.20642
 100335485.94142     -3056.47742        33.794
  24035386.92844 126306820.17144      3547.71144        37.915    24035394.92841
  98420906.20841      2764.45341        24.709
  23529067.52946 123646255.72846     -2876.59446        43.099    23529072.92244
  96347821.54144     -2241.50444        37.651
  22146717.77448 116381945.91748      1777.71548        46.810    22146720.88644
  90687259.29344      1385.23044        38.576
 14  3 20  1  3  0.0000000  0 11G 3G 7G 8G 9G11G13G19G23G26G27G28
  21769957.27848 114402097.74148     -2506.04348        46.632    21769960.50344
  89144550.90444     -1952.73444        38.743
  20236119.00949 106341673.16949       288.85549        49.447    20236120.62447
  82863695.88847       225.07847        45.270
  21365292.89849 112275532.99749      1984.31649        49.091    21365296.05546
  87487528.53146      1546.21946        42.468
  21071767.37949 110733010.61349      2430.49649        48.268    21071770.35145
  86285548.16745      1893.89145        41.089
  23557315.65846 123794555.65146      2708.91846        41.701    23557322.17542
  96463304.58142      2110.85242        33.719
  21877172.00048 114965421.76348     -3186.71148        47.683    21877174.60244
  89583564.73744     -2483.15644        37.380
  21359229.13249 112243703.83949      -947.39149        47.823    21359229.65946
  87462688.33246      -738.23046        42.972
  24525329.75745 128881533.59345     -3923.87945        40.938    24525336.70941
 100427194.88841     -3057.57041        31.597
  24015156.78845 126200515.61945      3538.64545        39.888    24015165.97842
  98338071.78342      2757.38742        34.242
  23545520.94646 123732720.54446     -2887.71946        42.402    23545526.55044
  96415196.69744     -2250.17244        38.412
  22136594.30248 116328746.06248      1769.01248        47.092    22136597.06744
  90645804.93344      1378.44944        36.835
 14  3 20  1  3 30.0000000  0 11G 3G 7G 8G 9G11G13G19G23G26G27G28
  21784309.08648 114477516.93448     -2521.94948        46.808    21784312.32645
  89203319.09445     -1965.16045        38.911
  20234502.09049 106333176.45349       277.57849        49.301    20234503.77047
  82857075.09047       216.29347        45.218
  21353980.59849 112216085.16149      1978.77749        49.195    21353983.65646
  87441205.58146      1541.90246        42.348
  21057915.30149 110660218.58549      2422.32449        47.936    21057918.75546
  86228827.17946      1887.52346        41.609
  23541872.35047 123713399.42247      2701.60947        43.418    23541878.06942
  96400066.12542      2105.15242        33.261
  21895398.28648 115061200.62248     -3198.55148        47.177    21895400.60944
  89658197.57344     -2492.37944        37.333
  21364698.17549 112272443.10049      -968.52349        47.863    21364698.46046
  87485082.57846      -754.69546        42.679
  24547734.97946 128999270.26246     -3925.14846        42.006    24547741.50242
 100518937.58642     -3058.56642        34.096
  23994980.06444 126094483.18444      3529.61344        38.411    23994988.59744
  98255449.33544      2750.34444        37.582
  23562038.71146 123819522.96946     -2898.97346        42.893    23562044.65643
  96482834.91343     -2258.94143        36.606
  22126519.72948 116275803.84448      1760.45348        46.868    22126522.12344
  90604551.33244      1371.77744        38.113
 14  3 20  1  4  0.0000000  0 11G 3G 7G 8G 9G11G13G19G23G26G27G28
  21798750.78148 114553408.35348     -2537.57848        46.666    21798754.15545
  89262455.26545     -1977.33645        39.021
  20232950.07449 106325020.63649       266.12949        49.416    20232951.67347
  82850719.91847       207.37147        45.142
  21342699.61049 112156803.69949      1973.18849        49.094    21342702.90246
  87395012.29746      1537.54746        41.995
  21044109.97249 110587672.39449      2414.12549        48.131    21044113.82046
  86172297.75146      1881.13346        41.871
  23526471.21547 123632463.47847      2694.23047        44.291    23526476.18142
  96336999.30242      2099.40242        34.394
  21913691.08648 115157330.97148     -3210.19948        46.866    21913693.90944
  89733104.27444     -2501.45744        37.946
  21370286.79748 112301811.44848      -989.40248        47.628    21370287.30946
  87507967.02346      -770.96546        42.561
  24570147.93246 129117047.53546     -3926.51246        42.758    24570154.30042
 100610711.96342     -3059.62142        32.582
  23974854.37545 125988725.93445      3520.46145        39.058    23974862.08441
  98173041.31441      2743.22341        31.830
  23578620.59247 123906660.34847     -2910.13747        43.686    23578626.55344
  96550734.16344     -2267.64144        37.746
  22116494.04948 116223118.95348      1751.86748        46.943    22116496.49644
  90563498.24844      1365.09044        38.542
 14  3 20  1  4 30.0000000  0 11G 3G 7G 8G 9G11G13G19G23G26G27G28
  21813281.73148 114629769.06148     -2553.03148        46.407    21813285.33445
  89321957.10745     -1989.43845        39.248
  20231463.21449 106317206.91849       254.78149        49.469    20231464.73347
  82844631.32447       198.52747        45.256
  21331450.48649 112097689.84349      1967.62549        49.238    21331453.99946
  87348949.60646      1533.21146        42.472
  21030352.04749 110515373.91949      2405.85249        48.076    21030355.83846
  86115961.34046      1874.68846        42.015
  23511112.45547 123551750.76447      2686.71547        44.058    23511116.92343
  96274106.43743      2093.54343        35.398
  21932050.48148 115253810.32048     -3221.78948        47.181    21932053.52043
  89808282.92743     -2510.48843        36.301
  21375994.68848 112331807.91448     -1010.59848        47.130    21375995.67346
  87531340.90746      -787.48046        42.777
  24592568.07446 129234863.30146     -3927.85946        42.010    24592573.69242
 100702516.28942     -3060.67642        32.870
  23954782.87046 125883246.92746      3511.58246        41.283    23954790.34641
  98090850.09041      2736.30141        31.819
  23595265.62646 123994130.01646     -2920.97746        43.017    23595271.53144
  96618892.33444     -2276.09044        36.917
  22106517.26548 116170691.27248      1743.28148        47.180    22106520.01744
  90522645.57944      1358.39844        38.677
 14  3 20  1  5  0.0000000  0 11G 3G 7G 8G 9G11G13G19G23G26G27G28
  21827901.52348 114706596.47848     -2568.53148        46.330    21827905.25244
  89381822.60644     -2001.45744        38.246
  20230041.61149 106309736.56049       243.24649        49.317    20230043.13247
  82838810.29047       189.53947        45.489
  21320233.63449 112038745.18249      1962.12949        49.015    21320237.19646
  87303018.76446      1528.93046        42.038
  21016641.76149 110443325.13449      2397.41849        48.376    21016645.28646
  86059819.49646      1868.11346        41.405
  23495795.83846 123471264.30546      2679.35246        41.234    23495800.73843
  96211389.89843      2087.80943        34.877
  21950475.81548 115350635.89848     -3233.27748        46.715    21950478.94744
  89883731.37344     -2519.44144        37.121
  21381821.82248 112362431.19648     -1031.23848        47.649    21381823.11546
  87555203.21846      -803.56646        41.874
  24614994.44546 129352715.02246     -3928.75846        41.186    24614999.91841
 100794348.65341     -3061.37541        30.656
  23934764.33845 125778049.28145      3502.02045        38.990    23934771.53341
  98008878.12641      2728.85241        28.517
  23611973.31946 124081929.40946     -2932.30146        43.042    23611979.46744
  96687307.42144     -2284.91444        37.911
  22096589.46248 116118520.71348      1734.74648        47.032    22096592.18544
  90481993.28344      1351.74644        37.807
 14  3 20  1  5 30.0000000  0 11G 3G 7G 8G 9G11G13G19G23G26G27G28
  21842609.60448 114783887.90548     -2584.02348        46.164    21842613.13844
  89442049.68644     -2013.52744        38.689
  20228685.47649 106302610.60949       231.74649        49.170    20228687.15348
  82833257.62748       180.57848        45.626
  21309049.18649 111979971.34349      1956.40249        48.952    21309052.75746
  87257221.03346      1524.37946        41.975
  21002979.15449 110371527.88049      2388.91849        48.595    21002982.49845
  86003873.64545      1861.49245        41.007
  23480522.18346 123391006.97846      2671.31246        41.934    23480528.10643
  96148851.94743      2081.54343        35.914
  21968966.39348 115447805.22448     -3244.71548        47.297    21968969.92344
  89959447.65544     -2528.35244        37.491
  21387768.22148 112393679.90148     -1052.11748        47.671    21387769.32246
  87579552.88046      -819.83646        42.073
  24637426.87346 129470600.11546     -3929.94946        41.415    24637432.93041
 100886207.02241     -3062.30941        30.740
  23914800.31846 125673136.05746      3492.39146        41.648    23914806.86341
  97927127.65141      2721.34041        31.271
  23628743.24446 124170055.85046     -2943.10946        42.196    23628749.35544
  96755977.34644     -2293.33644        38.829
  22086710.40648 116066606.86548      1726.26648        47.059    22086713.07544
  90441541.02444      1345.14144        38.149
 14  3 20  1  6  0.0000000  0 11G 3G 7G 8G 9G11G13G19G23G26G27G28
  21857405.45348 114861640.51948     -2599.44948        46.547    21857408.78844
  89502636.13244     -2025.54744        38.293
  20227395.14349 106295830.26649       220.26249        49.234    20227396.85147
  82827974.26947       171.62947        45.240
  21297897.45449 111921369.74649      1950.49249        48.931    21297901.07446
  87211557.51846      1519.85946        41.957
  20989364.85149 110299984.03749      2380.53549        48.444    20989367.97246
  85948125.25746      1854.96146        41.410
  23465294.34747 123310982.34147      2663.66847        44.310    23465299.75143
  96086495.25143      2075.58643        34.928
  21987522.32748 115545315.87448     -3256.00448        46.930    21987525.76944
  90035429.93144     -2537.14844        37.515
  21393833.48848 112425552.72048     -1072.86748        47.717    21393834.37546
  87604388.86346      -836.00446        42.342
  24659865.25046 129588515.71946     -3931.08246        41.682    24659871.81441
 100978089.17841     -3063.18441        32.128
  23894890.66244 125568510.32244      3482.48444        38.064    23894898.07843
  97845601.37043      2713.63343        35.659
  23645574.80746 124258506.66546     -2953.52046        42.883    23645580.94644
  96824900.01144     -2301.44544        37.659
  22076880.27848 116014949.57148      1717.77048        47.674    22076882.97444
  90401288.67544      1338.52044        38.315
 14  3 20  1  6 30.0000000  0 11G 3G 7G 8G 9G11G13G19G23G26G27G28
  21872288.60348 114939851.33648     -2614.79348        46.253    21872291.72644
  89563579.63344     -2037.50444        38.635
  20226170.87749 106289396.74349       208.59049        49.184    20226172.45347
  82822961.15347       162.53547        45.146
  21286778.95849 111862941.62049      1944.64549        49.254    21286782.34446
  87166029.16246      1515.30546        42.535
  20975799.19249 110228695.63649      2372.14849        48.612    20975802.25246
  85892575.92046      1848.42646        41.982
  23450111.61147 123231193.33147      2655.61747        44.250    23450115.90342
  96024322.14942      2069.31242        33.559
  22006142.52248 115643164.99748     -3267.27748        47.161    22006145.74244
  90111675.94544     -2545.93444        38.094
  21400017.35049 112458048.48549     -1093.44549        48.013    21400018.01846
  87629710.25146      -852.03946        42.083
  24682309.10546 129706459.61346     -3931.88746        42.064    24682315.96942
 101069993.37142     -3063.81242        32.515
  23875035.75645 125464175.12945      3472.85545        40.658    23875043.65943
  97764301.38943      2706.11743        35.809
  23662467.93746 124347279.21946     -2964.53946        43.169    23662473.65544
  96894073.42544     -2310.03544        37.187
  22067099.01648 115963548.93848      1708.98448        47.378    22067101.71844
  90361236.32244      1331.67244        38.246
 14  3 20  1  7  0.0000000  0 11G 3G 7G 8G 9G11G13G19G23G26G27G28
  21887258.30048 115018518.12748     -2629.77048        46.679    21887261.50244
  89624878.41844     -2049.17644        38.201
  20225012.83949 106283310.81249       197.05149        49.561    20225014.32147
  82818218.89547       153.54347        45.211
  21275693.88549 111804688.48249      1938.78549        49.094    21275696.97746
  87120637.16846      1510.73846        41.961
  20962282.33049 110157664.50249      2363.44149        48.309    20962285.60946
  85837227.06346      1841.64146        42.598
  23434973.93147 123151643.28447      2647.58247        43.360    23434977.10141
  95962335.21541      2063.05141        31.564
  22024826.69648 115741349.95848     -3278.47348        46.747    22024830.35044
  90188183.64444     -2554.65644        37.677
  21406319.57748 112491165.63048     -1114.23848        47.737    21406319.95046
  87655515.84546      -868.24246        42.680
  24704757.82045 129824429.37645     -3932.55145        39.358    24704765.24641
 101161917.73141     -3064.33241        29.552
  23855237.46243 125360133.60543      3463.04343        36.049    23855244.31742
  97683230.19242      2698.48042        33.841
  23679421.52146 124436370.87346     -2975.03546        43.035    23679427.37444
  96963495.46544     -2318.21144        37.337
  22057366.50848 115912404.56948      1700.52348        47.140    22057369.21544
  90321383.65844      1325.07844        38.691
 14  3 20  1  7 30.0000000  0 11G 3G 7G 8G 9G11G13G19G23G26G27G28
  21902314.30948 115097637.95648     -2644.87548        46.357    21902317.53744
  89686530.22644     -2060.94544        38.632
  20223921.26649 106277573.87249       185.35549        49.593    20223922.67947
  82813748.58047       144.43047        45.213
  21264642.22549 111746611.76449      1932.91849        49.119    21264645.05446
  87075382.63646      1506.16846        41.792
  20948814.69749 110086892.81049      2354.69549        48.255    20948818.09746
  85782080.36746      1834.82446        41.538
  23419881.51446 123072335.26146      2639.42246        42.319    23419884.87943
  95900536.90843      2056.69143        34.942
  22043574.25948 115839868.24948     -3289.45748        47.424    22043577.73643
  90264951.09443     -2563.21543        36.104
  21412739.52248 112524902.73548     -1134.89848        47.523    21412739.91346
  87681804.50646      -884.34046        42.481
  24727211.04445 129942422.32345     -3933.11745        39.794    24727218.29642
 101253860.13842     -3064.77342        33.503
  23835494.56946 125256388.75746      3453.12546        41.115    23835502.20241
  97602390.28841      2690.74241        31.975
  23696435.29646 124525778.95946     -2985.52046        42.935    23696441.22944
  97033164.08744     -2326.38344        37.899
  22047682.76648 115861515.91048      1691.93048        47.306    22047685.42744
  90281730.24544      1318.38744        37.609
 14  3 20  1  8  0.0000000  0 11G 3G 7G 8G 9G11G13G19G23G26G27G28
  21917455.95448 115177207.98748     -2659.71548        46.205    21917459.42144
  89748532.83744     -2072.50844        38.847
  20222896.16849 106272186.84749       173.76649        49.292    20222897.63648
  82809550.92148       135.39848        45.745
  21253624.44149 111688713.17949      1926.94549        49.184    21253627.06346
  87030266.91146      1501.51246        41.942
  20935396.71949 110016382.20849      2345.98849        48.332    20935400.30546
  85727137.12346      1828.03946        42.024
  23404835.83946 122993271.96346      2631.34446        43.150    23404840.63144
  95838929.31944      2050.39844        37.291
  22062384.75348 115938717.19848     -3300.47748        46.924    22062388.02244
  90341976.19844     -2571.80544        37.530
  21419277.03448 112559258.25748     -1155.40248        47.524    21419277.49646
  87708575.06846      -900.31646        41.948
  24749668.08145 130060435.90345     -3934.11745        40.855    24749676.19742
 101345818.63042     -3065.55142        32.914
  23815810.14445 125152943.92345      3443.15645        40.298    23815817.17841
  97521784.03241      2682.97741        29.350
  23713508.71446 124615500.86446     -2995.85246        42.118    23713515.05144
  97103077.21844     -2334.43444        36.940
  22038047.63648 115810883.12348      1683.50448        47.370    22038050.23444
  90242276.21344      1311.81644        38.554
 14  3 20  1  8 30.0000000  0 11G 3G 7G 8G 9G11G13G19G23G26G27G28
  21932682.70048 115257225.36448     -2674.80548        46.120    21932686.10045
  89810884.03045     -2084.26645        38.910
  20221937.80149 106267150.76449       161.96149        49.442    20221939.32647
  82805626.73447       126.19947        45.315
  21242640.91149 111630993.96549      1920.96149        49.356    21242643.43946
  86985290.95446      1496.84846        41.786
  20922028.99649 109946134.43849      2337.19949        48.429    20922032.36046
  85672398.66846      1821.19146        41.135
  23389838.22947 122914457.05447      2622.94147        44.645    23389843.27543
  95777515.27543      2043.85243        36.004
  22081257.35648 116037894.45148     -3311.46548        46.781    22081261.10044
  90419257.10644     -2580.36744        37.876
  21425931.98548 112594231.00248     -1176.01248        47.388    21425932.29946
  87735826.58146      -916.37546        42.282
  24772128.92546 130178467.61446     -3934.62546        41.537    24772137.04841
 101437791.25541     -3065.94541        28.362
  23796182.44445 125049801.78445      3432.85545        39.566    23796189.33542
  97441413.67742      2674.94942        33.508
  23730641.53046 124705533.86646     -3006.23446        42.702    23730647.62044
  97173232.78444     -2342.52344        37.142
  22028460.98048 115760505.80948      1675.10548        47.054    22028463.69345
  90203021.26445      1305.27345        38.927
 14  3 20  1  9  0.0000000  0 11G 3G 7G 8G 9G11G13G19G23G26G27G28
  21947994.24148 115337687.34148     -2689.60548        46.350    21947997.61844
  89873581.66944     -2095.70744        37.786
  20221046.51749 106262467.23549       150.19149        49.444    20221048.02947
  82801977.25147       117.02747        45.354
  21231691.67149 111573455.58249      1914.85549        49.088    21231694.32146
  86940455.90846      1492.09446        42.309
  20908711.86049 109876151.80749      2328.46149        48.355    20908715.03946
  85617866.81146      1814.38346        41.780
  23374888.40647 122835893.87947      2614.53147        43.682    23374893.28443
  95716297.37543      2037.29743        35.696
  22100192.03248 116137396.95648     -3322.12148        46.746    22100195.78244
  90496791.45444     -2588.67244        37.782
  21432704.15948 112629819.42348     -1196.54348        47.291    21432704.30646
  87763557.84346      -932.37546        42.336
  24794593.04745 130296515.07745     -3935.21145        40.098    24794600.88741
 101529776.15041     -3066.41041        30.389
  23776613.41045 124946965.75345      3422.43845        41.037    23776620.74144
  97361281.93144      2666.83644        36.824
  23747833.01046 124795875.41146     -3016.59046        42.332    23747838.75544
  97243628.76944     -2350.59444        38.363
  22018922.78848 115710383.58848      1666.44148        47.201    22018925.57644
  90163965.07444      1298.52344        38.609
 14  3 20  1  9 30.0000000  0 11G 3G 7G 8G 9G11G13G19G23G26G27G28
  21963389.69448 115418590.99548     -2704.14548        45.815    21963393.11744
  89936623.46744     -2107.12944        37.859
  20220222.50149 106258136.93449       138.43049        49.415    20220224.03647
  82798603.02247       107.86347        45.472
  21220777.05749 111516099.56449      1908.80149        49.247    21220779.92346
  86895762.97346      1487.37546        42.385
  20895445.32249 109806436.16049      2319.30549        48.438    20895448.48746
  85563543.00746      1807.24646        41.644
  23359986.45546 122757585.14546      2606.20746        42.783    23359990.97243
  95655277.71143      2030.81243        35.154
  22119188.18848 116237222.12748     -3332.96148        46.456    22119192.04244
  90574577.23344     -2597.11744        37.151
  21439593.37649 112666021.91349     -1216.94149        47.814    21439593.45246
  87791767.59746      -948.27046        42.123
  24817059.63045 130414575.97545     -3935.30145        40.289    24817067.72641
 101621771.52641     -3066.47741        31.596
  23757103.26445 124844438.85245      3412.32445        40.646    23757109.93642
  97281390.94542      2658.94942        32.702
  23765082.52446 124886522.71146     -3026.80546        42.001    23765088.23344
  97314263.00944     -2358.55144        37.426
  22009433.17548 115660516.64648      1658.10948        46.714    22009435.98445
  90125107.80545      1292.03145        39.105
 14  3 20  1 10  0.0000000  0 11G 3G 7G 8G 9G11G13G19G23G26G27G28
  21978868.64948 115499933.70548     -2718.66848        46.187    21978872.00844
  90000007.39644     -2118.44544        36.948
  20219465.83149 106254160.87849       126.58249        49.312    20219467.48448
  82795504.82648        98.63348        45.667
  21209897.51249 111458927.43949      1902.71149        49.351    21209900.45046
  86851213.33146      1482.62946        41.893
  20882229.79049 109736989.29649      2310.41849        48.311    20882233.14746
  85509428.64846      1800.32446        41.854
  23345132.90946 122679533.96846      2597.26646        41.822    23345137.75743
  95594458.78043      2023.84443        36.000
  22138245.03948 116337367.46748     -3343.38748        46.102    22138248.52243
  90652612.50643     -2605.23843        35.954
  21446599.14449 112702836.98349     -1237.39149        47.808    21446599.30746
  87820454.68546      -964.20346        42.777
  24839528.25245 130532647.23045     -3935.66845        40.415    24839536.22241
 101713774.98641     -3066.75841        26.191
  23737652.55445 124742224.08645      3401.59445        40.228    23737659.13242
  97201743.23842      2650.59442        33.364
  23782389.74946 124977473.16546     -3036.81646        41.819    23782395.64644
  97385133.49144     -2366.35544        37.808
  21999992.18048 115610904.26948      1649.50448        47.326    21999995.01245
  90086448.89545      1285.32445        39.204
 14  3 20  1 10 30.0000000  0 11G 3G 7G 8G 9G11G13G19G23G26G27G28
  21994430.42047 115581712.44447     -2733.14547        45.378    21994433.96045
  90063731.07545     -2129.75045        39.059
  20218776.79549 106250540.40249       114.74249        49.407    20218778.49947
  82792683.70747        89.40647        45.146
  21199053.30749 111401940.71849      1896.51649        49.381    21199055.97746
  86806808.15146      1477.80146        41.620
  20869065.95049 109667813.28949      2301.32049        48.285    20869069.35146
  85455525.34346      1793.23446        42.038
  23330329.82247 122601743.43647      2588.56647        44.030    23330334.23443
  95533842.93643      2017.06643        35.796
  22157362.68748 116437830.22848     -3353.91848        46.729    22157366.06744
  90730895.11944     -2613.44544        37.759
  21453721.13248 112740263.22348     -1257.69948        47.530    21453721.41846
  87849618.01646      -980.02746        42.712
  24861998.19145 130650726.96545     -3936.15245        39.778    24862006.01941
 101805784.99941     -3067.13741        31.163
  23718261.62545 124640324.68945      3391.39545        40.230    23718268.34942
  97122341.26442      2642.64142        34.400
  23799754.03646 125068724.12746     -3046.76246        42.438    23799760.09344
  97456238.09444     -2374.10244        38.745
  21990599.72248 115561546.22748      1640.93048        47.425    21990602.70445
  90047988.17145      1278.64545        38.984
 14  3 20  1 11  0.0000000  0 11G 3G 7G 8G 9G11G13G19G23G26G27G28
  22010074.72447 115663924.43447     -2747.54747        45.443    22010078.45344
  90127792.35244     -2140.94944        37.165
  20218155.71149 106247276.50649       102.87549        49.582    20218157.28047
  82790140.43447        80.16047        45.366
  21188244.62349 111345140.96349      1890.14849        49.406    21188247.17346
  86762548.65346      1472.84046        41.607
  20855953.94949 109598910.16949      2292.21949        48.393    20855957.37446
  85401834.67546      1786.14146        41.416
  23315577.57147 122524216.86847      2579.78547        44.738    23315581.75943
  95473432.77543      2010.22343        36.460
  22176540.05748 116538607.82548     -3364.50448        46.668    22176543.00743
  90809423.06343     -2621.69543        36.567
  21460959.04248 112778299.06148     -1278.00448        47.627    21460959.38946
  87879256.36546      -995.85246        43.024
  24884468.99845 130768812.26745     -3936.14145        40.356    24884477.04142
 101897799.35342     -3067.13342        34.108
  23698931.14745 124538743.62745      3380.75045        39.437    23698937.95942
  97043187.36742      2634.34842        33.569
  23817175.26546 125160272.87346     -3056.37946        41.989    23817181.50345
  97527574.75545     -2381.59845        39.116
  21981255.57448 115512442.49948      1632.62548        47.173    21981258.49844
  90009725.61044      1272.17244        38.740
 14  3 20  1 11 30.0000000  0 11G 3G 7G 8G 9G11G13G19G23G26G27G28
  22025801.12548 115746567.29348     -2761.89548        45.710    22025804.82045
  90192189.37245     -2152.12945        39.028
  20217602.69049 106244370.37449        90.91449        49.439    20217604.16847
  82787875.93547        70.84047        45.466
  21177471.69449 111288529.70749      1883.83249        49.342    21177474.34846
  86718436.05046      1467.91846        42.226
  20842894.35649 109530281.83249      2283.07049        48.860    20842897.82646
  85348358.13446      1779.01246        41.840
  23300875.99747 122446957.39747      2570.93447        44.120    23300880.01444
  95413230.72944      2003.32044        37.343
  22195777.05948 116639697.50448     -3374.78948        46.834    22195779.60643
  90888194.19043     -2629.70743        36.117
  21468312.64649 112816942.89249     -1298.20749        47.781    21468313.17946
  87909368.45546     -1011.59446        42.729
  24906940.28045 130886900.82245     -3936.33245        40.084    24906948.70741
 101989816.27441     -3067.27741        30.002
  23679661.70845 124437483.95145      3370.16445        40.882    23679668.90541
  96964283.93341      2626.10241        32.051
  23834652.48246 125252116.83046     -3066.50846        41.829    23834658.77044
  97599141.43444     -2389.48844        36.827
  21971959.68848 115463592.65148      1624.15248        47.368    21971962.44345
  89971660.87345      1265.57045        39.379
 14  3 20  1 12  0.0000000  0 11G 3G 7G 8G 9G11G13G19G23G26G27G28
  22041608.93247 115829637.76847     -2776.03547        45.371    22041612.65644
  90256919.60644     -2163.14844        38.145
  20217117.88049 106241822.86249        78.84849        49.562    20217119.44248
  82785890.88848        61.43848        45.613
  21166735.01749 111232108.25849      1877.46949        49.272    21166737.79546
  86674471.34146      1462.96146        42.089
  20829887.61149 109461930.19649      2273.79349        48.658    20829890.79246
  85295097.18246      1771.78546        41.895
  23286225.12246 122369967.96746      2561.85246        43.048    23286228.94042
  95353239.14442      1996.25042        33.607
  22215072.60948 116741096.69048     -3385.08648        46.397    22215075.13643
  90967206.46843     -2637.73443        36.023
  21475781.63549 112856193.01049     -1318.46549        47.824    21475782.12146
  87939952.99246     -1027.37946        42.324
  24929412.00745 131004990.11245     -3935.96545        40.128    24929420.14941
 102081833.74341     -3066.99641        30.795
  23660454.10545 124336548.84745      3359.10245        40.036    23660461.27842
  96885633.33642      2617.48042        34.063
  23852185.42446 125344253.27946     -3076.27746        41.354    23852191.78944
  97670936.03444     -2397.10244        37.626
  21962712.22648 115414996.57348      1615.68448        47.078    21962714.75145
  89933793.87945      1258.97345        39.257
 14  3 20  1 12 30.0000000  0 11G 3G 7G 8G 9G11G13G19G23G26G27G28
  22057497.70448 115913133.12448     -2790.27348        46.070    22057501.16744
  90321980.90344     -2174.24244        37.954
  20216701.58149 106239635.08149        66.92649        49.444    20216703.22248
  82784186.15048        52.14848        45.661
  21156034.78449 111175878.36949      1871.09049        49.426    21156037.69446
  86630655.89546      1457.98846        42.718
  20816933.87949 109393857.40449      2264.34049        48.716    20816936.89446
  85242053.52346      1764.41846        42.081
  23271625.53846 122293251.70046      2552.53546        42.790    23271629.60942
  95293460.42342      1988.98842        34.291
  22234426.84248 116842802.95148     -3395.38348        46.292    22234429.19144
  91046458.05544     -2645.75844        37.416
  21483365.55648 112896047.63948     -1338.58648        47.409    21483366.12946
  87971008.56746     -1043.05946        42.039
  24951883.48345 131123077.47345     -3936.16845        41.074    24951891.37841
 102173849.73841     -3067.15241        29.845
  23641309.04946 124235941.51146      3348.01646        41.997    23641315.95242
  96807238.20742      2608.84442        34.141
  23869773.59246 125436679.54046     -3085.69946        41.782    23869779.95944
  97742956.48744     -2404.44544        37.015
  21953512.79548 115366653.69048      1607.25848        47.418    21953515.42744
  89896124.17044      1252.40644        38.887
 14  3 20  1 13  0.0000000  0 11G 3G 7G 8G 9G11G13G19G23G26G27G28
  22073466.90148 115997050.64348     -2804.33648        45.570    22073470.13944
  90387371.18744     -2185.18444        38.854
  20216353.90149 106237808.17549        54.85549        49.363    20216355.56048
  82782762.61748        42.74248        45.643
  21145371.32449 111119841.53549      1864.72749        49.531    21145374.36546
  86586990.88646      1453.03146        42.756
  20804033.49549 109326065.30049      2254.96949        48.707    20804036.47246
  85189228.57946      1757.11746        42.296
  23257079.50347 122216811.74747      2543.45347        44.194    23257083.09543
  95233896.95943      1981.91443        34.909
  22253838.86548 116944813.05548     -3405.55548        46.385    22253841.29743
  91125946.38343     -2653.68443        34.937
  21491064.30948 112936505.31848     -1358.63348        47.715    21491064.86846
  88002534.05246     -1058.68046        41.867
  24974354.41646 131241160.71146     -3936.35246        41.371    24974361.67941
 102265862.56741     -3067.28941        31.930
  23622227.33445 124135664.97445      3337.01245        39.977    23622233.13942
  96729100.75142      2600.26642        32.915
  23887416.44146 125529393.00046     -3095.41046        42.380    23887422.83144
  97815200.73544     -2412.01244        37.827
  21944361.47848 115318563.98748      1598.90648        47.397    21944364.14945
  89858651.74345      1245.89845        38.976
 14  3 20  1 13 30.0000000  0 11G 3G 7G 8G 9G11G13G19G23G26G27G28
  22089515.76348 116081387.22448     -2818.25048        45.739    22089518.91844
  90453087.98444     -2196.04344        37.492
  20216075.03349 106236343.26149        42.81249        49.357    20216076.72647
  82781621.14447        33.35547        45.452
  21134744.93249 111063999.45649      1858.16849        49.587    21134748.01046
  86543477.64146      1447.91846        42.730
  20791186.85749 109258555.77549      2245.54749        48.840    20791189.98546
  85136623.82246      1749.77346        42.281
  23242586.70547 122140651.15647      2533.89547        43.831    23242589.94843
  95174551.18543      1974.46543        35.334
  22273307.75848 117047124.31448     -3415.27348        46.296    22273310.41343
  91205669.36543     -2661.25443        35.693
  21498877.57348 112977564.44848     -1378.67648        47.606    21498878.14046
  88034528.19846     -1074.29746        42.044
  24996823.86845 131359237.44345     -3935.78945        40.771    24996831.22242
 102357870.27642     -3066.85242        33.324
  23603208.77546 124035722.16746      3325.95746        42.301    23603214.38941
  96651223.40341      2591.65241        30.576
  23905113.60846 125622390.95946     -3104.80946        42.458    23905119.79544
  97887666.64744     -2419.33644        36.902
  21935258.36648 115270727.07548      1590.36748        47.599    21935260.89344
  89821376.27944      1239.24244        38.359
 14  3 20  1 14  0.0000000  0 11G 3G 5G 7G 8G 9G11G13G19G26G27G28
  22105643.66748 116166139.96648     -2832.03548        45.618    22105647.06844
  90519129.08244     -2206.78544        38.690
  25200335.65145 132428659.05745     -1273.82445        40.800    25200345.66542
 103191177.35542      -992.59442        33.681
  20215865.30349 106235241.40049        30.67649        49.380    20215866.97348
  82780762.57548        23.89848        45.584
  21124155.77449 111008353.45749      1851.56249        49.340    21124158.73946
  86500117.17446      1442.77346        42.389
  20778394.40249 109191330.76249      2236.08249        48.916    20778397.57346
  85084240.77146      1742.39846        42.481
  23228147.45547 122064773.21747      2524.35547        43.385    23228150.74444
  95115425.68544      1967.03144        37.258
  22292833.75348 117149734.60048     -3425.41048        46.139    22292836.74043
  91285625.37543     -2669.15243        36.558
  21506805.07248 113019223.03848     -1398.61348        47.569    21506805.38046
  88066989.45646     -1089.83246        42.279
  23584254.57846 123936116.30246      3314.43046        41.269    23584260.16342
  96573608.62042      2582.66842        32.542
  23922864.15946 125715670.75046     -3114.02046        42.018    23922870.30744
  97960352.17044     -2426.51244        37.226
  21926203.36548 115223142.66748      1581.90248        47.642    21926205.96045
  89784297.58145      1232.64845        39.694
 14  3 20  1 14 30.0000000  0 11G 3G 5G 7G 8G 9G11G13G19G26G27G28
  22121850.13947 116251306.12547     -2845.68847        45.551    22121853.68944
  90585492.30544     -2217.42244        38.688
  25207645.79746 132467070.93546     -1286.96546        41.578    25207653.53141
 103221108.62641     -1002.83641        31.592
  20215724.99049 106234503.91949        18.53549        49.533    20215726.64847
  82780187.93547        14.44147        45.546
  21113604.23549 110952904.98449      1844.85949        49.559    21113607.05846
  86456910.62446      1437.55146        41.912
  20765656.45849 109124392.47549      2226.54349        48.958    20765659.49846
  85032081.13746      1734.96546        42.542
  23213762.65247 121989180.96247      2514.96147        43.535    23213765.75943
  95056522.77843      1959.71143        35.857
  22312416.32748 117252640.59648     -3435.17648        46.151    22312419.08643
  91365811.81543     -2676.76243        35.008
  21514846.30348 113061479.58848     -1418.44548        47.562    21514846.61246
  88099916.67346     -1105.28546        42.364
  23565364.58745 123836850.37545      3303.28145        40.402    23565370.13541
  96496258.66041      2573.98041        31.263
  23940667.96046 125809229.69846     -3123.20746        41.986    23940674.03043
  98033255.21343     -2433.67243        35.932
  21917196.26448 115175810.52848      1573.45348        46.823    21917199.00745
  89747415.46945      1226.06245        38.977
 14  3 20  1 15  0.0000000  0 11G 3G 5G 7G 8G 9G11G13G19G26G27G28
  22138134.73347 116336883.17447     -2859.23447        45.311    22138138.32744
  90652175.69744     -2227.97744        38.049
  25215028.77646 132505869.72046     -1299.54346        41.430    25215037.24341
 103251341.43741     -1012.63341        32.133
  20215654.05249 106234131.14649         6.44949        49.290    20215655.69048
  82779897.48948         5.02348        45.587
  21103090.76949 110897655.71949      1838.23049        49.604    21103093.28746
  86413859.29846      1432.38346        41.876
  20752973.31949 109057742.79549      2216.82449        48.935    20752976.19246
  84980146.38946      1727.39146        41.869
  23199432.45046 121913877.58146      2505.32846        43.287    23199435.82043
  94997844.96343      1952.20343        35.578
  22332054.40348 117355839.68548     -3444.55548        46.278    22332057.11542
  91446226.61042     -2684.07042        34.118
  21523000.74048 113104332.07848     -1438.43448        47.542    21523001.32446
  88133308.23746     -1120.85946        41.980
  23546540.04146 123737927.54946      3291.60246        41.808    23546545.82342
  96419176.11942      2564.88742        33.755
  23958524.26146 125903065.18446     -3132.52046        41.855    23958530.25544
  98106373.75744     -2440.92644        37.340
  21908236.99048 115128729.89448      1565.14848        47.424    21908239.81245
  89710729.34145      1219.59445        40.106
 14  3 20  1 15 30.0000000  0 11G 3G 5G 7G 8G 9G11G13G19G26G27G28
  22154497.15848 116422867.98148     -2872.87948        45.589    22154500.81844
  90719176.84844     -2238.60944        37.434
  25222485.03045 132545053.08945     -1312.46145        40.913    25222493.27742
 103281873.84842     -1022.69942        34.235
  20215652.82249 106234124.77549        -5.95749        49.378    20215654.45948
  82779892.54948        -4.64548        45.732
  21092615.35649 110842607.10049      1831.63749        49.626    21092617.69846
  86370964.32046      1427.24646        41.650
  20740345.42149 108991383.82649      2207.16049        48.659    20740348.29646
  84928438.16946      1719.86346        41.985
  23185157.85546 121838865.89146      2495.69146        43.080    23185161.54743
  94939394.46043      1944.69543        34.952
  22351747.59448 117459329.55848     -3454.48448        46.249    22351750.86643
  91526867.98743     -2691.80943        35.835
  21531268.23448 113147778.91348     -1458.21148        47.320    21531268.90946
  88167162.93646     -1136.27046        42.051
  23527781.29946 123639350.89046      3280.16446        41.316    23527787.26142
  96342363.31642      2555.97342        32.840
  23976432.45345 125997174.49645     -3141.53545        41.027    23976438.98244
  98179705.63344     -2447.95744        38.003
  21899325.77348 115081900.80648      1556.71948        47.433    21899328.48545
  89674239.20845      1213.02345        39.548
 14  3 20  1 16  0.0000000  0 11G 3G 5G 7G 8G 9G11G13G19G26G27G28
  22170936.44747 116509257.42447     -2886.42647        45.219    22170939.75844
  90786493.29944     -2249.16844        37.376
  25230014.09845 132584618.97645     -1325.04345        40.903    25230022.33442
 103312704.36942     -1032.50442        34.355
  20215721.43949 106234485.29349       -18.16449        49.311    20215723.07748
  82780173.50048       -14.15648        45.640
  21082178.35349 110787760.84749      1824.67649        49.372    21082180.60046
  86328227.02646      1421.82046        41.775
  20727773.28349 108925317.31149      2197.33249        48.758    20727776.23846
  84876957.83746      1712.20346        42.781
  23170939.40047 121764149.06147      2485.67247        43.446    23170942.99142
  94881173.70142      1936.88742        34.395
  22371496.15648 117563107.45848     -3464.30948        46.334    22371499.26843
  91607733.83643     -2699.46543        35.957
  21539648.62848 113191818.31848     -1477.93448        47.243    21539649.37046
  88201479.37546     -1151.64146        42.114
  23509088.99046 123541123.53246      3268.16046        41.753    23509094.83341
  96265822.69441      2546.61741        31.622
  23994392.39646 126091554.93646     -3150.42646        41.160    23994399.17944
  98253248.81044     -2454.87944        37.620
  21890462.25549 115035322.86649      1548.49249        48.072    21890464.99445
  89637944.77445      1206.61345        39.927
 14  3 20  1 16 30.0000000  0 11G 3G 5G 7G 8G 9G11G13G19G26G27G28
  22187452.32947 116596048.85347     -2899.64147        45.258    22187455.31344
  90854122.95844     -2259.46544        37.737
  25237615.47544 132624565.28644     -1337.99244        38.678    25237624.07243
 103343831.23443     -1042.59843        34.804
  20215860.03449 106235213.95449       -30.38749        49.084    20215861.72548
  82780741.31248       -23.68048        45.822
  21071780.09449 110733118.71849      1817.95749        49.366    21071782.43946
  86285648.79946      1416.58646        41.806
  20715257.18649 108859545.41249      2187.38749        48.845    20715260.18046
  84825707.07146      1704.45346        42.089
  23156777.99147 121689730.30747      2475.50047        43.772    23156781.50243
  94823185.18743      1928.96143        35.353
  22391298.90248 117667170.33548     -3473.46548        46.191    22391301.90043
  91688821.72243     -2706.59843        36.537
  21548141.58248 113236448.47048     -1497.42248        47.665    21548142.33046
  88236256.13546     -1166.82446        42.128
  23490463.94845 123443248.47245      3256.23445        39.801    23490469.93943
  96189556.56443      2537.33243        34.752
  24012403.60646 126186203.89046     -3159.60546        41.652    24012410.24544
  98327001.21944     -2462.03544        37.144
  21881646.39248 114988995.96048      1540.03948        47.380    21881649.15245
  89601845.95745      1200.02745        39.714
 14  3 20  1 17  0.0000000  0 11G 3G 5G 7G 8G 9G11G13G19G26G27G28
  22204044.22647 116683239.54947     -2912.82847        45.393    22204047.15144
  90922063.77544     -2269.73844        37.340
  25245289.16245 132664889.37645     -1350.26245        39.088    25245297.70944
 103375252.57844     -1052.15644        37.247
  20216068.88649 106236312.02049       -42.77349        49.280    20216070.58148
  82781596.97248       -33.33248        45.763
  21061421.08349 110678682.20149      1811.16449        49.552    21061423.40646
  86243230.77946      1411.29346        41.934
  20702797.54149 108794070.02449      2177.46949        48.790    20702800.47246
  84774687.36246      1696.72746        42.094
  23142673.75647 121615612.56447      2465.50447        43.369    23142677.70944
  94765431.26844      1921.17244        37.183
  22411155.37948 117771515.37148     -3482.86748        45.734    22411158.39143
  91770129.48443     -2713.92643        35.981
  21556746.48948 113281667.38648     -1517.14548        47.532    21556747.03446
  88271491.68346     -1182.19546        41.737
  23471906.54646 123345728.87946      3244.63746        41.840    23471912.51242
  96113567.45042      2528.28542        34.259
  24030465.68746 126281118.72346     -3168.67646        42.434    24030471.92143
  98400960.83443     -2469.10243        35.819
  21872878.26048 114942919.71948      1531.76648        47.649    21872880.80645
  89565942.46145      1193.58245        39.825
 14  3 20  1 17 30.0000000  0 11G 3G 5G 7G 8G 9G11G13G19G26G27G28
  22220711.60747 116770826.44847     -2926.17247        45.314    22220714.68844
  90990313.27244     -2280.13744        37.916
  25253034.29044 132705589.46944     -1362.92244        38.753    25253043.08543
 103406966.80243     -1062.02343        36.513
  20216348.32849 106237780.65249       -55.14849        49.344    20216349.88747
  82782741.39047       -42.97747        45.551
  21051101.57149 110624452.93049      1804.10549        49.613    21051103.83946
  86200974.24846      1405.79346        41.744
  20690394.85149 108728893.34349      2167.53149        48.917    20690397.50046
  84723900.39446      1688.98046        42.244
  23128627.51447 121541799.01047      2455.40247        43.983    23128631.44643
  94707914.34143      1913.30143        35.393
  22431064.99048 117876140.65848     -3492.11748        46.192    22431067.96743
  91851655.62343     -2721.13343        35.947
  21565463.00648 113327473.49148     -1536.50848        47.351    21565463.40346
  88307184.76246     -1197.28146        41.568
  23453417.30245 123248567.71545      3232.84045        40.591    23453422.80943
  96037857.57743      2519.09443        35.603
  24048577.38346 126376296.69846     -3177.03546        41.909    24048583.81044
  98475125.47544     -2475.61344        37.302
  21864157.75748 114897093.45148      1523.37948        47.417    21864160.36345
  89530233.76145      1187.04745        39.105
 14  3 20  1 18  0.0000000  0 11G 3G 5G 7G 8G 9G11G13G19G26G27G28
  22237453.79647 116858806.61247     -2938.99247        45.019    22237456.79744
  91058869.24444     -2290.12944        38.314
  25260850.12244 132746663.16944     -1375.62544        38.220    25260858.99342
 103438972.16842     -1071.92242        33.578
  20216698.44549 106239620.18849       -67.52749        49.549    20216699.84847
  82784174.81447       -52.62147        45.374
  21040821.82349 110570432.56949      1797.10949        49.469    21040824.10346
  86158880.49946      1400.34046        42.363
  20678049.26849 108664017.41949      2157.45749        48.704    20678051.88246
  84673347.77246      1681.13346        42.763
  23114639.43446 121468292.63146      2444.99246        43.321    23114643.76243
  94650636.80043      1905.18843        35.596
  22451027.02448 117981042.21048     -3501.30548        46.115    22451030.48844
  91933397.01444     -2728.29344        36.869
  21574290.89848 113373864.74548     -1556.25848        46.994    21574291.41646
  88343333.80746     -1212.67246        42.787
  23434996.64245 123151768.15545      3220.65645        40.697    23435002.56342
  95962429.55142      2509.60542        34.135
  24066738.78446 126471735.19746     -3185.63746        41.210    24066744.96843
  98549493.12543     -2482.31643        34.992
  21855484.77948 114851517.16848      1515.08648        47.281    21855487.38845
  89494719.83345      1180.58245        40.334
 14  3 20  1 18 30.0000000  0 11G 3G 5G 7G 8G 9G11G13G19G26G27G28
  22254269.89847 116947177.55047     -2952.18047        44.065    22254273.39644
  91127729.68544     -2300.40244        37.390
  25268736.71642 132788108.39242     -1387.97742        33.911    25268745.85041
 103471267.09441     -1081.54341        24.078
  20217119.36949 106241831.82149       -79.99249        49.366    20217120.61847
  82785898.18647       -62.33647        45.389
  21030582.02349 110516622.67149      1790.06649        49.474    21030584.63246
  86116950.76446      1394.85546        42.770
  20665761.33549 108599444.10149      2147.24249        49.024    20665764.18046
  84623030.96346      1673.17246        42.628
  23100711.09147 121395096.69747      2434.52747        44.405    23100715.48744
  94593601.13844      1897.03144        36.897
  22471041.17847 118086217.90047     -3510.49247        44.830    22471044.42043
  92015352.03343     -2735.45343        36.330
  21583229.91248 113420839.03248     -1575.59048        47.655    21583230.46246
  88379937.15846     -1227.73446        42.328
  23416645.49945 123055333.21545      3208.12945        40.897    23416650.91542
  95887285.58742      2499.84042        33.655
  24084949.06345 126567431.56845     -3194.10945        40.519    24084955.52744
  98624061.68844     -2488.91844        37.656
  21846859.30848 114806190.30648      1506.69948        47.326    21846861.90945
  89459400.28045      1174.04745        40.237
 14  3 20  1 19  0.0000000  0 11G 3G 5G 7G 8G 9G11G13G19G26G27G28
  22271159.98247 117035935.92347     -2965.03547        44.974    22271163.48044
  91196892.05144     -2310.42244        37.305
  25276694.00542 132829922.47642     -1400.26242        32.309    25276702.77641
 103503849.46141     -1091.11341        19.888
  20217611.29649 106244416.98449       -92.41449        49.360    20217612.64648
  82787912.62048       -72.01648        45.632
  21020382.54949 110463024.65849      1783.05149        49.449    21020385.36446
  86075186.13646      1389.38746        42.263
  20653531.55049 108535175.32249      2137.17249        49.360    20653534.36246
  84572951.45646      1665.32446        42.647
  23086842.30047 121322214.18847      2424.04747        44.246    23086845.83843
  94536809.67243      1888.86343        35.619
  22491107.18148 118191664.88248     -3519.45748        45.572    22491110.56844
  92097518.44644     -2742.43844        37.186
  21592279.61049 113468394.54149     -1594.99249        47.928    21592280.04146
  88416993.40446     -1242.85546        41.776
  23398364.66046 122959266.00846      3196.23846        41.981    23398369.64242
  95812428.17242      2490.57442        32.532
  24103207.80946 126663383.11346     -3202.62546        41.583    24103214.51544
  98698829.07644     -2495.55544        37.176
  21838281.31648 114761112.50348      1498.46948        47.513    21838283.91445
  89424274.78945      1167.63745        40.203
 14  3 20  1 19 30.0000000  0 10G 3G 7G 8G 9G11G13G19G26G27G28
  22288123.46747 117125078.92247     -2977.71147        44.660    22288126.78644
  91266354.10744     -2320.29744        37.279
  20218174.41049 106247376.57949      -104.87549        49.343    20218175.85247
  82790218.82347       -81.72347        45.041
  21010223.79249 110409640.26849      1775.96549        49.265    21010226.63146
  86033587.97046      1383.86746        42.830
  20641360.02349 108471213.23949      2126.92249        49.203    20641362.83846
  84523110.94946      1657.34046        42.628
  23073033.40647 121249648.00447      2413.66447        43.805    23073036.79743
  94480264.71943      1880.77343        35.510
  22511223.92648 118297380.59148     -3528.29348        46.528    22511227.62043
  92179894.23443     -2749.32443        34.683
  21601439.51148 113516529.57148     -1614.10548        47.744    21601439.77146
  88454501.23646     -1257.74646        42.542
  23380154.33446 122863569.49946      3183.68846        42.860    23380159.54743
  95737859.58843      2480.79343        35.312
  24121515.08446 126759587.17646     -3211.27346        41.178    24121521.70344
  98773793.27044     -2502.29344        37.121
  21829750.62648 114716283.53048      1490.12948        47.678    21829753.24145
  89389343.21545      1161.13745        39.266
 14  3 20  1 20  0.0000000  0 10G 3G 7G 8G 9G11G13G19G26G27G28
  22305159.44247 117214603.44147     -2990.50847        45.046    22305162.73643
  91336113.47943     -2330.27043        35.797
  20218808.90049 106250711.24149      -117.43849        49.314    20218810.51148
  82792817.27648       -91.51248        45.592
  21000106.04249 110356471.06549      1768.72349        49.401    21000108.87746
  85992157.46846      1378.22346        42.563
  20629247.06949 108407559.99349      2116.61349        49.015    20629250.08846
  84473511.09246      1649.30546        42.833
  23059284.96147 121177401.38247      2402.90647        43.798    23059288.20743
  94423968.78443      1872.39543        34.795
  22531391.69147 118403362.20347     -3536.98447        44.409    22531395.63843
  92262477.26243     -2756.09843        35.791
  21610709.22348 113565241.98448     -1633.43448        47.542    21610709.43046
  88492458.97646     -1272.80946        42.235
  23362014.96246 122768246.85846      3171.11346        41.831    23362020.55643
  95663582.36043      2470.99643        34.811
  24139869.63245 126856041.10145     -3219.54745        40.900    24139876.39344
  98848952.12244     -2508.74244        38.077
  21821267.22948 114671703.03548      1482.03548        47.721    21821269.74544
  89354605.23644      1154.82844        38.763
 14  3 20  1 20 30.0000000  0 10G 3G 7G 8G 9G11G13G19G26G27G28
  22322267.30547 117304506.97047     -3002.86747        44.076    22322270.86544
  91406168.15344     -2339.89844        37.508
  20219515.08249 106254422.48649      -130.03549        49.235    20219516.77648
  82795709.18148      -101.32848        45.681
  20990029.63249 110303518.60749      1761.39849        49.672    20990032.29046
  85950895.85446      1372.51646        42.772
  20617193.33949 108344217.66749      2106.23049        49.214    20617196.37846
  84424153.51446      1641.21546        42.937
  23045598.06747 121105477.23847      2392.23047        44.239    23045601.28743
  94367924.10543      1864.07443        35.259
  22551609.51048 118509606.85648     -3545.93848        46.603    22551613.41142
  92345265.21342     -2763.07042        33.380
  21620088.27448 113614529.73448     -1652.64548        47.314    21620088.64146
  88530865.02846     -1287.77746        42.704
  23343947.28845 122673301.05145      3158.49645        40.915    23343952.86042
  95589598.75542      2461.16842        34.368
  24158271.37946 126952742.25246     -3227.46546        41.525    24158278.00743
  98924303.65243     -2514.91043        35.077
  21812831.05049 114627370.56049      1473.56249        47.796    21812833.46945
  89320060.54245      1148.22745        39.913
 14  3 20  1 21  0.0000000  0 10G 3G 7G 8G 9G11G13G19G26G27G28
  22339446.90447 117394786.54247     -3015.54347        44.436    22339450.54144
  91476515.84644     -2349.77744        37.172
  20220292.94649 106258510.48949      -142.57049        49.228    20220294.65847
  82798894.65847      -111.09847        45.475
  20979994.63949 110250784.72249      1754.15649        49.307    20979997.30346
  85909804.56146      1366.87146        42.622
  20605199.11449 108281187.92249      2095.87949        48.882    20605202.05746
  84375039.49446      1633.14846        42.906
  23031973.23247 121033878.69247      2381.06247        44.657    23031976.73344
  94312133.17244      1855.37144        37.242
  22571876.76247 118616112.06747     -3554.43847        44.740    22571880.74044
  92428256.21644     -2769.69944        37.622
  21629576.42848 113664390.87548     -1671.67248        47.337    21629576.92646
  88569717.87646     -1302.60546        42.313
  23325951.58146 122578735.20546      3145.71546        41.722    23325957.68042
  95515911.22142      2451.20342        34.071
  24176719.66145 127049687.97945     -3235.01245        41.020    24176725.82743
  98999845.78843     -2520.78943        36.657
  21804441.92148 114583285.70248      1465.27748        47.614    21804444.37645
  89285708.78045      1141.77045        39.287
 14  3 20  1 21 30.0000000  0 10G 3G 7G 8G 9G11G13G19G26G27G28
  22356697.29647 117485438.97147     -3027.85547        44.394    22356701.07544
  91547154.09544     -2359.37144        37.790
  20221142.85349 106262976.84749      -155.24649        49.319    20221144.56047
  82802374.95347      -120.97347        45.550
  20970001.45549 110198271.00349      1746.74649        49.539    20970004.17746
  85868884.83246      1361.09846        42.284
  20593264.64749 108218472.91749      2085.29349        48.918    20593267.51146
  84326170.72146      1624.90246        42.537
  23018410.92647 120962608.62147      2370.12147        44.174    23018414.60344
  94256598.17444      1846.84444        36.865
  22592193.70948 118722874.77048     -3562.98848        46.034    22592197.56243
  92511447.85243     -2776.35943        35.667
  21639173.36148 113714823.44548     -1690.50448        47.610    21639173.98846
  88609015.99546     -1317.27746        42.241
  23308028.74745 122484552.28445      3132.79745        40.756    23308035.07643
  95442522.08943      2441.14143        35.673
  24195214.12645 127146875.60045     -3243.69145        41.043    24195219.75142
  99075576.41042     -2527.55542        34.415
  21796099.92049 114539448.05349      1457.05149        47.922    21796102.15845
  89251549.63945      1135.35945        40.168
 14  3 20  1 22  0.0000000  0 10G 3G 7G 8G 9G11G13G19G26G27G28
  22374018.37547 117576461.50647     -3040.17647        44.502    22374022.32544
  91618080.72544     -2368.97344        36.751
  20222064.96749 106267822.34649      -167.78949        49.390    20222066.67748
  82806150.68448      -130.74648        45.615
  20960050.67049 110145978.97749      1739.34849        49.721    20960053.12546
  85828137.83146      1355.33246        42.094
  20581390.58049 108156074.79449      2074.63749        48.997    20581393.22946
  84277548.86246      1616.59846        42.199
  23004911.56547 120891670.12747      2358.94547        44.182    23004915.41843
  94201321.55843      1838.13743        36.590
  22612557.93347 118829892.49847     -3571.26647        45.259    22612561.58343
  92594838.20743     -2782.81243        35.266
  21648878.76948 113765825.24448     -1709.52348        47.631    21648879.11046
  88648757.67146     -1332.09846        42.745
  23290179.66246 122390755.44146      3120.25046        41.215    23290186.28142
  95369433.81042      2431.36342        34.062
  24213753.78045 127244302.52045     -3251.39145        41.054    24213759.65343
  99151493.45243     -2533.55543        34.869
  21787804.82048 114495857.23048      1448.88748        47.721    21787807.06345
  89217582.84545      1129.00045        40.031
 14  3 20  1 22 30.0000000  0 10G 3G 7G 8G 9G11G13G19G26G27G28
  22391409.36347 117667851.41947     -3052.30947        44.953    22391413.38344
  91689293.61944     -2378.42644        38.503
  20223059.36849 106273047.94049      -180.64149        49.205    20223061.18148
  82810222.58748      -140.76248        45.650
  20950142.52149 110093910.51449      1731.87149        49.566    20950144.53646
  85787565.03746      1349.50846        41.690
  20569577.22549 108093995.47749      2063.98449        49.181    20569579.73646
  84229175.42246      1608.29746        42.363
  22991475.79347 120821066.56747      2347.68047        43.690    22991479.43443
  94146305.94443      1829.36343        34.958
  22632971.21147 118937162.05847     -3579.89147        45.216    22632975.06843
  92678424.80343     -2789.52743        35.615
  21658692.04848 113817394.36248     -1728.34048        47.584    21658692.33546
  88688941.41546     -1346.76246        42.323
  23272404.86946 122297347.72146      3107.02046        41.813    23272410.93242
  95296648.66242      2421.05142        33.662
  24232338.36546 127341966.02346     -3259.68046        41.841    24232344.90844
  99227594.88144     -2540.01244        37.229
  21779556.59249 114452513.13249      1440.68049        47.903    21779558.98645
  89183808.31745      1122.60545        39.431
 14  3 20  1 23  0.0000000  0 10G 3G 7G 8G 9G11G13G19G26G27G28
  22408869.86347 117759605.77547     -3064.58647        44.385    22408873.75844
  91760790.50744     -2387.99244        37.822
  20224126.26849 106278655.00849      -193.33249        49.066    20224128.29748
  82814591.74648      -150.65248        45.802
  20940277.06149 110042067.24549      1724.30549        49.666    20940278.82746
  85747167.72546      1343.60946        41.830
  20557824.96249 108032237.03549      2053.23849        49.085    20557827.42846
  84181052.01646      1599.92246        42.279
  22978104.48547 120750800.34847      2336.56247        44.343    22978107.85343
  94091553.17443      1820.69943        35.584
  22653431.07648 119044680.62248     -3587.99648        46.458    22653434.09543
  92762205.45343     -2795.84443        34.541
  21668612.76848 113869528.73748     -1747.20348        47.103    21668613.07246
  88729565.62646     -1361.46146        41.777
  23254704.27246 122204332.06846      3093.82846        41.530    23254710.48643
  95224169.08143      2410.77343        34.764
  24250967.57446 127439863.45846     -3267.02746        41.522    24250974.03844
  99303878.57344     -2545.73844        37.692
  21771355.18849 114409415.01449      1432.52349        47.814    21771357.62045
  89150225.44845      1116.25045        40.645
 14  3 20  1 23 30.0000000  0 10G 3G 7G 8G 9G11G13G19G26G27G28
  22426398.68547 117851721.51547     -3076.54347        43.922    22426402.75944
  91832568.98144     -2397.30944        37.263
  20225265.82049 106284643.78949      -206.01249        49.171    20225267.95548
  82819258.34148      -160.53148        45.883
  20930454.70949 109990450.80349      1716.71949        49.692    20930456.45546
  85706947.16646      1337.69946        41.960
  20546134.12349 107970801.38049      2042.51649        49.399    20546136.43246
  84133180.12546      1591.56646        42.563
  22964798.05347 120680874.93647      2325.15247        44.148    22964801.24042
  94037065.93942      1811.80542        34.212
  22673937.68347 119152445.78947     -3596.22747        43.614    22673941.84843
  92846178.19643     -2802.26243        36.518
  21678640.71848 113922226.05748     -1765.94148        47.380    21678640.92546
  88770628.48446     -1376.06246        42.350
  23237079.38446 122111711.58946      3080.74246        42.249    23237084.96742
  95151997.36942      2400.57442        34.239
  24269640.66246 127537992.21746     -3274.82446        41.171    24269647.29044
  99380342.53744     -2551.81244        37.052
  21763200.46849 114366562.64549      1424.40649        47.982    21763203.05545
  89116834.07245      1109.92245        39.600
 14  3 20  1 24  0.0000000  0 10G 3G 7G 8G 9G11G13G19G26G27G28
  22443995.99047 117944195.66847     -3088.49647        44.175    22444000.06444
  91904626.73444     -2406.62544        38.352
  20226478.33049 106291015.48549      -218.81649        49.237    20226480.39148
  82824223.31448      -170.50848        45.650
  20920675.79449 109939062.70849      1709.09049        49.385    20920677.57446
  85666904.53746      1331.75446        41.934
  20534505.28149 107909690.83649      2031.50849        49.248    20534507.20946
  84085561.56946      1582.98846        42.446
  22951557.24047 120611293.17147      2313.72747        44.375    22951560.10243
  93982846.50143      1802.90243        36.287
  22694491.53448 119260454.41348     -3604.23448        46.016    22694494.50942
  92930340.71642     -2808.49642        34.346
  21688775.55448 113975484.26348     -1784.60248        47.543    21688775.50146
  88812128.41446     -1390.60246        41.699
  23219529.96946 122019489.25946      3067.49246        42.920    23219535.45842
  95080135.93642      2390.25042        32.456
  24288357.59845 127636349.61245     -3282.56645        40.972    24288363.95143
  99456984.64343     -2557.84843        36.061
  21755092.43348 114323955.52148      1416.09048        47.762    21755095.04245
  89083633.80245      1103.44545        39.959
 14  3 20  1 24 30.0000000  0 10G 3G 7G 8G 9G11G13G19G26G27G28
  22461661.09647 118037025.65347     -3100.26247        44.657    22461665.04144
  91976961.76944     -2415.79344        37.006
  20227763.95149 106297771.20749      -231.58649        49.335    20227765.84248
  82829487.52548      -180.46148        45.627
  20910940.67349 109887904.87749      1701.41849        49.532    20910942.58446
  85627041.33446      1325.77746        42.559
  20522938.64949 107848907.39149      2020.70749        49.562    20522940.55346
  84038197.89846      1574.57446        42.302
  22938382.37247 120542058.20147      2301.98047        44.772    22938384.73043
  93928897.29643      1793.75043        34.936
  22715090.47947 119368704.02247     -3612.20747        45.256    22715094.82743
  93014690.91343     -2814.71543        36.028
  21699016.58948 114029301.44548     -1803.22348        47.529    21699016.59746
  88854063.89446     -1405.11346        42.030
  23202056.86946 121927668.17546      3053.90646        41.661    23202061.89742
  95008587.14742      2379.66842        33.579
  24307117.54645 127734933.04845     -3290.01645        40.660    24307123.76344
  99533802.87244     -2563.65244        36.929
  21747031.18049 114281593.29049      1407.98049        47.986    21747033.62245
  89050624.35645      1097.12545        39.252
 14  3 20  1 25  0.0000000  0 10G 3G 7G 8G 9G11G13G19G26G27G28
  22479393.37447 118130208.28847     -3112.04747        44.649    22479397.08744
  92049571.60544     -2424.97744        37.562
  20229122.74749 106304911.59549      -244.39549        49.324    20229124.65748
  82835051.48448      -190.44148        45.674
  20901249.69649 109836978.80849      1693.59849        49.477    20901251.79846
  85587358.73246      1319.68446        42.010
  20511434.63149 107788453.01349      2009.66449        49.597    20511436.62946
  83991090.64546      1565.96946        42.791
  22925273.88447 120473172.81447      2290.39547        44.689    22925276.41643
  93875220.49143      1784.72343        35.785
  22735735.43347 119477191.66847     -3620.17247        43.752    22735739.27344
  93099226.71444     -2820.91844        37.941
  21709363.47148 114083675.19548     -1821.78548        47.175    21709363.50446
  88896433.07446     -1419.57446        41.981
  23184660.70446 121836251.30846      3040.54346        41.605    23184665.96343
  94937353.33743      2369.25443        35.676
  24325919.95045 127833739.87845     -3297.33245        40.010    24325925.78342
  99610795.20442     -2569.35242        33.897
  21739016.49949 114239475.40949      1399.80949        48.217    21739018.68345
  89017805.29645      1090.75845        39.778
 14  3 20  1 25 30.0000000  0 10G 3G 7G 8G 9G11G13G19G26G27G28
  22497192.02447 118223740.48947     -3123.59047        44.498    22497195.77144
  92122453.82444     -2433.96944        37.789
  20230555.00949 106312437.92349      -257.34449        49.253    20230556.93348
  82840916.17148      -200.53148        45.678
  20891603.24949 109786286.29549      1685.85249        49.637    20891605.56146
  85547858.11946      1313.64846        42.989
  20499993.53849 107728329.72349      1998.56249        49.450    20499995.75946
  83944241.39046      1557.31646        42.705
  22912232.32047 120404640.07647      2278.58647        44.196    22912235.31044
  93821818.47944      1775.52044        37.639
  22756424.61248 119585914.69748     -3627.99648        46.041    22756428.94843
  93183945.84143     -2827.01243        35.649
  21719815.89448 114138603.35148     -1840.21148        46.833    21719816.06146
  88939234.24946     -1433.93446        42.325
  23167342.00646 121745241.73846      3026.74246        43.087    23167347.27543
  94866436.91443      2358.49643        36.115
  24344764.17846 127932767.48846     -3304.38746        41.338    24344770.31442
  99687959.60042     -2574.85242        34.063
  21731048.13148 114197601.61048      1391.71148        47.585    21731050.38145
  88985176.43145      1084.44545        39.709
 14  3 20  1 26  0.0000000  0 10G 3G 7G 8G 9G11G13G19G26G27G28
  22515056.43147 118317619.56247     -3134.97747        43.516    22515060.32843
  92195606.32543     -2442.84443        36.360
  20232060.82149 106320350.93049      -270.21549        49.202    20232062.56748
  82847082.17148      -210.55948        45.713
  20882001.53249 109735829.04449      1678.03949        49.424    20882004.13246
  85508540.83546      1307.55946        43.170
  20488615.78849 107668539.75949      1987.34049        49.447    20488618.18946
  83897651.87246      1548.57446        43.204
  22899258.40347 120336462.78847      2266.62547        43.758    22899261.59344
  93768693.45744      1766.20344        36.863
  22777158.46347 119694870.14247     -3635.64847        44.342    22777162.40143
  93268846.12643     -2832.97743        35.380
  21730373.34748 114194083.78948     -1858.40248        46.908    21730373.64646
  88982465.77946     -1448.10946        42.063
  23150101.66046 121654642.40946      3013.21146        42.348    23150106.97143
  94795840.16743      2347.95743        34.917
  24363649.97145 128032013.27345     -3311.63345        40.311    24363656.65244
  99765293.98144     -2580.49644        37.610
  21723125.99048 114155971.57348      1383.51248        47.218    21723128.48745
  88952737.52945      1078.05945        40.340
 14  3 20  1 26 30.0000000  0 10G 3G 7G 8G 9G11G13G19G26G27G28
  22532986.41247 118411842.54547     -3146.53947        43.653    22532990.54344
  92269026.81244     -2451.85244        37.973
  20233640.33949 106328651.52549      -283.15249        49.293    20233641.96747
  82853550.18147      -220.64147        45.467
  20872444.79949 109685608.75049      1670.00049        49.399    20872447.55546
  85469408.19946      1301.29746        42.969
  20477301.97749 107609085.16849      1976.17649        49.322    20477304.25446
  83851323.67846      1539.87546        43.193
  22886352.76347 120268644.01847      2254.65647        44.405    22886356.03344
  93715847.77144      1756.87144        38.353
  22797935.80148 119804055.27948     -3643.21548        45.748    22797939.66243
  93353925.39043     -2838.87143        36.220
  21741035.60948 114250114.39548     -1876.82048        47.120    21741036.08246
  89026125.99746     -1462.46146        42.268
  23132939.87146 121564456.44946      2999.17246        43.079    23132945.30443
  94725565.48143      2337.01643        35.047
  24382576.74746 128131474.51646     -3319.24646        41.332    24382583.79742
  99842796.28642     -2586.42642        33.799
  21715250.19548 114114584.81248      1375.44948        47.761    21715252.43045
  88920488.17545      1071.77745        39.386
 14  3 20  1 27  0.0000000  0 10G 3G 7G 8G 9G11G13G19G26G27G28
  22550981.48647 118506406.42047     -3157.82047        43.906    22550985.52044
  92342712.92844     -2460.64144        38.200
  20235293.72349 106337340.41949      -296.08249        49.370    20235295.32047
  82860320.76847      -230.71547        45.218
  20862933.53049 109635627.14349      1661.94149        49.339    20862936.36246
  85430461.53346      1295.01646        43.208
  20466052.24849 107549967.69849      1964.99649        49.233    20466054.38546
  83805258.16346      1531.16446        42.594
  22873516.10047 120201186.85647      2242.54347        44.920    22873519.37243
  93663283.89643      1747.44143        36.057
  22818756.18548 119913467.22948     -3650.77048        45.596    22818760.53043
  93439181.32843     -2844.76243        35.037
  21751802.26948 114306692.86848     -1895.18848        47.627    21751802.51046
  89070213.14246     -1476.77346        42.027
  23115857.23846 121474686.67746      2985.53146        42.447    23115862.57243
  94655615.12943      2326.39143        34.694
  24401544.04245 128231148.59545     -3326.14545        40.529    24401551.02943
  99920464.41843     -2591.80543        36.613
  21707420.61748 114073440.82148      1367.44148        47.707    21707422.60145
  88888427.99245      1065.53545        38.924
 14  3 20  1 27 30.0000000  0 10G 3G 7G 8G 9G11G13G19G26G27G28
  22569041.08047 118601308.32547     -3169.09447        44.379    22569044.84644
  92416662.43844     -2469.42644        37.285
  20237021.19849 106346418.61149      -309.11349        49.255    20237022.73347
  82867394.69747      -240.87147        45.324
  20853468.00949 109585885.69649      1653.98849        49.531    20853470.94046
  85391702.01546      1288.82046        42.919
  20454866.91649 107491189.61149      1953.62949        49.034    20454869.27347
  83759457.12247      1522.30547        43.396
  22860749.00947 120134094.34947      2230.25047        44.881    22860751.74543
  93611004.11643      1737.85943        36.046
  22839619.69047 120023103.30347     -3658.17247        44.721    22839623.43644
  93524612.02344     -2850.52744        36.800
  21762672.52948 114363816.95848     -1913.01648        47.407    21762672.71445
  89114725.43245     -1490.66445        40.687
  23098854.15346 121385336.19246      2971.27746        42.051    23098859.08642
  94585991.49442      2315.27742        32.596
  24420551.23045 128331032.95545     -3333.15645        39.828    24420558.11144
  99998296.34744     -2597.27044        37.705
  21699637.19948 114032539.28948      1359.28548        47.526    21699639.24145
  88856556.73545      1059.18045        39.656
 14  3 20  1 28  0.0000000  0 11G 1G 3G 7G 8G 9G11G13G19G26G27G28
  24740674.84945 130013120.06945      2922.75845        40.098    24740682.27843
 101308933.77143      2277.46943        34.557
  22587164.18647 118696545.25947     -3180.16047        44.270    22587167.80843
  92490873.01643     -2478.05143        36.441
  20238822.96849 106355887.09049      -322.16049        49.242    20238824.46047
  82874772.74947      -251.03547        45.253
  20844048.50649 109536386.11349      1645.96149        49.702    20844051.56546
  85353130.96946      1282.56246        42.853
  20443746.60049 107432752.91249      1942.11749        49.409    20443749.04646
  83713922.09946      1513.33646        43.026
  22848051.42147 120067369.03647      2218.09047        44.538    22848054.43444
  93559010.50844      1728.38344        37.140
  22860524.79447 120132960.86447     -3665.46547        44.667    22860529.13943
  93610215.22643     -2856.21143        35.021
  21773646.27748 114421484.24648     -1931.33648        47.251    21773646.21546
  89159660.99946     -1504.94146        41.390
  23081931.21346 121296407.93646      2957.19946        41.615    23081936.42642
  94516696.87642      2304.30942        33.224
  24439598.16345 128431124.92445     -3340.00845        40.517    24439604.68942
 100076290.11442     -2602.60542        33.976
  21691899.82848 113991879.60848      1351.23048        47.613    21691901.82145
  88824873.94445      1052.90245        39.958
 14  3 20  1 28 30.0000000  0 11G 1G 3G 7G 8G 9G11G13G19G26G27G28
  24723990.23546 129925438.04046      2922.34446        42.227    24723997.85242
 101240610.33142      2277.15642        34.401
  22605350.38347 118792114.39647     -3191.21147        43.971    22605353.94743
  92565342.47543     -2486.66043        35.971
  20240699.14749 106365746.61849      -335.19949        49.407    20240700.62247
  82882455.52047      -261.19947        45.126
  20834675.38249 109487130.30949      1637.78149        49.668    20834678.47446
  85314749.87146      1276.19146        43.038
  20432691.75049 107374659.59149      1930.81249        49.415    20432694.17746
  83668654.64046      1504.52746        42.742
  22835424.39447 120001014.17847      2205.61347        44.925    22835427.24144
  93507305.53544      1718.66044        36.720
  22881471.44647 120243036.67947     -3672.84047        44.507    22881475.41043
  93695988.53143     -2861.95743        36.204
  21784723.10848 114479692.58048     -1949.31248        47.512    21784723.07946
  89205018.15246     -1518.94946        41.995
  23065089.24646 121207904.79346      2943.00846        41.703    23065094.49541
  94447733.51841      2293.25441        29.925
  24458684.32645 128531421.89845     -3346.71545        40.918    24458690.18943
 100154443.60243     -2607.83243        34.761
  21684208.45249 113951461.42249      1343.21149        47.788    21684210.50745
  88793379.32845      1046.65645        39.327
 14  3 20  1 29  0.0000000  0 11G 1G 3G 7G 8G 9G11G13G19G26G27G28
  24707307.68945 129837773.98845      2922.00845        39.221    24707315.70842
 101172300.84242      2276.89542        34.405
  22623598.90747 118888012.60847     -3202.25047        43.593    22623602.60943
  92640068.33343     -2495.26243        36.322
  20242650.04849 106375998.48149      -348.19949        49.228    20242651.43347
  82890444.00347      -271.32847        45.086
  20825349.05649 109438120.01749      1629.53149        49.669    20825351.95246
  85276560.07646      1269.76246        42.911
  20421702.56449 107316911.62149      1919.16049        49.133    20421705.01346
  83623656.26946      1495.44546        42.457
  22822868.53547 119935032.50547      2193.24247        45.269    22822871.47044
  93455891.36744      1709.02044        37.400
  22902458.99447 120353327.88847     -3679.93847        44.311    22902463.20543
  93781929.64343     -2867.48843        35.337
  21795902.46548 114538439.84348     -1967.12548        47.277    21795902.52746
  89250795.23546     -1532.82846        41.705
  23048329.04046 121119829.91646      2928.48046        42.330    23048334.73942
  94379103.88742      2281.93442        34.022
  24477808.78345 128631921.24745     -3353.03145        41.008    24477814.73643
 100232754.77743     -2612.75443        35.160
  21676563.12149 113911284.47849      1335.29749        48.061    21676565.21845
  88762072.69145      1040.48845        39.746
 14  3 20  1 29 30.0000000  0 11G 1G 3G 7G 8G 9G11G13G19G26G27G28
  24690629.05343 129750131.00643      2921.58643        36.243    24690638.20941
 101104007.82641      2276.55941        31.679
  22641909.83447 118984237.45547     -3212.97747        43.635    22641913.63743
  92715048.72743     -2503.62143        36.412
  20244675.66349 106386642.75649      -361.48849        49.345    20244676.95547
  82898738.25347      -281.68447        45.133
  20816069.82849 109389356.88049      1621.39549        49.689    20816072.26146
  85238562.86746      1263.42246        43.039
  20410779.53749 107259511.13949      1907.55149        49.284    20410782.01946
  83578928.68746      1486.39846        42.814
  22810384.00247 119869427.13147      2180.54747        44.252    22810386.79744
  93404770.40244      1699.12944        36.793
  22923487.27447 120463831.29947     -3687.02347        44.804    22923491.40442
  93868036.14842     -2873.00842        33.341
  21807183.85148 114597723.44748     -1984.99248        47.378    21807183.90646
  89296990.25946     -1546.75046        42.469
  23031651.26947 121032186.23547      2914.05147        43.515    23031656.53342
  94310810.20742      2270.68842        32.751
  24496971.43645 128732620.34045     -3359.66045        40.168    24496977.11842
 100311221.63742     -2617.92242        34.235
  21668963.63149 113871347.93149      1327.19149        48.398    21668965.62545
  88730953.38245      1034.17245        39.831
 14  3 20  1 30  0.0000000  0 11G 1G 3G 7G 8G 9G11G13G19G26G27G28
  24673954.97645 129662512.00945      2920.34845        39.562    24673964.56743
 101035733.63943      2275.59843        35.649
  22660282.23947 119080785.48347     -3223.56647        43.650    22660286.37543
  92790280.93743     -2511.87543        34.531
  20246776.17549 106397680.79049      -374.54749        49.285    20246777.34347
  82907339.33647      -291.85947        45.264
  20806837.93949 109340842.84849      1613.00049        49.773    20806840.10946
  85200759.76446      1256.87946        42.769
  20399923.08849 107202460.38249      1895.77749        49.410    20399925.53746
  83534473.61046      1477.22746        42.952
  22797971.45247 119804200.69947      2167.80147        44.277    22797974.47644
  93353944.70744      1689.19144        37.905
  22944554.96947 120574545.19647     -3693.99247        43.871    22944559.50943
  93954306.61843     -2878.43843        36.627
  21818566.78948 114657541.16348     -2002.93848        47.402    21818566.76446
  89343601.47246     -1560.73446        41.129
  23015055.94746 120944976.64946      2900.05546        42.847    23015060.96843
  94242854.80543      2259.78143        35.054
  24516171.39745 128833516.63345     -3366.51645        40.264    24516177.24042
 100389842.18642     -2623.26242        34.240
  21661409.77149 113831651.32849      1319.16449        48.497    21661411.57545
  88700021.03745      1027.91845        39.414
 14  3 20  1 30 30.0000000  0 11G 1G 3G 7G 8G 9G11G13G19G26G27G28
  24657286.83845 129574920.26445      2919.37545        39.296    24657296.35744
 100967480.54944      2274.84044        37.561
  22678715.55446 119177653.91446     -3234.32446        42.685    22678719.99044
  92865762.80944     -2520.25444        38.234
  20248951.68849 106409113.30249      -387.76249        49.160    20248952.77747
  82916247.79747      -302.15647        45.251
  20797653.78949 109292579.74949      1604.59449        49.692    20797655.83746
  85163152.20246      1250.32846        42.990
  20389133.77149 107145761.35549      1884.06649        49.471    20389135.98346
  83490292.59746      1468.10246        43.050
  22785631.72547 119739356.44547      2155.05947        44.260    22785634.84243
  93303416.83043      1679.26243        36.561
  22965662.95447 120685466.07347     -3700.80147        44.713    22965667.41043
  94040738.40043     -2883.74243        35.666
  21830050.78948 114717890.77448     -2020.57848        47.058    21830050.61346
  89390627.16046     -1574.48046        41.308
  22998543.61246 120858204.17946      2885.03946        42.915    22998548.72243
  94175240.04243      2248.07843        36.183
  24535408.06445 128934607.53945     -3372.94545        39.618    24535413.96643
 100468614.33743     -2628.27343        34.671
  21653901.44449 113792194.55849      1311.26249        48.616    21653903.02445
  88669275.58045      1021.75845        39.939
 14  3 20  1 31  0.0000000  0 11G 1G 3G 7G 8G 9G11G13G19G26G27G28
  24640624.65046 129487358.68546      2918.17246        41.199    24640634.66642
 100899251.01442      2273.90242        34.253
  22697209.43747 119274839.96847     -3244.71947        43.891    22697213.75343
  92941492.18643     -2528.35543        36.447
  20251202.42949 106420941.16649      -400.80149        49.338    20251203.46147
  82925464.33947      -312.31647        45.234
  20788517.69749 109244569.16449      1596.00849        49.755    20788519.73346
  85125741.39646      1243.64146        42.965
  20378411.70749 107089416.10649      1872.18049        49.363    20378413.81246
  83446387.26046      1458.84046        43.282
  22773365.44047 119674896.94947      2142.27747        44.711    22773368.66843
  93253188.76743      1669.30943        36.372
  22986809.42247 120796591.18347     -3707.44547        44.757    22986813.65443
  94127329.30643     -2888.92243        35.178
  21841635.47448 114778769.81548     -2038.15248        46.894    21841635.53346
  89438065.37346     -1588.17646        41.570
  22982114.94546 120771871.65246      2870.35946        41.635    22982120.26842
  94107968.10242      2236.64842        33.813
  24554681.35645 129035890.45345     -3378.98845        40.339    24554687.50143
 100547536.08343     -2632.98043        35.255
  21646438.46849 113752977.09549      1303.21549        48.258    21646439.96145
  88638716.58845      1015.48845        39.442
 14  3 20  1 31 30.0000000  0 11G 1G 3G 7G 8G 9G11G13G19G26G27G28
  24623968.49645 129399830.33945      2917.09845        40.974    24623978.24743
 100831047.33143      2273.05943        36.446
  22715763.41446 119372341.07746     -3255.35546        42.969    22715767.67643
  93017467.05043     -2536.64543        36.611
  20253528.57749 106433165.29849      -414.19549        49.434    20253529.56947
  82934989.64647      -322.75447        44.912
  20779429.82249 109196812.65449      1587.60949        49.538    20779432.01146
  85088528.57046      1237.09446        43.286
  20367757.18649 107033426.66449      1860.33249        49.614    20367759.34546
  83402759.17446      1449.60546        42.756
  22761172.82047 119610825.13947      2129.11347        45.006    22761176.28544
  93203262.77544      1659.04744        37.057
  23007995.08947 120907919.36447     -3714.25047        44.084    23007998.67642
  94214078.49642     -2894.22342        33.946
  21853320.41248 114840175.68448     -2055.65248        47.126    21853320.60645
  89485914.11145     -1601.80945        40.723
  22965770.21546 120685982.07746      2855.28146        41.563    22965775.93143
  94041041.30043      2224.89543        35.608
  24573990.58245 129137362.68245     -3385.59445        40.559    24573997.05744
 100626605.37344     -2638.12944        36.886
  21639020.92548 113713998.37348      1295.35248        47.761    21639022.48745
  88608343.62345      1009.36345        40.608
 14  3 20  1 32  0.0000000  0 11G 1G 3G 7G 8G 9G11G13G19G26G27G28
  24607319.45845 129312338.32645      2915.72745        41.065    24607328.82442
 100762871.93742      2271.99642        34.106
  22734376.64347 119470153.88747     -3265.59047        43.642    22734380.69443
  93093684.82743     -2544.61743        34.573
  20255930.25049 106445786.34249      -427.33249        49.227    20255931.27347
  82944824.25547      -332.98847        45.098
  20770390.57549 109149312.02249      1579.09849        49.742    20770393.03746
  85051515.13446      1230.46146        43.109
  20357170.67649 106977794.97649      1848.42249        49.275    20357173.03246
  83359409.85546      1440.32446        43.299
  22749054.69647 119547143.94047      2116.19947        44.666    22749058.44344
  93153641.18244      1648.98444        38.172
  23029217.50047 121019444.46547     -3721.01247        45.339    23029221.36642
  94300981.05342     -2899.49242        33.656
  21865105.35048 114902106.34048     -2073.21548        47.227    21865105.71646
  89534171.76046     -1615.49646        42.369
  22949510.65646 120600538.29746      2840.42646        41.851    22949516.30843
  93974461.87643      2213.31643        35.501
  24593335.52045 129239021.71645     -3391.88345        40.838    24593342.16642
 100705820.23042     -2643.02742        34.082
  21631648.53449 113675257.99449      1287.49649        47.812    21631650.53345
  88578156.40345      1003.24245        40.583
 14  3 20  1 32 30.0000000  0 11G 1G 3G 7G 8G 9G11G13G19G26G27G28
  24590677.29443 129224885.59543      2914.35243        35.997    24590686.70242
 100694727.16242      2270.92642        32.948
  22753048.41846 119568275.34846     -3275.95346        43.088    22753052.52544
  93170143.08944     -2552.69544        36.834
  20258407.65249 106458805.13849      -440.59849        49.320    20258408.64247
  82954968.78747      -343.32447        45.023
  20761400.49549 109102068.88349      1570.48849        49.914    20761403.02146
  85014702.33146      1223.75446        43.039
  20346652.64649 106922523.10949      1836.28949        49.284    20346655.10247
  83316340.92147      1430.87147        43.395
  22737011.32647 119483856.22747      2102.91847        44.586    22737015.03444
  93104326.19544      1638.63344        37.831
  23050478.04347 121131166.93347     -3727.21547        43.615    23050481.41443
  94388037.50143     -2904.32843        34.693
  21876989.84248 114964559.34848     -2090.35248        47.093    21876990.21646
  89582836.45546     -1628.84846        41.746
  22933336.90147 120515543.29847      2825.72747        43.858    22933341.92441
  93908232.13941      2201.86741        31.068
  24612715.67045 129340864.92345     -3398.28145        40.719    24612721.76342
 100785178.61542     -2648.01642        34.225
  21624321.57149 113636755.75049      1279.58249        48.003    21624323.93745
  88548154.73845       997.07445        40.268
 14  3 20  1 33  0.0000000  0 11G 1G 3G 7G 8G 9G11G13G19G26G27G28
  24574042.65144 129137475.20744      2912.48844        38.683    24574053.12341
 100626615.45741      2269.47741        31.323
  22771778.61646 119666702.60146     -3285.89146        42.978    22771782.71444
  93246839.64044     -2560.43844        37.347
  20260960.87649 106472222.56549      -453.93849        49.399    20260961.81547
  82965423.94047      -353.72347        44.785
  20752459.80949 109055085.35049      1561.73849        49.759    20752462.28946
  84978091.82046      1216.93846        43.124
  20336203.63849 106867613.39749      1824.32849        49.293    20336206.14946
  83273554.19046      1421.55146        42.974
  22725043.53747 119420964.85547      2089.75447        45.241    22725046.58544
  93055320.02344      1628.37544        36.975
  23071774.65547 121243082.19447     -3733.75447        44.762    23071778.67943
  94475244.07843     -2909.42243        34.544
  21888973.26248 115027532.20248     -2107.90248        46.857    21888973.62646
  89631906.21846     -1642.52346        42.260
  22917248.84947 120431000.00547      2810.59447        43.886    22917253.92543
  93842354.38543      2190.07443        35.341
  24632130.26445 129442889.74745     -3403.87945        39.757    24632136.48542
 100864678.53542     -2652.37542        34.353
  21617040.01849 113598490.40849      1271.59049        48.638    21617042.41245
  88518337.66845       990.84845        40.368
 14  3 20  1 33 30.0000000  0 11G 1G 3G 7G 8G 9G11G13G19G26G27G28
  24557417.41545 129050110.33445      2911.47345        40.834    24557427.70342
 100558539.13642      2268.68042        33.441
  22790566.42047 119765432.84147     -3295.99247        43.906    22790570.52244
  93323772.29244     -2568.30944        37.690
  20263590.10149 106486039.27349      -467.23849        49.427    20263590.99947
  82976190.23247      -364.08647        44.949
  20743568.82649 109008363.11749      1552.94949        49.756    20743571.31446
  84941684.92246      1210.08646        43.230
  20325823.91749 106813067.83249      1812.01249        49.308    20325826.43246
  83231051.19746      1411.95346        43.170
  22713151.43347 119358472.68647      2076.28547        44.228    22713153.83144
  93006624.94644      1617.88744        38.033
  23093108.04147 121355188.52447     -3740.16047        44.623    23093111.75642
  94562599.61042     -2914.41442        33.786
  21901055.00848 115091022.43448     -2124.96548        46.743    21901055.45646
  89681379.12546     -1655.82046        42.097
  22901247.49346 120346911.37646      2795.19546        43.268    22901252.36043
  93776830.90643      2178.07443        36.528
  24651578.82244 129545093.64444     -3410.00044        38.738    24651585.42143
 100944317.94843     -2657.14543        35.718
  21609803.60949 113560461.94649      1263.68849        48.653    21609805.74345
  88488705.16845       984.63745        40.320
 14  3 20  1 34  0.0000000  0 11G 1G 3G 7G 8G 9G11G13G19G26G27G28
  24540801.80445 128962794.05745      2909.62145        39.975    24540811.73742
 100490500.64842      2267.23842        33.713
  22809411.30046 119864463.38646     -3305.96946        43.212    22809415.56744
  93400938.93944     -2576.08244        37.811
  20266295.47249 106500256.31649      -480.64849        49.278    20266296.41947
  82987268.47147      -374.53547        45.218
  20734727.96149 108961903.92649      1544.21149        49.980    20734730.60947
  84905482.99947      1203.27747        43.433
  20315513.78549 106758888.30849      1799.77749        49.448    20315516.22346
  83188833.43446      1402.42246        42.876
  22701336.05447 119296382.58247      2062.87547        45.013    22701338.21643
  92958243.15243      1607.43843        36.655
  23114476.52547 121467480.38847     -3746.15647        44.104    23114480.61343
  94650099.68643     -2919.09043        35.532
  21913234.64648 115155027.44048     -2142.10248        46.806    21913235.15346
  89731253.16246     -1669.17246        41.874
  22885333.16547 120263280.15847      2779.99647        44.210    22885337.72143
  93711663.85243      2166.22743        35.072
  24671061.02544 129647474.01644     -3415.52044        38.003    24671067.82744
 101024094.85944     -2661.44544        36.724
  21602612.18249 113522670.08049      1255.69949        48.431    21602613.95345
  88459257.03645       978.46545        39.826
 14  3 20  1 34 30.0000000  0 11G 1G 3G 7G 8G 9G11G13G19G26G27G28
  24524195.95445 128875529.36945      2907.52745        39.745    24524205.19842
 100422502.37842      2265.60242        32.868
  22828312.63446 119963791.09346     -3315.87946        42.617    22828317.12844
  93478337.14844     -2583.80544        37.555
  20269077.15049 106514874.14749      -493.96149        49.302    20269078.26047
  82998659.00947      -384.90647        44.988
  20725937.53549 108915709.49749      1535.45749        49.776    20725940.23947
  84869487.37747      1196.45747        44.037
  20305273.72749 106705076.67649      1787.50049        49.532    20305276.01146
  83146902.34346      1392.85546        42.924
  22689597.86447 119234697.14847      2049.52747        44.781    22689599.88543
  92910176.64943      1597.03143        35.881
  23135880.31147 121579957.80947     -3752.17247        44.338    23135884.41142
  94737744.35242     -2923.77342        34.147
  21925512.11548 115219545.08948     -2159.10548        47.123    21925512.48146
  89781526.66746     -1682.42246        41.796
  22869506.05946 120180109.25846      2764.89146        42.737    22869510.44943
  93646855.50843      2154.46143        36.216
  24690576.65445 129750028.32945     -3421.79345        39.667    24690583.21542
 101104007.32842     -2666.33642        33.518
  21595465.54949 113485114.20749      1247.87549        48.363    21595467.02945
  88429992.78545       972.36745        40.142
 14  3 20  1 35  0.0000000  0 11G 1G 3G 7G 8G 9G11G13G19G26G27G28
  24507600.23745 128788319.38845      2906.01645        39.450    24507609.10842
 100354546.75942      2264.43042        33.784
  22847270.12147 120063412.98347     -3325.49647        43.903    22847274.58044
  93555964.56144     -2591.30144        36.937
  20271935.25549 106529893.70249      -507.31249        49.201    20271936.57047
  83010362.58147      -395.31247        45.311
  20717197.73449 108869781.41249      1526.48449        49.779    20717200.40247
  84833699.30447      1189.46547        44.008
  20295104.20849 106651635.15049      1775.20749        49.549    20295106.26046
  83105259.63746      1383.27346        42.907
  22677937.16547 119173419.61947      2035.83647        45.320    22677939.45744
  92862428.02844      1586.36744        37.407
  23157318.97747 121692618.40747     -3758.01247        44.789    23157323.43642
  94825531.76542     -2928.32442        33.013
  21937886.65748 115284572.84848     -2176.07048        47.025    21937886.72746
  89832197.66146     -1695.64146        41.423
  22853766.65346 120097401.65646      2749.13346        42.405    22853771.43643
  93582408.17543      2142.18443        35.481
  24710124.86645 129852753.90745     -3427.23445        40.030    24710131.52343
 101184053.24143     -2670.57443        36.004
  21588363.59749 113447793.75649      1240.02349        48.455    21588364.92845
  88400911.99345       966.25045        40.004
 14  3 20  1 35 30.0000000  0 11G 1G 3G 7G 8G 9G11G13G19G26G27G28
  24491015.59745 128701167.15545      2904.45745        39.979    24491024.12842
 100286636.15442      2263.21542        33.909
  22866283.27647 120163326.46647     -3335.26247        43.438    22866287.58744
  93633819.18544     -2598.91444        37.834
  20274869.90649 106545315.71549      -520.72349        49.170    20274871.20247
  83022379.74747      -405.76247        45.047
  20708508.90449 108824121.49349      1517.48049        49.861    20708511.44247
  84798120.18947      1182.44947        43.617
  20285005.44449 106598565.76449      1762.71549        49.403    20285007.49046
  83063906.91846      1373.53946        42.670
  22666354.36647 119112552.25247      2022.04347        44.592    22666356.95444
  92814999.00744      1575.61744        37.815
  23178791.35947 121805456.98747     -3764.03547        43.981    23178796.42843
  94913457.85343     -2933.02043        34.797
  21950357.63448 115350108.23148     -2193.00848        46.984    21950357.61446
  89883264.19846     -1708.84046        41.747
  22838116.25246 120015160.11846      2733.60946        42.858    22838121.39644
  93518324.03044      2130.08644        38.305
  24729705.19145 129955648.24445     -3432.42645        39.952    24729711.81142
 101264230.66842     -2674.62142        34.399
  21581306.32049 113410708.26449      1232.34049        48.609    21581307.87145
  88372014.27445       960.23845        40.306
 14  3 20  1 36  0.0000000  0 11G 1G 3G 7G 8G 9G11G13G19G26G27G28
  24474442.62045 128614075.89745      2901.71945        38.939    24474450.88942
 100218772.99742      2261.08642        34.244
  22885351.23047 120263528.38247     -3344.71947        43.917    22885355.13643
  93711898.61243     -2606.27743        36.030
  20277881.36749 106561141.11849      -534.19949        49.163    20277882.60547
  83034711.25647      -416.26247        45.134
  20699871.50149 108778731.66649      1508.56649        49.862    20699873.96847
  84762751.53947      1175.50447        43.413
  20274977.93449 106545870.75849      1750.23049        49.659    20274979.97246
  83022845.92546      1363.81246        42.886
  22654849.78747 119052097.85247      2008.17247        44.434    22654853.05943
  92767891.79243      1564.80943        36.209
  23200296.88646 121918470.89946     -3770.13346        43.208    23200302.04643
  95001520.56543     -2937.77043        35.936
  21962924.58048 115416148.72548     -2209.77748        46.714    21962924.48946
  89934724.34546     -1721.90646        41.848
  22822555.44247 119933387.54947      2717.80547        43.710    22822560.26242
  93454605.27942      2117.76642        33.831
  24749316.97645 130058708.85245     -3437.82445        39.454    24749323.24942
 101344537.70042     -2678.82842        32.759
  21574293.59549 113373857.19449      1224.44149        48.235    21574295.48145
  88343299.22145       954.10545        40.827
 14  3 20  1 36 30.0000000  0 11G 1G 3G 7G 8G 9G11G13G19G26G27G28
  24457881.68944 128527048.61144      2899.78544        38.537    24457889.95643
 100150959.75043      2259.57843        36.415
  22904473.41747 120364015.75447     -3354.30947        43.813    22904477.11343
  93790200.45143     -2613.75043        36.122
  20280969.62649 106577370.05249      -547.69949        49.155    20280970.87147
  83047357.19447      -426.78147        45.057
  20691285.81449 108733613.80949      1499.39549        49.956    20691288.35447
  84727594.81547      1168.35547        43.393
  20265022.07349 106493552.26949      1737.60549        49.798    20265024.03746
  82982078.32146      1353.97746        42.961
  22643424.42447 118992059.13047      1994.26647        44.660    22643427.81344
  92721108.46944      1553.97344        36.955
  23221835.83546 122031659.78546     -3775.82846        43.137    23221841.26543
  95089719.64043     -2942.20743        35.765
  21975587.11548 115482691.45648     -2226.41048        46.553    21975587.38546
  89986575.83046     -1734.86746        42.471
  22807084.54547 119852086.67747      2702.21147        44.880    22807088.82943
  93391254.09343      2105.61743        34.550
  24768959.73744 130161933.17344     -3443.32044        37.976    24768966.28442
 101424972.22842     -2683.11342        33.999
  21567325.42749 113337240.06949      1216.57049        48.056    21567327.56946
  88314766.46946       947.97346        41.128
 14  3 20  1 37  0.0000000  0 11G 1G 3G 7G 8G 9G11G13G19G26G27G28
  24441333.67545 128440088.47245      2897.34045        40.038    24441342.25844
 100083198.74344      2257.66844        38.016
  22923649.13046 120464785.73846     -3363.66446        42.328    22923653.16943
  93868722.50943     -2621.03943        36.245
  20284134.84249 106594003.47849      -561.11349        49.251    20284136.10647
  83060318.32647      -437.23447        44.888
  20682752.27649 108688769.91649      1490.24249        49.936    20682754.84446
  84692651.56446      1161.22346        43.298
  20255138.25449 106441612.31449      1725.02049        49.583    20255140.11146
  82941605.67046      1344.16846        42.776
  22632078.90647 118932439.21447      1980.32847        44.757    22632082.35443
  92674651.48643      1543.10943        36.019
  23243406.99147 122145018.19347     -3781.28147        43.437    23243412.58842
  95178050.77042     -2946.45742        34.292
  21988344.78048 115549734.09548     -2243.07048        46.776    21988345.17746
  90038816.84446     -1747.85246        41.239
  22791703.96947 119771260.42947      2686.36747        43.897    22791708.25043
  93328272.75143      2093.27343        34.620
  24788633.44944 130265318.56744     -3448.95344        38.402    24788639.51741
 101505532.34141     -2687.50041        27.803
  21560401.71549 113300856.41749      1208.87549        48.098    21560403.88645
  88286415.64445       941.97745        40.678
 14  3 20  1 37 30.0000000  0 11G 1G 3G 7G 8G 9G11G13G19G26G27G28
  24424798.51345 128353198.48745      2895.28945        40.087    24424807.48143
 100015492.46843      2256.06643        36.052
  22942878.15246 120565835.37046     -3372.81646        43.037    22942882.25343
  93947462.46343     -2628.17243        35.812
  20287377.23249 106611042.37649      -574.77349        49.123    20287378.45847
  83073595.41147      -447.87947        45.084
  20674271.21949 108644201.61149      1480.97749        49.980    20674273.70447
  84657923.06647      1154.00447        43.841
  20245326.74149 106390052.78549      1712.23449        49.564    20245328.58546
  82901429.45146      1334.20746        43.272
  22620814.05847 118873241.16047      1966.26247        45.059    22620817.37544
  92628523.21244      1532.14844        37.296
  23265010.52347 122258544.13147     -3787.01247        43.613    23265016.19542
  95266512.47142     -2950.92642        32.978
  22001197.25748 115617274.82448     -2259.76248        46.624    22001197.85146
  90091445.97846     -1760.85546        41.633
  22776414.18747 119690911.70047      2670.32047        43.390    22776418.73143
  93265663.49743      2080.77043        35.536
  24808337.50045 130368862.57745     -3454.43445        39.781    24808343.48442
 101586216.02142     -2691.77042        33.796
  21553522.40149 113264705.81349      1201.15249        48.454    21553524.58645
  88258246.41645       935.96145        41.079
 14  3 20  1 38  0.0000000  0 11G 1G 3G 7G 8G 9G11G13G19G26G27G28
  24408277.46944 128266381.86344      2892.19544        38.231    24408286.91844
  99947843.37844      2253.66444        37.491
  22962159.95546 120667161.85246     -3381.96546        42.681    22962164.19243
  94026418.12343     -2635.30143        36.381
  20290696.86049 106628487.58849      -588.24649        49.157    20290698.12047
  83087189.10047      -458.37547        44.845
  20665842.82449 108599910.53749      1471.71149        49.713    20665845.18547
  84623410.58647      1146.78547        43.512
  20235587.96449 106338875.65049      1699.44949        49.703    20235590.02046
  82861551.20746      1324.24246        43.245
  22609629.99047 118814467.23547      1951.98847        45.024    22609633.39944
  92582725.43144      1521.02744        38.097
  23286644.99646 122372235.37046     -3792.52346        43.197    23286650.99642
  95355102.94642     -2955.21542        34.044
  22014143.96948 115685310.17448     -2276.19948        46.626    22014144.40345
  90144460.54745     -1773.66445        41.073
  22761215.23946 119611043.16546      2654.27046        42.031    22761220.29043
  93203428.40643      2068.25843        35.117
  24828070.81745 130472562.60445     -3459.13745        39.345    24828077.43642
 101667021.24542     -2695.43442        34.197
  21546687.57249 113228787.91749      1193.29749        48.616    21546689.50145
  88230258.48645       929.84045        40.307
 14  3 20  1 38 30.0000000  0 11G 1G 3G 7G 8G 9G11G13G19G26G27G28
  24391771.05444 128179641.67644      2890.12144        38.799    24391780.70643
  99880253.84343      2252.04743        36.305
  22981493.93146 120768762.46346     -3391.46546        42.807    22981497.90043
  94105587.42443     -2642.70343        35.961
  20294093.98949 106646339.64449      -601.85949        49.257    20294095.29247
  83101099.81847      -468.98447        45.013
  20657467.30649 108555898.28749      1462.44549        49.623    20657469.73347
  84589115.38547      1139.56647        43.525
  20225922.27649 106288082.92549      1686.59049        49.541    20225924.69047
  82821972.50847      1314.22347        43.556
  22598527.06247 118756120.59347      1937.83247        44.981    22598530.54543
  92537260.61843      1510.00043        36.569
  23308310.54546 122486088.97646     -3797.77346        42.405    23308315.81541
  95443819.97841     -2959.30941        31.369
  22027184.37948 115753837.83848     -2292.40648        46.993    22027184.58945
  90197858.73845     -1786.29345        40.925
  22746107.74246 119531657.62046      2638.01246        41.649    22746113.78343
  93141569.75843      2055.59443        34.623
  24847833.26445 130576416.18245     -3464.13745        40.147    24847839.65542
 101747946.15842     -2699.33242        32.455
  21539896.73249 113193101.88649      1185.63349        48.469    21539898.40945
  88202451.25545       923.82845        40.210
 14  3 20  1 39  0.0000000  0 11G 1G 3G 7G 8G 9G11G13G19G26G27G28
  24375280.14345 128092981.03345      2887.25845        39.871    24375289.94242
  99812726.25342      2249.80942        32.773
  23000879.44647 120870634.38847     -3400.06647        43.441    23000883.70043
  94184968.13243     -2649.40643        36.309
  20297568.69449 106664599.06649      -615.43449        49.225    20297569.82947
  83115327.95547      -479.56247        44.717
  20649145.30449 108512166.95249      1453.05549        49.740    20649147.57846
  84555039.06846      1132.24646        42.928
  20216330.22649 106237676.84849      1673.77349        49.414    20216332.81546
  82782695.08946      1304.23446        43.248
  22587505.71647 118698203.21947      1923.30547        44.412    22587509.33843
  92492130.28643      1498.67643        36.528
  23330006.57647 122600101.72047     -3803.18847        43.976    23330011.21943
  95532660.99843     -2963.52743        35.364
  22040318.01848 115822855.44648     -2308.67248        46.819    22040318.05945
  90251638.71045     -1798.96945        40.259
  22731093.52946 119452757.89446      2621.79346        42.849    22731099.46443
  93080089.59643      2042.95743        35.961
  24867624.69845 130680420.77945     -3469.28545        39.085    24867631.20044
 101828988.75144     -2703.34444        36.693
  21533149.88049 113157647.39749      1178.07049        48.061    21533151.46945
  88174824.43345       917.97345        40.158
 14  3 20  1 39 30.0000000  0 11G 1G 3G 7G 8G 9G11G13G19G26G27G28
  24358805.09146 128006403.14546      2884.20346        41.213    24358814.07743
  99745263.14543      2247.43043        34.889
  23020316.21446 120972774.64946     -3409.22746        42.893    23020320.71443
  94264557.92843     -2656.54343        35.627
  20301120.97049 106683266.26649      -628.97749        49.235    20301122.03147
  83129873.84947      -490.11347        44.591
  20640877.22849 108468718.09849      1443.52049        49.776    20640879.28146
  84521182.86646      1124.81646        43.021
  20206812.25349 106187659.46649      1660.78149        49.670    20206814.84847
  82743720.55147      1294.11347        43.717
  22576566.41647 118640718.40647      1908.79747        45.454    22576570.24144
  92447337.02944      1487.37544        37.330
  23351732.31847 122714270.17247     -3808.07847        43.527    23351736.87943
  95621623.34043     -2967.34043        35.267
  22053544.37848 115892360.40248     -2324.95348        46.686    22053544.58345
  90305798.42245     -1811.65645        41.040
  22716172.49447 119374346.78347      2605.70347        44.281    22716178.31644
  93018990.21544      2030.41844        37.439
  24887444.38244 130784573.88444     -3474.09444        38.628    24887450.72343
 101910147.05743     -2707.09043        34.895
  21526446.90949 113122423.82649      1170.30149        48.006    21526448.57445
  88147377.56345       911.91845        40.537
 14  3 20  1 40  0.0000000  0 11G 1G 3G 7G 8G 9G11G13G19G26G27G28
  24342346.28845 127919911.00245      2881.65245        40.027    24342354.67542
  99677866.86042      2245.44942        34.164
  23039803.32646 121075180.26546     -3417.92246        42.655    23039807.57644
  94344354.48144     -2663.32044        36.979
  20304751.08349 106702342.61049      -642.80549        49.190    20304752.15447
  83144738.54147      -500.89147        44.797
  20632663.36349 108425553.56149      1434.09049        49.761    20632665.30346
  84487548.19246      1117.46946        43.016
  20197368.64149 106138032.78349      1647.69149        49.471    20197371.20947
  82705050.45747      1283.91447        43.663
  22565710.18147 118583668.57247      1894.35547        45.286    22565713.64843
  92402882.69643      1476.11743        35.881
  23373487.49547 122828592.19647     -3813.37147        43.633    23373492.01843
  95710705.35643     -2971.46143        35.634
  22066863.04948 115962350.44748     -2341.02748        46.735    22066863.48946
  90360336.11746     -1824.18046        41.842
  22701345.16747 119296427.02347      2588.99247        45.103    22701350.27943
  92958273.66143      2017.39843        35.778
  24907291.53044 130888872.98244     -3478.87144        38.213    24907298.55242
 101991419.08242     -2710.81242        32.685
  21519787.80649 113087430.87549      1162.47749        48.069    21519789.62345
  88120110.39245       905.82445        40.760
 14  3 20  1 40 30.0000000  0 11G 1G 3G 7G 8G 9G11G13G19G26G27G28
  24325904.10645 127833507.75345      2878.37945        39.602    24325912.34644
  99610539.87244      2242.89544        37.778
  23059340.41946 121177847.96746     -3426.64546        42.553    23059344.77244
  94424355.28544     -2670.11744        36.867
  20308459.08549 106721828.39549      -656.26649        49.201    20308460.09047
  83159922.29147      -511.37947        44.589
  20624503.92849 108382675.11949      1424.46549        49.859    20624505.85046
  84454136.45846      1109.96946        43.240
  20187999.60749 106088798.77549      1634.49649        49.461    20188002.14147
  82666686.33947      1273.62947        43.344
  22554937.44748 118527056.36848      1879.75048        45.777    22554939.94343
  92358769.35843      1464.74243        36.412
  23395271.12246 122943064.27246     -3818.51646        43.302    23395274.96343
  95799904.31443     -2975.46943        34.971
  22080273.51848 116032822.13348     -2356.93448        46.932    22080274.00646
  90415249.12546     -1836.57446        41.631
  22686611.86547 119219001.41347      2572.52047        43.863    22686616.25742
  92897942.12842      2004.56242        34.347
  24927165.92144 130993315.58844     -3483.72344        36.795    24927173.13742
 102072802.93242     -2714.59442        34.335
  21513172.68149 113052668.16149      1154.89549        48.414    21513174.58645
  88093022.62245       899.91445        40.791
 14  3 20  1 41  0.0000000  0 11G 1G 3G 7G 8G 9G11G13G19G26G27G28
  24309479.66445 127747196.65045      2875.15245        39.561    24309488.06943
  99543284.70643      2240.38343        34.623
  23078926.99546 121280775.49746     -3435.25846        43.107    23078931.26044
  94504558.53044     -2676.82844        37.073
  20312245.17449 106741724.20349      -670.03949        49.342    20312245.87247
  83175425.52447      -522.11347        44.534
  20616399.27149 108340084.79549      1414.87149        49.835    20616401.30546
  84420949.24046      1102.49246        43.186
  20178705.71849 106039959.43049      1621.38749        49.693    20178708.11347
  82628629.75247      1263.41447        43.576
  22544248.29547 118470884.50847      1864.94947        45.096    22544250.59244
  92314999.16744      1453.20344        36.935
  23417082.93947 123057684.33547     -3823.23847        43.945    23417086.73542
  95889218.56342     -2979.14842        33.746
  22093775.11148 116103772.74548     -2372.98448        46.890    22093775.40646
  90470535.32946     -1849.08246        41.388
  22671972.59847 119142072.61347      2556.13747        43.911    22671976.96743
  92837997.72843      1991.79343        35.551
  24947067.51044 131097899.14544     -3488.87944        37.417    24947074.70244
 102154296.60844     -2718.60944        36.748
  21506601.34249 113018134.97349      1147.19549        48.622    21506603.29445
  88066113.70645       893.91445        40.042
 14  3 20  1 41 30.0000000  0 11G 1G 3G 7G 8G 9G11G13G19G26G27G28
  24293073.54346 127660980.72446      2872.18046        41.411    24293081.56743
  99476103.62943      2238.06243        35.915
  23098562.49046 121383959.93246     -3443.50846        42.280    23098566.61743
  94584961.98843     -2683.25843        35.468
  20316109.50349 106762030.72449      -683.75049        49.391    20316110.03947
  83191248.80647      -532.79747        44.331
  20608349.75549 108297784.31949      1405.11349        49.843    20608351.81747
  84387987.87247      1094.89147        43.353
  20169487.46049 105991516.82649      1608.12949        49.747    20169489.58046
  82590882.32246      1253.08646        43.285
  22533643.37648 118415155.49148      1850.23448        45.658    22533645.48244
  92271574.04144      1441.74244        37.052
  23438922.01546 123172449.05046     -3827.85246        42.967    23438925.76842
  95978645.55042     -2982.74642        33.065
  22107367.31348 116175200.26348     -2388.74648        46.845    22107367.53845
  90526193.13445     -1861.36345        41.039
  22657428.01946 119065643.38846      2539.15646        42.334    22657432.64443
  92778442.64843      1978.56243        35.069
  24966995.87544 131202621.06744     -3492.86744        38.135    24967002.75443
 102235898.16743     -2721.71943        36.031
  21500073.52249 112983830.61649      1139.69949        48.407    21500075.27545
  88039383.09045       888.07445        40.076
 14  3 20  1 42  0.0000000  0 11G 1G 3G 7G 8G 9G11G13G19G26G27G28
  24276685.89245 127574863.16245      2868.87945        40.388    24276693.95242
  99408999.21442      2235.49242        32.692
  23118246.08146 121487398.37346     -3452.28546        42.954    23118250.54244
  94665563.33944     -2690.09444        36.988
  20320051.98849 106782748.60349      -697.39149        49.076    20320052.54847
  83207392.61147      -543.42647        44.712
  20600355.66049 108255775.32949      1395.37549        49.879    20600357.69847
  84355253.63247      1087.30147        43.586
  20160345.11049 105943473.12649      1594.67649        49.630    20160346.93946
  82553445.71246      1242.60246        43.323
  22523123.33048 118359872.10848      1835.36748        45.910    22523125.54944
  92228496.15444      1430.15244        36.720
  23460788.56347 123287357.29347     -3832.55947        44.031    23460792.50442
  96068184.35842     -2986.41442        33.591
  22121049.75948 116247102.03748     -2404.54348        46.392    22121049.95545
  90582220.50545     -1873.67245        40.287
  22642979.01046 118989716.40446      2522.55946        42.430    22642984.08243
  92719278.92743      1965.62943        34.618
  24986949.76344 131307479.09244     -3497.52044        37.764    24986956.58444
 102317605.73344     -2725.34444        38.092
  21493588.90249 112949754.49749      1132.07849        48.150    21493590.48545
  88012830.33545       882.13745        40.826
 14  3 20  1 42 30.0000000  0 11G 1G 3G 7G 8G 9G11G13G19G26G27G28
  24260316.95445 127488847.07045      2865.12545        39.199    24260324.36943
  99341973.85843      2232.57043        34.734
  23137977.33746 121591087.71646     -3460.45746        42.055    23137981.75944
  94746360.19544     -2696.46544        37.543
  20324072.77449 106803878.50349      -711.22749        49.294    20324073.42247
  83223857.48047      -554.20747        44.283
  20592417.45449 108214059.76749      1385.67649        49.795    20592419.56847
  84322748.04247      1079.74647        43.697
  20151278.88349 105895830.05849      1581.46549        49.661    20151280.64446
  82516321.28846      1232.30946        42.675
  22512688.53848 118305037.09748      1820.28148        45.888    22512690.95144
  92185767.66144      1418.40244        37.152
  23482681.40547 123402403.53247     -3837.18047        44.251    23482685.28242
  96157830.66842     -2990.01242        33.213
  22134821.87948 116319475.46148     -2420.32848        46.459    22134821.94746
  90638615.38346     -1885.97346        41.125
  22628626.45747 118914294.39947      2505.67647        43.702    22628631.91344
  92660508.68144      1952.47344        37.362
  25006928.99544 131412470.57644     -3502.44944        37.873    25006936.01243
 102399417.31643     -2729.18443        35.605
  21487147.70649 112915906.11649      1124.47749        48.282    21487149.08645
  87986455.01645       876.21145        40.684
 14  3 20  1 43  0.0000000  0 11G 1G 3G 7G 8G 9G11G13G19G26G27G28
  24243967.58244 127402935.63444      2862.21544        38.346    24243976.13643
  99275030.10143      2230.30143        36.606
  23157756.01746 121695025.50046     -3468.77746        41.955    23157760.44343
  94827350.66943     -2702.94543        34.501
  20328172.03949 106825420.88149      -725.03149        48.999    20328172.71547
  83240643.76447      -564.96147        45.042
  20584535.38949 108172639.59049      1375.67649        49.727    20584537.55747
  84290472.63147      1071.95347        43.522
  20142289.27549 105848589.78549      1567.99649        49.589    20142291.11347
  82479510.73147      1221.81247        43.374
  22502339.59548 118250652.66148      1805.35548        45.778    22502342.30044
  92143390.24444      1406.76644        38.373
  23504600.47147 123517586.62747     -3841.66447        44.334    23504604.16642
  96247583.68042     -2993.50842        32.822
  22148683.35448 116392317.53048     -2435.77048        46.748    22148683.31445
  90695375.44245     -1898.00445        40.952
  22614371.06747 118839380.12547      2488.57447        44.725    22614376.09543
  92602134.05143      1939.14543        36.611
  25026932.84544 131517593.12144     -3506.46944        38.881    25026939.79443
 102481331.02243     -2732.31643        36.374
  21480749.91749 112882285.09849      1117.01249        48.833    21480751.23245
  87960256.87845       870.39545        40.429
 14  3 20  1 43 30.0000000  0 11G 1G 3G 7G 8G 9G11G13G19G26G27G28
  24227639.19345 127317131.95945      2858.64145        39.019    24227648.16644
  99208170.30144      2227.51244        37.824
  23177581.51946 121799208.31646     -3476.84446        42.625    23177585.90543
  94908532.05143     -2709.23043        35.967
  20332350.01049 106847376.46549      -738.80949        49.386    20332350.97947
  83257752.02447      -575.69947        44.279
  20576709.79049 108131516.80549      1365.76649        49.668    20576712.08247
  84258428.94947      1064.23047        43.622
  20133376.74249 105801754.44249      1554.42249        49.476    20133378.69347
  82443015.70347      1211.23447        43.433
  22492076.85748 118196721.68848      1790.12548        45.922    22492079.48544
  92101366.18144      1394.89844        38.172
  23526544.28547 123632903.83847     -3845.96547        43.546    23526548.34642
  96337441.13442     -2996.85942        32.472
  22162633.54348 116465625.86748     -2451.39848        46.638    22162633.38945
  90752498.83845     -1910.18445        40.618
  22600212.94547 118764976.21847      2471.66447        45.254    22600217.62343
  92544157.11543      1925.96943        35.557
  25046961.09845 131622844.22645     -3510.06645        38.944    25046968.18543
 102563344.86443     -2735.12143        34.735
  21474395.29449 112848890.89749      1109.29749        48.653    21474396.52046
  87934235.48046       864.38346        41.201
